[
   {
      "display_name":"Abee",
      "lat":54.237968346,
      "lon":-113.024796357999,
      "province":"AB"
   },
   {
      "display_name":"Acadia Valley",
      "lat":51.158468852,
      "lon":-110.209316610999,
      "province":"AB"
   },
   {
      "display_name":"Acme",
      "lat":51.4972222,
      "lon":-113.508611099999,
      "province":"AB"
   },
   {
      "display_name":"Aden",
      "lat":49.0247222,
      "lon":-111.2986111,
      "province":"AB"
   },
   {
      "display_name":"Aetna",
      "lat":49.1338888,
      "lon":-113.239999899999,
      "province":"AB"
   },
   {
      "display_name":"Airdrie",
      "lat":51.281365032,
      "lon":-114.004310075999,
      "province":"AB"
   },
   {
      "display_name":"Alberta Beach",
      "lat":53.675590944,
      "lon":-114.352791479999,
      "province":"AB"
   },
   {
      "display_name":"Alder Flats",
      "lat":52.9330555,
      "lon":-114.956944399999,
      "province":"AB"
   },
   {
      "display_name":"Aldersyde",
      "lat":50.6761111,
      "lon":-113.878888899999,
      "province":"AB"
   },
   {
      "display_name":"Alexander",
      "lat":53.8033333,
      "lon":-113.918610999999,
      "province":"AB"
   },
   {
      "display_name":"Algar River",
      "lat":56.5486110999999,
      "lon":-112.1941667,
      "province":"AB"
   },
   {
      "display_name":"Alhambra",
      "lat":52.3430555,
      "lon":-114.672499899999,
      "province":"AB"
   },
   {
      "display_name":"Alix",
      "lat":52.398068828,
      "lon":-113.188516602999,
      "province":"AB"
   },
   {
      "display_name":"Alliance",
      "lat":52.4344444,
      "lon":-111.785277799999,
      "province":"AB"
   },
   {
      "display_name":"Altario",
      "lat":51.918611,
      "lon":-110.162222199999,
      "province":"AB"
   },
   {
      "display_name":"Amesbury",
      "lat":55.0811111,
      "lon":-112.497222099999,
      "province":"AB"
   },
   {
      "display_name":"Amisk",
      "lat":52.5655555,
      "lon":-111.057222199999,
      "province":"AB"
   },
   {
      "display_name":"Andrew",
      "lat":53.8783333,
      "lon":-112.335277700999,
      "province":"AB"
   },
   {
      "display_name":"Anzac",
      "lat":56.447848328,
      "lon":-111.045991723999,
      "province":"AB"
   },
   {
      "display_name":"Arcadia",
      "lat":55.402609387,
      "lon":-116.131174882999,
      "province":"AB"
   },
   {
      "display_name":"Ardenode",
      "lat":51.1444444,
      "lon":-113.423611,
      "province":"AB"
   },
   {
      "display_name":"Ardley",
      "lat":52.261077593,
      "lon":-113.231655375999,
      "province":"AB"
   },
   {
      "display_name":"Ardmore",
      "lat":54.33143692,
      "lon":-110.477448409999,
      "province":"AB"
   },
   {
      "display_name":"Ardrossan",
      "lat":53.5522222,
      "lon":-113.143888799999,
      "province":"AB"
   },
   {
      "display_name":"Argentia Beach",
      "lat":53.0536111,
      "lon":-114.016388899999,
      "province":"AB"
   },
   {
      "display_name":"Armada",
      "lat":50.4138888,
      "lon":-112.753611098999,
      "province":"AB"
   },
   {
      "display_name":"Armena",
      "lat":53.1224999,
      "lon":-112.948888899999,
      "province":"AB"
   },
   {
      "display_name":"Arrowwood",
      "lat":50.739167991,
      "lon":-113.149818145999,
      "province":"AB"
   },
   {
      "display_name":"Ashmont",
      "lat":54.1291666,
      "lon":-111.568055599999,
      "province":"AB"
   },
   {
      "display_name":"Aspen Beach Provincial Park",
      "lat":52.4622222,
      "lon":-113.9766667,
      "province":"AB"
   },
   {
      "display_name":"Assumption",
      "lat":58.6994444,
      "lon":-118.687222200999,
      "province":"AB"
   },
   {
      "display_name":"Athabasca",
      "lat":54.715136356,
      "lon":-113.284257373999,
      "province":"AB"
   },
   {
      "display_name":"Atikameg",
      "lat":55.9169444,
      "lon":-115.651388900999,
      "province":"AB"
   },
   {
      "display_name":"Atmore",
      "lat":54.8191666,
      "lon":-112.549722100999,
      "province":"AB"
   },
   {
      "display_name":"Banff",
      "lat":51.178992274,
      "lon":-115.568828002999,
      "province":"AB"
   },
   {
      "display_name":"Banff National Park of Canada",
      "lat":51.5999999999999,
      "lon":-116.05,
      "province":"AB"
   },
   {
      "display_name":"Baptiste River",
      "lat":52.6584719999999,
      "lon":-115.301167,
      "province":"AB"
   },
   {
      "display_name":"Barnwell",
      "lat":49.7605555,
      "lon":-112.263333299999,
      "province":"AB"
   },
   {
      "display_name":"Barons",
      "lat":49.997481237,
      "lon":-113.080638045999,
      "province":"AB"
   },
   {
      "display_name":"Barrhead",
      "lat":54.1216666,
      "lon":-114.403611098999,
      "province":"AB"
   },
   {
      "display_name":"Bashaw",
      "lat":52.5830555,
      "lon":-112.970277699999,
      "province":"AB"
   },
   {
      "display_name":"Bassano",
      "lat":50.7874999,
      "lon":-112.468333199999,
      "province":"AB"
   },
   {
      "display_name":"Bawlf",
      "lat":52.9194444,
      "lon":-112.466110999999,
      "province":"AB"
   },
   {
      "display_name":"Bay Tree",
      "lat":55.8249999,
      "lon":-119.906111098999,
      "province":"AB"
   },
   {
      "display_name":"Beaumont",
      "lat":53.3524999999999,
      "lon":-113.4152778,
      "province":"AB"
   },
   {
      "display_name":"Beauvais Lake Provincial Park",
      "lat":49.4141667,
      "lon":-114.115,
      "province":"AB"
   },
   {
      "display_name":"Beauvallon",
      "lat":53.659169217,
      "lon":-111.361616620999,
      "province":"AB"
   },
   {
      "display_name":"Beaver Lake",
      "lat":54.752955272,
      "lon":-111.927430779999,
      "province":"AB"
   },
   {
      "display_name":"Beaver Mines",
      "lat":49.4566666,
      "lon":-114.197222098999,
      "province":"AB"
   },
   {
      "display_name":"Beaverlodge",
      "lat":55.211790748,
      "lon":-119.422057068999,
      "province":"AB"
   },
   {
      "display_name":"Behan",
      "lat":55.2763889,
      "lon":-110.4275,
      "province":"AB"
   },
   {
      "display_name":"Beiseker",
      "lat":51.385,
      "lon":-113.536110998999,
      "province":"AB"
   },
   {
      "display_name":"Bellevue (21-7-3-W5)",
      "lat":49.5807999,
      "lon":-114.366099999999,
      "province":"AB"
   },
   {
      "display_name":"Bellis",
      "lat":54.1427777,
      "lon":-112.150277698999,
      "province":"AB"
   },
   {
      "display_name":"Benalto",
      "lat":52.3077777,
      "lon":-114.278333200999,
      "province":"AB"
   },
   {
      "display_name":"Benchlands",
      "lat":51.28343509,
      "lon":-114.800894224999,
      "province":"AB"
   },
   {
      "display_name":"Bentley",
      "lat":52.4663889,
      "lon":-114.051111100999,
      "province":"AB"
   },
   {
      "display_name":"Berdinskies",
      "lat":58.0463889,
      "lon":-111.3608333,
      "province":"AB"
   },
   {
      "display_name":"Bergen",
      "lat":51.7080555,
      "lon":-114.632499899999,
      "province":"AB"
   },
   {
      "display_name":"Berwyn",
      "lat":56.148847731,
      "lon":-117.724452612,
      "province":"AB"
   },
   {
      "display_name":"Betula Beach",
      "lat":53.536163584,
      "lon":-114.676913210999,
      "province":"AB"
   },
   {
      "display_name":"Beynon",
      "lat":51.3333332999999,
      "lon":-112.7938889,
      "province":"AB"
   },
   {
      "display_name":"Bezanson",
      "lat":55.228611,
      "lon":-118.360833200999,
      "province":"AB"
   },
   {
      "display_name":"Big Hill Springs Provincial Park",
      "lat":51.2516666999999,
      "lon":-114.3869444,
      "province":"AB"
   },
   {
      "display_name":"Big Knife Provincial Park",
      "lat":52.4897221999999,
      "lon":-112.2105556,
      "province":"AB"
   },
   {
      "display_name":"Big Stone",
      "lat":51.2022221999999,
      "lon":-111.1930556,
      "province":"AB"
   },
   {
      "display_name":"Big Valley",
      "lat":52.0327778,
      "lon":-112.751944298999,
      "province":"AB"
   },
   {
      "display_name":"Bindloss",
      "lat":50.8799999,
      "lon":-110.273610998999,
      "province":"AB"
   },
   {
      "display_name":"Birch Cove",
      "lat":53.953826189,
      "lon":-114.372438545999,
      "province":"AB"
   },
   {
      "display_name":"Bircham",
      "lat":51.4588888,
      "lon":-113.430833199999,
      "province":"AB"
   },
   {
      "display_name":"Birchcliff",
      "lat":52.3619444,
      "lon":-114.118055599999,
      "province":"AB"
   },
   {
      "display_name":"Bison Lake",
      "lat":57.1883333,
      "lon":-116.1363889,
      "province":"AB"
   },
   {
      "display_name":"Bistcho Lake",
      "lat":59.7425,
      "lon":-118.845,
      "province":"AB"
   },
   {
      "display_name":"Bittern Lake",
      "lat":53.0080555,
      "lon":-113.0566667,
      "province":"AB"
   },
   {
      "display_name":"Bitumount",
      "lat":57.3866667,
      "lon":-111.6461111,
      "province":"AB"
   },
   {
      "display_name":"Blackfalds",
      "lat":52.3783333,
      "lon":-113.796110999999,
      "province":"AB"
   },
   {
      "display_name":"Blackfoot",
      "lat":53.2891666,
      "lon":-110.173333299999,
      "province":"AB"
   },
   {
      "display_name":"Blackie",
      "lat":50.6044444,
      "lon":-113.622777698999,
      "province":"AB"
   },
   {
      "display_name":"Blairmore",
      "lat":49.6080555,
      "lon":-114.442777699999,
      "province":"AB"
   },
   {
      "display_name":"Blue Ridge",
      "lat":54.1249999,
      "lon":-115.377777699999,
      "province":"AB"
   },
   {
      "display_name":"Blueberry Mountain",
      "lat":55.9266667,
      "lon":-119.149722199999,
      "province":"AB"
   },
   {
      "display_name":"Bluesky",
      "lat":56.073463268,
      "lon":-118.238840301999,
      "province":"AB"
   },
   {
      "display_name":"Bluffton",
      "lat":52.7494444,
      "lon":-114.291666699999,
      "province":"AB"
   },
   {
      "display_name":"Bodo",
      "lat":52.1533332,
      "lon":-110.079166599999,
      "province":"AB"
   },
   {
      "display_name":"Boggy Hall",
      "lat":53.0133333,
      "lon":-115.2275,
      "province":"AB"
   },
   {
      "display_name":"Bon Accord",
      "lat":53.8369444,
      "lon":-113.412222099999,
      "province":"AB"
   },
   {
      "display_name":"Bonanza",
      "lat":55.9127778,
      "lon":-119.827499999999,
      "province":"AB"
   },
   {
      "display_name":"Bondiss",
      "lat":54.5980555,
      "lon":-112.694999899999,
      "province":"AB"
   },
   {
      "display_name":"Bonnyville",
      "lat":54.267222199,
      "lon":-110.738611000999,
      "province":"AB"
   },
   {
      "display_name":"Bonnyville Beach",
      "lat":54.225270647,
      "lon":-110.867430064999,
      "province":"AB"
   },
   {
      "display_name":"Bootis Hill",
      "lat":59.4341666999999,
      "lon":-119.5694444,
      "province":"AB"
   },
   {
      "display_name":"Botha",
      "lat":52.3080555,
      "lon":-112.523888799999,
      "province":"AB"
   },
   {
      "display_name":"Bottrel",
      "lat":51.4025,
      "lon":-114.4713889,
      "province":"AB"
   },
   {
      "display_name":"Bow Island",
      "lat":49.8672221,
      "lon":-111.378888798999,
      "province":"AB"
   },
   {
      "display_name":"Bow Valley Provincial Park",
      "lat":51.0752778,
      "lon":-115.0691667,
      "province":"AB"
   },
   {
      "display_name":"Bowden",
      "lat":51.933205658,
      "lon":-114.031786566,
      "province":"AB"
   },
   {
      "display_name":"Boyle",
      "lat":54.5897222,
      "lon":-112.8066667,
      "province":"AB"
   },
   {
      "display_name":"Bragg Creek",
      "lat":50.9502778,
      "lon":-114.569722099999,
      "province":"AB"
   },
   {
      "display_name":"Bragg Creek Provincial Park",
      "lat":50.9391666999999,
      "lon":-114.5833333,
      "province":"AB"
   },
   {
      "display_name":"Brant",
      "lat":50.5169443,
      "lon":-113.511666599999,
      "province":"AB"
   },
   {
      "display_name":"Brazeau Dam",
      "lat":52.9702777999999,
      "lon":-115.5830556,
      "province":"AB"
   },
   {
      "display_name":"Breton",
      "lat":53.110063496,
      "lon":-114.470561225999,
      "province":"AB"
   },
   {
      "display_name":"Breynat",
      "lat":55.1413889,
      "lon":-112.490555500999,
      "province":"AB"
   },
   {
      "display_name":"Brocket",
      "lat":49.5466666,
      "lon":-113.749722099999,
      "province":"AB"
   },
   {
      "display_name":"Brooks",
      "lat":50.5672222,
      "lon":-111.894999899999,
      "province":"AB"
   },
   {
      "display_name":"Brownfield",
      "lat":52.3172222,
      "lon":-111.433055600999,
      "province":"AB"
   },
   {
      "display_name":"Brown-Lowery Provincial Park",
      "lat":50.8138889999999,
      "lon":-114.43056,
      "province":"AB"
   },
   {
      "display_name":"Brownvale",
      "lat":56.128155467,
      "lon":-117.895761499999,
      "province":"AB"
   },
   {
      "display_name":"Bruce",
      "lat":53.1738888,
      "lon":-112.038611099999,
      "province":"AB"
   },
   {
      "display_name":"Bruderheim",
      "lat":53.7997222,
      "lon":-112.928333298999,
      "province":"AB"
   },
   {
      "display_name":"Brûlé",
      "lat":53.284049935,
      "lon":-117.874394985999,
      "province":"AB"
   },
   {
      "display_name":"Brûlé Mines",
      "lat":53.3102777,
      "lon":-117.870833300999,
      "province":"AB"
   },
   {
      "display_name":"Buck Creek",
      "lat":53.1038888,
      "lon":-114.895555499999,
      "province":"AB"
   },
   {
      "display_name":"Buck Lake",
      "lat":52.94860228,
      "lon":-114.776732102999,
      "province":"AB"
   },
   {
      "display_name":"Buffalo",
      "lat":50.81,
      "lon":-110.6813889,
      "province":"AB"
   },
   {
      "display_name":"Buffalo Head Prairie",
      "lat":58.0508333,
      "lon":-116.349444299999,
      "province":"AB"
   },
   {
      "display_name":"Buffalo Lake Metis Settlement",
      "lat":54.579086634,
      "lon":-112.448205790999,
      "province":"AB"
   },
   {
      "display_name":"Buford",
      "lat":53.247108969,
      "lon":-113.926560068999,
      "province":"AB"
   },
   {
      "display_name":"Bulwark",
      "lat":52.2416666,
      "lon":-111.586666700999,
      "province":"AB"
   },
   {
      "display_name":"Burdett",
      "lat":49.835007988,
      "lon":-111.523367799999,
      "province":"AB"
   },
   {
      "display_name":"Burmis",
      "lat":49.5572221,
      "lon":-114.287777699999,
      "province":"AB"
   },
   {
      "display_name":"Burnstick Lake",
      "lat":51.9894444,
      "lon":-114.891944399999,
      "province":"AB"
   },
   {
      "display_name":"Burnt Timber Creek",
      "lat":51.6341666999999,
      "lon":-115.0866667,
      "province":"AB"
   },
   {
      "display_name":"Busby",
      "lat":53.9480555,
      "lon":-113.890555499999,
      "province":"AB"
   },
   {
      "display_name":"Byemoor",
      "lat":51.9796878,
      "lon":-112.287092405999,
      "province":"AB"
   },
   {
      "display_name":"Cabin Creek Trail",
      "lat":53.7736111,
      "lon":-118.5319444,
      "province":"AB"
   },
   {
      "display_name":"Cabin Lake",
      "lat":51.0630556,
      "lon":-111.2280556,
      "province":"AB"
   },
   {
      "display_name":"Cadogan",
      "lat":52.3191666,
      "lon":-110.448611100999,
      "province":"AB"
   },
   {
      "display_name":"Cadomin",
      "lat":53.02817191,
      "lon":-117.331171813999,
      "province":"AB"
   },
   {
      "display_name":"Cadotte Lake",
      "lat":56.470502379,
      "lon":-116.382205737999,
      "province":"AB"
   },
   {
      "display_name":"Calahoo",
      "lat":53.714487355,
      "lon":-113.958403939,
      "province":"AB"
   },
   {
      "display_name":"Calgary",
      "lat":51.0458333,
      "lon":-114.057499899999,
      "province":"AB"
   },
   {
      "display_name":"Calling Lake",
      "lat":55.246282297,
      "lon":-113.198302976999,
      "province":"AB"
   },
   {
      "display_name":"Calling Lake Provincial Park",
      "lat":55.1797221999999,
      "lon":-113.2725,
      "province":"AB"
   },
   {
      "display_name":"Calmar",
      "lat":53.266366819,
      "lon":-113.809263295,
      "province":"AB"
   },
   {
      "display_name":"Cambria",
      "lat":51.393881214,
      "lon":-112.589640216999,
      "province":"AB"
   },
   {
      "display_name":"Campsie",
      "lat":54.1277777,
      "lon":-114.646666699999,
      "province":"AB"
   },
   {
      "display_name":"Camrose",
      "lat":53.018128822,
      "lon":-112.838721302999,
      "province":"AB"
   },
   {
      "display_name":"Canmore",
      "lat":51.092800696,
      "lon":-115.360844609999,
      "province":"AB"
   },
   {
      "display_name":"Canmore Nordic Centre Provincial Park",
      "lat":51.0925,
      "lon":-115.39,
      "province":"AB"
   },
   {
      "display_name":"Canyon Creek",
      "lat":55.366584099,
      "lon":-115.096796207999,
      "province":"AB"
   },
   {
      "display_name":"Cappon",
      "lat":51.1008333,
      "lon":-110.6030556,
      "province":"AB"
   },
   {
      "display_name":"Carbon",
      "lat":51.4858333,
      "lon":-113.150555499999,
      "province":"AB"
   },
   {
      "display_name":"Carbondale",
      "lat":53.7463889,
      "lon":-113.526944299999,
      "province":"AB"
   },
   {
      "display_name":"Cardiff",
      "lat":53.7727777,
      "lon":-113.599999998999,
      "province":"AB"
   },
   {
      "display_name":"Cardston",
      "lat":49.196180294,
      "lon":-113.307054946,
      "province":"AB"
   },
   {
      "display_name":"Caribou Mountains",
      "lat":59.1999999999999,
      "lon":-115.6666667,
      "province":"AB"
   },
   {
      "display_name":"Carlson Landing",
      "lat":58.9797222,
      "lon":-111.8230556,
      "province":"AB"
   },
   {
      "display_name":"Carmangay",
      "lat":50.1294444,
      "lon":-113.111388799999,
      "province":"AB"
   },
   {
      "display_name":"Caroline",
      "lat":52.094813939,
      "lon":-114.738224275,
      "province":"AB"
   },
   {
      "display_name":"Carseland",
      "lat":50.854413061,
      "lon":-113.470550804999,
      "province":"AB"
   },
   {
      "display_name":"Carson-Pegasus Provincial Park",
      "lat":54.3022221999999,
      "lon":-115.64,
      "province":"AB"
   },
   {
      "display_name":"Carstairs",
      "lat":51.5655555,
      "lon":-114.099444300999,
      "province":"AB"
   },
   {
      "display_name":"Caslan",
      "lat":54.6311111,
      "lon":-112.511666699999,
      "province":"AB"
   },
   {
      "display_name":"Cassils",
      "lat":50.5769444,
      "lon":-112.046110998999,
      "province":"AB"
   },
   {
      "display_name":"Castor",
      "lat":52.2191666,
      "lon":-111.903611099999,
      "province":"AB"
   },
   {
      "display_name":"Cavendish",
      "lat":50.8155556,
      "lon":-110.4552778,
      "province":"AB"
   },
   {
      "display_name":"Cayley",
      "lat":50.4480555,
      "lon":-113.847222099999,
      "province":"AB"
   },
   {
      "display_name":"Cereal",
      "lat":51.4183333,
      "lon":-110.8002778,
      "province":"AB"
   },
   {
      "display_name":"Cessford",
      "lat":51.0063888,
      "lon":-111.5566667,
      "province":"AB"
   },
   {
      "display_name":"Chain Lakes Provincial Park",
      "lat":50.1999999999999,
      "lon":-114.1833333,
      "province":"AB"
   },
   {
      "display_name":"Champion",
      "lat":50.2397222,
      "lon":-113.148055600999,
      "province":"AB"
   },
   {
      "display_name":"Chancellor",
      "lat":51.088468447,
      "lon":-112.835347753999,
      "province":"AB"
   },
   {
      "display_name":"Chauvin",
      "lat":52.693611,
      "lon":-110.141111099999,
      "province":"AB"
   },
   {
      "display_name":"Cheadle",
      "lat":51.0144444,
      "lon":-113.540555498999,
      "province":"AB"
   },
   {
      "display_name":"Cheecham",
      "lat":56.2836111,
      "lon":-110.8736111,
      "province":"AB"
   },
   {
      "display_name":"Cherhill",
      "lat":53.819166599,
      "lon":-114.677222100999,
      "province":"AB"
   },
   {
      "display_name":"Cherry Grove",
      "lat":54.3561111,
      "lon":-110.075277798999,
      "province":"AB"
   },
   {
      "display_name":"Chestermere",
      "lat":51.037289173,
      "lon":-113.828043530999,
      "province":"AB"
   },
   {
      "display_name":"Chin",
      "lat":49.763509459,
      "lon":-112.444866752999,
      "province":"AB"
   },
   {
      "display_name":"Chinook",
      "lat":51.4494444,
      "lon":-110.925277799999,
      "province":"AB"
   },
   {
      "display_name":"Chipewyan Lake",
      "lat":56.9402777,
      "lon":-113.473333199999,
      "province":"AB"
   },
   {
      "display_name":"Chipman",
      "lat":53.6983332,
      "lon":-112.637777799999,
      "province":"AB"
   },
   {
      "display_name":"Chisholm",
      "lat":54.9094444,
      "lon":-114.168888900999,
      "province":"AB"
   },
   {
      "display_name":"Chokio",
      "lat":49.5819444,
      "lon":-113.659722098999,
      "province":"AB"
   },
   {
      "display_name":"Christina Crossing",
      "lat":56.2586110999999,
      "lon":-110.4575,
      "province":"AB"
   },
   {
      "display_name":"Chungo Creek",
      "lat":52.716667,
      "lon":-116.31667,
      "province":"AB"
   },
   {
      "display_name":"Chungo Gap",
      "lat":52.6627776999999,
      "lon":-116.675,
      "province":"AB"
   },
   {
      "display_name":"Clairmont",
      "lat":55.2613889,
      "lon":-118.793611099999,
      "province":"AB"
   },
   {
      "display_name":"Clandonald",
      "lat":53.571861,
      "lon":-110.713916899999,
      "province":"AB"
   },
   {
      "display_name":"Claresholm",
      "lat":50.0197221,
      "lon":-113.582777799999,
      "province":"AB"
   },
   {
      "display_name":"Cleardale",
      "lat":56.355841287,
      "lon":-119.477812957999,
      "province":"AB"
   },
   {
      "display_name":"Cline River",
      "lat":52.1886111,
      "lon":-116.4788889,
      "province":"AB"
   },
   {
      "display_name":"Clive",
      "lat":52.477431217,
      "lon":-113.445226302999,
      "province":"AB"
   },
   {
      "display_name":"Cluny",
      "lat":50.841111,
      "lon":-112.869444399999,
      "province":"AB"
   },
   {
      "display_name":"Clyde",
      "lat":54.150180202,
      "lon":-113.636146314999,
      "province":"AB"
   },
   {
      "display_name":"Coaldale",
      "lat":49.7277777,
      "lon":-112.618611000999,
      "province":"AB"
   },
   {
      "display_name":"Coalhurst",
      "lat":49.746686943,
      "lon":-112.930674927999,
      "province":"AB"
   },
   {
      "display_name":"Cochrane",
      "lat":51.189699595,
      "lon":-114.484412624999,
      "province":"AB"
   },
   {
      "display_name":"Cold Lake",
      "lat":54.46644909,
      "lon":-110.188491755999,
      "province":"AB"
   },
   {
      "display_name":"Cold Lake Provincial Park",
      "lat":54.4666666999999,
      "lon":-110.1166667,
      "province":"AB"
   },
   {
      "display_name":"Coleman",
      "lat":49.6352777,
      "lon":-114.503055599999,
      "province":"AB"
   },
   {
      "display_name":"Colin Lake",
      "lat":59.5694443999999,
      "lon":-110.1425,
      "province":"AB"
   },
   {
      "display_name":"Colinton",
      "lat":54.6205555,
      "lon":-113.252777700999,
      "province":"AB"
   },
   {
      "display_name":"Comet",
      "lat":51.8186111,
      "lon":-111.9888889,
      "province":"AB"
   },
   {
      "display_name":"Compeer",
      "lat":51.8594444,
      "lon":-110.013055499999,
      "province":"AB"
   },
   {
      "display_name":"Condor",
      "lat":52.3263889,
      "lon":-114.555277799999,
      "province":"AB"
   },
   {
      "display_name":"Conklin",
      "lat":55.63076472,
      "lon":-111.089910330999,
      "province":"AB"
   },
   {
      "display_name":"Connemara",
      "lat":50.400141599,
      "lon":-113.829266003999,
      "province":"AB"
   },
   {
      "display_name":"Conrich",
      "lat":51.0933333,
      "lon":-113.863333198999,
      "province":"AB"
   },
   {
      "display_name":"Consort",
      "lat":52.012298806,
      "lon":-110.770835146999,
      "province":"AB"
   },
   {
      "display_name":"Cooking Lake",
      "lat":53.4113889,
      "lon":-113.121666598999,
      "province":"AB"
   },
   {
      "display_name":"Coronado",
      "lat":53.8877778,
      "lon":-113.295277699999,
      "province":"AB"
   },
   {
      "display_name":"Coronation",
      "lat":52.0947222,
      "lon":-111.447777799,
      "province":"AB"
   },
   {
      "display_name":"Coutts",
      "lat":49.0027778,
      "lon":-111.958888899999,
      "province":"AB"
   },
   {
      "display_name":"Cowley",
      "lat":49.568031116,
      "lon":-114.073535612999,
      "province":"AB"
   },
   {
      "display_name":"Craigmyle",
      "lat":51.6697222,
      "lon":-112.243055500999,
      "province":"AB"
   },
   {
      "display_name":"Cremona",
      "lat":51.545281757,
      "lon":-114.485284818999,
      "province":"AB"
   },
   {
      "display_name":"Crimson Lake Provincial Park",
      "lat":52.4658334,
      "lon":-115.0455556,
      "province":"AB"
   },
   {
      "display_name":"Crooked Creek",
      "lat":55.1708333,
      "lon":-117.889722099999,
      "province":"AB"
   },
   {
      "display_name":"Cross Lake Provincial Park",
      "lat":54.6530554999999,
      "lon":-113.7944444,
      "province":"AB"
   },
   {
      "display_name":"Crossfield",
      "lat":51.4305555,
      "lon":-114.030833199999,
      "province":"AB"
   },
   {
      "display_name":"Crow Lake Provincial Park",
      "lat":55.7991666,
      "lon":-112.1458332,
      "province":"AB"
   },
   {
      "display_name":"Crowsnest",
      "lat":49.630556,
      "lon":-114.6925,
      "province":"AB"
   },
   {
      "display_name":"Crystal Springs",
      "lat":52.973332928,
      "lon":-114.040888969999,
      "province":"AB"
   },
   {
      "display_name":"Cypress Hills Interprovincial Park",
      "lat":49.6333333,
      "lon":-110.2083333,
      "province":"AB"
   },
   {
      "display_name":"Czar",
      "lat":52.4547222,
      "lon":-110.828333299999,
      "province":"AB"
   },
   {
      "display_name":"Dalemead",
      "lat":50.8747222,
      "lon":-113.637499899999,
      "province":"AB"
   },
   {
      "display_name":"Dalroy",
      "lat":51.1286111,
      "lon":-113.669166699999,
      "province":"AB"
   },
   {
      "display_name":"Dalum",
      "lat":51.2997221999999,
      "lon":-112.6308333,
      "province":"AB"
   },
   {
      "display_name":"Dapp",
      "lat":54.3449999,
      "lon":-113.915833299999,
      "province":"AB"
   },
   {
      "display_name":"Daysland",
      "lat":52.867337355,
      "lon":-112.264278598999,
      "province":"AB"
   },
   {
      "display_name":"De Winton",
      "lat":50.8230555,
      "lon":-114.018611098999,
      "province":"AB"
   },
   {
      "display_name":"Dead Man's Flats",
      "lat":51.037916893,
      "lon":-115.264898539999,
      "province":"AB"
   },
   {
      "display_name":"Deadwood",
      "lat":56.741111,
      "lon":-117.457777799999,
      "province":"AB"
   },
   {
      "display_name":"DeBolt",
      "lat":55.2216666,
      "lon":-118.020277799999,
      "province":"AB"
   },
   {
      "display_name":"Del Bonita",
      "lat":49.0294444,
      "lon":-112.790555599999,
      "province":"AB"
   },
   {
      "display_name":"Delburne",
      "lat":52.1980555,
      "lon":-113.234722199999,
      "province":"AB"
   },
   {
      "display_name":"Delia",
      "lat":51.6305555,
      "lon":-112.373888800999,
      "province":"AB"
   },
   {
      "display_name":"Denwood",
      "lat":52.817561038,
      "lon":-110.891356405999,
      "province":"AB"
   },
   {
      "display_name":"Derwent",
      "lat":53.65449017,
      "lon":-110.966529542999,
      "province":"AB"
   },
   {
      "display_name":"Devenish",
      "lat":55.5338888999999,
      "lon":-111.1938889,
      "province":"AB"
   },
   {
      "display_name":"Devon",
      "lat":53.361305436,
      "lon":-113.724774780999,
      "province":"AB"
   },
   {
      "display_name":"Devona",
      "lat":53.15,
      "lon":-118.0,
      "province":"AB"
   },
   {
      "display_name":"Dewberry",
      "lat":53.5880555,
      "lon":-110.525,
      "province":"AB"
   },
   {
      "display_name":"Diamond City",
      "lat":49.7955555,
      "lon":-112.838888900999,
      "province":"AB"
   },
   {
      "display_name":"Diamond Valley",
      "lat":50.679862,
      "lon":-114.253577,
      "province":"AB"
   },
   {
      "display_name":"Dickson",
      "lat":52.058084542,
      "lon":-114.307747582999,
      "province":"AB"
   },
   {
      "display_name":"Didsbury",
      "lat":51.6594444,
      "lon":-114.137499899999,
      "province":"AB"
   },
   {
      "display_name":"Dillberry Lake Provincial Park",
      "lat":52.5666667,
      "lon":-110.0333333,
      "province":"AB"
   },
   {
      "display_name":"Dinosaur Provincial Park",
      "lat":50.7616666,
      "lon":-111.485,
      "province":"AB"
   },
   {
      "display_name":"Dixonville",
      "lat":56.537383422,
      "lon":-117.672038496999,
      "province":"AB"
   },
   {
      "display_name":"Dogpound",
      "lat":51.4566666,
      "lon":-114.397222098999,
      "province":"AB"
   },
   {
      "display_name":"Donalda",
      "lat":52.583611,
      "lon":-112.574166700999,
      "province":"AB"
   },
   {
      "display_name":"Donnelly",
      "lat":55.7288889,
      "lon":-117.104722099999,
      "province":"AB"
   },
   {
      "display_name":"Dorothy",
      "lat":51.2791666,
      "lon":-112.324999899999,
      "province":"AB"
   },
   {
      "display_name":"Drayton Valley",
      "lat":53.221497172,
      "lon":-114.974271000999,
      "province":"AB"
   },
   {
      "display_name":"Driftpile",
      "lat":55.342815728,
      "lon":-115.788127346999,
      "province":"AB"
   },
   {
      "display_name":"Drumheller",
      "lat":51.4644443,
      "lon":-112.718888799999,
      "province":"AB"
   },
   {
      "display_name":"Dry Island Buffalo Jump Provincial Park",
      "lat":51.9438888999999,
      "lon":-112.9636111,
      "province":"AB"
   },
   {
      "display_name":"Duchess",
      "lat":50.731111,
      "lon":-111.906388799999,
      "province":"AB"
   },
   {
      "display_name":"Duffield",
      "lat":53.5280555,
      "lon":-114.344166600999,
      "province":"AB"
   },
   {
      "display_name":"Duhamel",
      "lat":52.9155555,
      "lon":-112.963333198999,
      "province":"AB"
   },
   {
      "display_name":"Dunmore",
      "lat":49.9702777,
      "lon":-110.584166699999,
      "province":"AB"
   },
   {
      "display_name":"Dunvegan Provincial Park",
      "lat":55.9236109999999,
      "lon":-118.594439999999,
      "province":"AB"
   },
   {
      "display_name":"Durward",
      "lat":50.2955555,
      "lon":-113.713055599999,
      "province":"AB"
   },
   {
      "display_name":"Duvernay",
      "lat":53.7861111,
      "lon":-111.692499898999,
      "province":"AB"
   },
   {
      "display_name":"Eagle Point Provincial Park",
      "lat":53.2577776999999,
      "lon":-114.8658332,
      "province":"AB"
   },
   {
      "display_name":"Eaglesham",
      "lat":55.7824999,
      "lon":-117.883299899999,
      "province":"AB"
   },
   {
      "display_name":"East Coulee",
      "lat":51.343576318,
      "lon":-112.497947620999,
      "province":"AB"
   },
   {
      "display_name":"East Prairie Metis Settlement",
      "lat":55.189068769,
      "lon":-116.269679030999,
      "province":"AB"
   },
   {
      "display_name":"Eckville",
      "lat":52.36,
      "lon":-114.366944399999,
      "province":"AB"
   },
   {
      "display_name":"Edberg",
      "lat":52.7847222,
      "lon":-112.789166699999,
      "province":"AB"
   },
   {
      "display_name":"Edgerton",
      "lat":52.7586111,
      "lon":-110.458055599999,
      "province":"AB"
   },
   {
      "display_name":"Edmonton",
      "lat":53.535844636,
      "lon":-113.493729984999,
      "province":"AB"
   },
   {
      "display_name":"Edson",
      "lat":53.586622894,
      "lon":-116.436108084999,
      "province":"AB"
   },
   {
      "display_name":"Egremont",
      "lat":54.0383332,
      "lon":-113.126111099999,
      "province":"AB"
   },
   {
      "display_name":"Elizabeth Metis Settlement",
      "lat":54.216989496,
      "lon":-110.091977309999,
      "province":"AB"
   },
   {
      "display_name":"Elk Island National Park of Canada",
      "lat":53.6144444,
      "lon":-112.8661111,
      "province":"AB"
   },
   {
      "display_name":"Elk Point",
      "lat":53.901111,
      "lon":-110.900555599999,
      "province":"AB"
   },
   {
      "display_name":"Elkwater",
      "lat":49.6608333,
      "lon":-110.281666600999,
      "province":"AB"
   },
   {
      "display_name":"Ellscott",
      "lat":54.5030556,
      "lon":-112.901110999999,
      "province":"AB"
   },
   {
      "display_name":"Elmworth",
      "lat":55.0538888,
      "lon":-119.615833299999,
      "province":"AB"
   },
   {
      "display_name":"Elnora",
      "lat":51.993581217,
      "lon":-113.201201767999,
      "province":"AB"
   },
   {
      "display_name":"Embarras Portage",
      "lat":58.4477778,
      "lon":-111.4797222,
      "province":"AB"
   },
   {
      "display_name":"Empress",
      "lat":50.954271889,
      "lon":-110.008104757999,
      "province":"AB"
   },
   {
      "display_name":"Enchant",
      "lat":50.1699999,
      "lon":-112.422499899999,
      "province":"AB"
   },
   {
      "display_name":"Endiang",
      "lat":51.9538889,
      "lon":-112.158333299999,
      "province":"AB"
   },
   {
      "display_name":"Enilda",
      "lat":55.4169444,
      "lon":-116.311388799999,
      "province":"AB"
   },
   {
      "display_name":"Ensign",
      "lat":50.475,
      "lon":-113.431666599999,
      "province":"AB"
   },
   {
      "display_name":"Ensleigh",
      "lat":51.8499999999999,
      "lon":-111.13333,
      "province":"AB"
   },
   {
      "display_name":"Entrance",
      "lat":53.374841349,
      "lon":-117.684478521999,
      "province":"AB"
   },
   {
      "display_name":"Entwistle",
      "lat":53.5943999,
      "lon":-114.995799999999,
      "province":"AB"
   },
   {
      "display_name":"Erskine",
      "lat":52.321111,
      "lon":-112.879722199999,
      "province":"AB"
   },
   {
      "display_name":"Esther",
      "lat":51.6825,
      "lon":-110.2602778,
      "province":"AB"
   },
   {
      "display_name":"Etzikom",
      "lat":49.4769444,
      "lon":-111.107222099999,
      "province":"AB"
   },
   {
      "display_name":"Evansburg",
      "lat":53.600447947,
      "lon":-115.016898534999,
      "province":"AB"
   },
   {
      "display_name":"Exshaw",
      "lat":51.06346611,
      "lon":-115.159161367999,
      "province":"AB"
   },
   {
      "display_name":"Fabyan",
      "lat":52.8819444,
      "lon":-110.993611100999,
      "province":"AB"
   },
   {
      "display_name":"Fairview (34-81-3-W6)",
      "lat":56.067222199,
      "lon":-118.384166699999,
      "province":"AB"
   },
   {
      "display_name":"Falher",
      "lat":55.7372221,
      "lon":-117.201388899999,
      "province":"AB"
   },
   {
      "display_name":"Fallis",
      "lat":53.5852777,
      "lon":-114.640833299999,
      "province":"AB"
   },
   {
      "display_name":"Faust",
      "lat":55.3158333,
      "lon":-115.627499999999,
      "province":"AB"
   },
   {
      "display_name":"Fawcett",
      "lat":54.539366882,
      "lon":-114.096203456999,
      "province":"AB"
   },
   {
      "display_name":"Federal",
      "lat":52.1116666,
      "lon":-111.571944400999,
      "province":"AB"
   },
   {
      "display_name":"Ferintosh",
      "lat":52.7658333,
      "lon":-112.971666600999,
      "province":"AB"
   },
   {
      "display_name":"Ferrier",
      "lat":52.368333307,
      "lon":-115.073888883999,
      "province":"AB"
   },
   {
      "display_name":"Fincastle",
      "lat":49.8083333,
      "lon":-112.001666699999,
      "province":"AB"
   },
   {
      "display_name":"Fish Creek Provincial Park",
      "lat":50.9216667,
      "lon":-114.0583333,
      "province":"AB"
   },
   {
      "display_name":"Fitzgerald (125-10-W4)",
      "lat":59.8616666,
      "lon":-111.605555499999,
      "province":"AB"
   },
   {
      "display_name":"Flatbush",
      "lat":54.6891667,
      "lon":-114.156388899999,
      "province":"AB"
   },
   {
      "display_name":"Fleet",
      "lat":52.1533332,
      "lon":-111.729999999999,
      "province":"AB"
   },
   {
      "display_name":"Flyingshot Lake Settlement",
      "lat":55.14207223,
      "lon":-118.862746571999,
      "province":"AB"
   },
   {
      "display_name":"Forbidden Creek",
      "lat":51.8913609999999,
      "lon":-115.723,
      "province":"AB"
   },
   {
      "display_name":"Foremost",
      "lat":49.4763888,
      "lon":-111.446944399999,
      "province":"AB"
   },
   {
      "display_name":"Forestburg",
      "lat":52.5838888,
      "lon":-112.064444400999,
      "province":"AB"
   },
   {
      "display_name":"Forshee",
      "lat":52.558026043,
      "lon":-114.145213355999,
      "province":"AB"
   },
   {
      "display_name":"Fort Assiniboine",
      "lat":54.3342,
      "lon":-114.774699998999,
      "province":"AB"
   },
   {
      "display_name":"Fort Chipewyan",
      "lat":58.7144444,
      "lon":-111.158333199999,
      "province":"AB"
   },
   {
      "display_name":"Fort Kent",
      "lat":54.3108333,
      "lon":-110.604444299999,
      "province":"AB"
   },
   {
      "display_name":"Fort MacKay",
      "lat":57.186852165,
      "lon":-111.635738384999,
      "province":"AB"
   },
   {
      "display_name":"Fort Macleod",
      "lat":49.7230555,
      "lon":-113.404166598999,
      "province":"AB"
   },
   {
      "display_name":"Fort McMurray",
      "lat":56.727473074,
      "lon":-111.387239943999,
      "province":"AB"
   },
   {
      "display_name":"Fort Saskatchewan",
      "lat":53.700212125,
      "lon":-113.225426048999,
      "province":"AB"
   },
   {
      "display_name":"Fort Vermilion",
      "lat":58.389304486,
      "lon":-116.007413133999,
      "province":"AB"
   },
   {
      "display_name":"Fox Creek",
      "lat":54.404277674,
      "lon":-116.810197041999,
      "province":"AB"
   },
   {
      "display_name":"Fox Lake",
      "lat":58.470544039,
      "lon":-114.532838477999,
      "province":"AB"
   },
   {
      "display_name":"Frank",
      "lat":49.602677588,
      "lon":-114.405844090999,
      "province":"AB"
   },
   {
      "display_name":"Gadsby",
      "lat":52.2924999999999,
      "lon":-112.3466667,
      "province":"AB"
   },
   {
      "display_name":"Gainford",
      "lat":53.584674991,
      "lon":-114.785337665999,
      "province":"AB"
   },
   {
      "display_name":"Galahad",
      "lat":52.5141666,
      "lon":-111.930555499999,
      "province":"AB"
   },
   {
      "display_name":"Garden Creek",
      "lat":58.704709426,
      "lon":-113.886022720999,
      "province":"AB"
   },
   {
      "display_name":"Garden Plain",
      "lat":51.8733333,
      "lon":-111.8016667,
      "province":"AB"
   },
   {
      "display_name":"Garner Lake Provincial Park",
      "lat":54.1825,
      "lon":-111.7447222,
      "province":"AB"
   },
   {
      "display_name":"Gem",
      "lat":50.9505555,
      "lon":-112.188888899999,
      "province":"AB"
   },
   {
      "display_name":"Ghost Lake",
      "lat":51.206642658,
      "lon":-114.764135585999,
      "province":"AB"
   },
   {
      "display_name":"Gibbons",
      "lat":53.8297222,
      "lon":-113.328333300999,
      "province":"AB"
   },
   {
      "display_name":"Gift Lake",
      "lat":55.8825,
      "lon":-115.812500000999,
      "province":"AB"
   },
   {
      "display_name":"Gipsy Lake",
      "lat":56.4263888999999,
      "lon":-110.2327778,
      "province":"AB"
   },
   {
      "display_name":"Girouxville",
      "lat":55.753611,
      "lon":-117.338888899999,
      "province":"AB"
   },
   {
      "display_name":"Gleichen",
      "lat":50.8661111,
      "lon":-113.054722099999,
      "province":"AB"
   },
   {
      "display_name":"Glen Leslie",
      "lat":55.1994444,
      "lon":-118.487222199999,
      "province":"AB"
   },
   {
      "display_name":"Glenbow Ranch Provincial Park",
      "lat":51.1616665999999,
      "lon":-114.3611111,
      "province":"AB"
   },
   {
      "display_name":"Glendon",
      "lat":54.2524999,
      "lon":-111.160277699999,
      "province":"AB"
   },
   {
      "display_name":"Glenevis",
      "lat":53.7897221,
      "lon":-114.516944299999,
      "province":"AB"
   },
   {
      "display_name":"Glenwood (1,12-5-27-W4)",
      "lat":49.365873906,
      "lon":-113.514872976999,
      "province":"AB"
   },
   {
      "display_name":"Golden Days",
      "lat":53.051430655,
      "lon":-114.053321683999,
      "province":"AB"
   },
   {
      "display_name":"Goodfish Lake",
      "lat":54.297504071,
      "lon":-111.805785482999,
      "province":"AB"
   },
   {
      "display_name":"Gooseberry Lake Provincial Park",
      "lat":52.1169443999999,
      "lon":-110.7591667,
      "province":"AB"
   },
   {
      "display_name":"Gordondale",
      "lat":55.84,
      "lon":-119.540277700999,
      "province":"AB"
   },
   {
      "display_name":"Grande Cache",
      "lat":53.8880556,
      "lon":-119.1186111,
      "province":"AB"
   },
   {
      "display_name":"Grande Prairie",
      "lat":55.1708333,
      "lon":-118.796111099999,
      "province":"AB"
   },
   {
      "display_name":"Grandview",
      "lat":52.987937504,
      "lon":-114.065754374999,
      "province":"AB"
   },
   {
      "display_name":"Grantham",
      "lat":50.068738758,
      "lon":-112.008727815999,
      "province":"AB"
   },
   {
      "display_name":"Granum",
      "lat":49.8711111,
      "lon":-113.5083333,
      "province":"AB"
   },
   {
      "display_name":"Grassland",
      "lat":54.82,
      "lon":-112.687222099999,
      "province":"AB"
   },
   {
      "display_name":"Grassy Lake",
      "lat":49.825297152,
      "lon":-111.698114456999,
      "province":"AB"
   },
   {
      "display_name":"Green Court",
      "lat":54.0077777,
      "lon":-115.238611099999,
      "province":"AB"
   },
   {
      "display_name":"Greene Valley Provincial Park",
      "lat":56.1380555,
      "lon":-117.2230556,
      "province":"AB"
   },
   {
      "display_name":"Greenview",
      "lat":51.091667,
      "lon":-114.22778,
      "province":"AB"
   },
   {
      "display_name":"Gregoire Lake Provincial Park",
      "lat":56.485,
      "lon":-111.1827778,
      "province":"AB"
   },
   {
      "display_name":"Grimshaw",
      "lat":56.1886111,
      "lon":-117.605833300999,
      "province":"AB"
   },
   {
      "display_name":"Grouard",
      "lat":55.5202777,
      "lon":-116.161110999999,
      "province":"AB"
   },
   {
      "display_name":"Grouard Mission",
      "lat":55.542208981,
      "lon":-116.153573738999,
      "province":"AB"
   },
   {
      "display_name":"Grovedale",
      "lat":55.0277777,
      "lon":-118.859444299999,
      "province":"AB"
   },
   {
      "display_name":"Gull Lake",
      "lat":52.4622221,
      "lon":-113.941111100999,
      "province":"AB"
   },
   {
      "display_name":"Gunn",
      "lat":53.730522082,
      "lon":-114.347993240999,
      "province":"AB"
   },
   {
      "display_name":"Guy",
      "lat":55.5488888,
      "lon":-117.119999899999,
      "province":"AB"
   },
   {
      "display_name":"Gwynne",
      "lat":52.9866666,
      "lon":-113.198888900999,
      "province":"AB"
   },
   {
      "display_name":"Hairy Hill",
      "lat":53.7633,
      "lon":-111.978599999999,
      "province":"AB"
   },
   {
      "display_name":"Half Moon Bay",
      "lat":52.344988829,
      "lon":-114.171549551999,
      "province":"AB"
   },
   {
      "display_name":"Halkirk",
      "lat":52.2825,
      "lon":-112.153611100999,
      "province":"AB"
   },
   {
      "display_name":"Hanna",
      "lat":51.6458333,
      "lon":-111.925277799999,
      "province":"AB"
   },
   {
      "display_name":"Happy Hollow",
      "lat":54.5013888999999,
      "lon":-110.5486111,
      "province":"AB"
   },
   {
      "display_name":"Hardisty",
      "lat":52.6749999,
      "lon":-111.304444399999,
      "province":"AB"
   },
   {
      "display_name":"Hartleyville",
      "lat":49.3644444,
      "lon":-113.609444398999,
      "province":"AB"
   },
   {
      "display_name":"Harvie Heights",
      "lat":51.130046072,
      "lon":-115.376203239999,
      "province":"AB"
   },
   {
      "display_name":"Hawk Hills",
      "lat":57.255456009,
      "lon":-117.413338398999,
      "province":"AB"
   },
   {
      "display_name":"Hay Camp",
      "lat":59.525,
      "lon":-111.4658333,
      "province":"AB"
   },
   {
      "display_name":"Hay Lakes",
      "lat":53.1966666,
      "lon":-113.057222100999,
      "province":"AB"
   },
   {
      "display_name":"Hayfield",
      "lat":55.1708333,
      "lon":-119.614722199999,
      "province":"AB"
   },
   {
      "display_name":"Haynes",
      "lat":52.3188889,
      "lon":-113.3925,
      "province":"AB"
   },
   {
      "display_name":"Hays",
      "lat":50.0980555,
      "lon":-111.793611099999,
      "province":"AB"
   },
   {
      "display_name":"Hayter",
      "lat":52.3563889,
      "lon":-110.107777799999,
      "province":"AB"
   },
   {
      "display_name":"Hazell",
      "lat":49.6299999,
      "lon":-114.664444298999,
      "province":"AB"
   },
   {
      "display_name":"Heinsburg",
      "lat":53.7675,
      "lon":-110.521666699999,
      "province":"AB"
   },
   {
      "display_name":"Heisler",
      "lat":52.671142349,
      "lon":-112.223933685999,
      "province":"AB"
   },
   {
      "display_name":"Helmsdale (36-25-6-W4)",
      "lat":51.1788889,
      "lon":-110.7019444,
      "province":"AB"
   },
   {
      "display_name":"Hemaruka",
      "lat":51.783333,
      "lon":-111.1,
      "province":"AB"
   },
   {
      "display_name":"Herronton",
      "lat":50.6247221,
      "lon":-113.439444400999,
      "province":"AB"
   },
   {
      "display_name":"Hesketh",
      "lat":51.4702777,
      "lon":-112.975277800999,
      "province":"AB"
   },
   {
      "display_name":"High Level",
      "lat":58.516037878,
      "lon":-117.137841262999,
      "province":"AB"
   },
   {
      "display_name":"High Prairie",
      "lat":55.434675334,
      "lon":-116.487509620999,
      "province":"AB"
   },
   {
      "display_name":"High River",
      "lat":50.5797222,
      "lon":-113.874166699999,
      "province":"AB"
   },
   {
      "display_name":"Hilda",
      "lat":50.4797222,
      "lon":-110.032777698999,
      "province":"AB"
   },
   {
      "display_name":"Hill Spring",
      "lat":49.2930555,
      "lon":-113.622222199999,
      "province":"AB"
   },
   {
      "display_name":"Hillcrest Mines",
      "lat":49.568938537,
      "lon":-114.377335256999,
      "province":"AB"
   },
   {
      "display_name":"Hilliard",
      "lat":53.64,
      "lon":-112.481944399999,
      "province":"AB"
   },
   {
      "display_name":"Hilliard's Bay Provincial Park",
      "lat":55.5036111,
      "lon":-115.9794444,
      "province":"AB"
   },
   {
      "display_name":"Hines Creek",
      "lat":56.248571161,
      "lon":-118.602703747999,
      "province":"AB"
   },
   {
      "display_name":"Hinton",
      "lat":53.400048488,
      "lon":-117.572275899999,
      "province":"AB"
   },
   {
      "display_name":"Holden",
      "lat":53.2333333,
      "lon":-112.233888799999,
      "province":"AB"
   },
   {
      "display_name":"Hondo",
      "lat":55.071568527,
      "lon":-114.038587982999,
      "province":"AB"
   },
   {
      "display_name":"Horseshoe Bay",
      "lat":54.126192447,
      "lon":-111.364001704999,
      "province":"AB"
   },
   {
      "display_name":"Hughenden",
      "lat":52.5105555,
      "lon":-110.967222100999,
      "province":"AB"
   },
   {
      "display_name":"Hussar",
      "lat":51.0413888,
      "lon":-112.681666700999,
      "province":"AB"
   },
   {
      "display_name":"Huxley",
      "lat":51.924341844,
      "lon":-113.230043852999,
      "province":"AB"
   },
   {
      "display_name":"Hylo",
      "lat":54.6775,
      "lon":-112.211388899999,
      "province":"AB"
   },
   {
      "display_name":"Hythe",
      "lat":55.329960718,
      "lon":-119.550473564999,
      "province":"AB"
   },
   {
      "display_name":"Idamay",
      "lat":51.8458333,
      "lon":-110.9058333,
      "province":"AB"
   },
   {
      "display_name":"Iddesleigh",
      "lat":50.7355555,
      "lon":-111.303055600999,
      "province":"AB"
   },
   {
      "display_name":"Imperial Mills",
      "lat":55.000107411,
      "lon":-111.730687185999,
      "province":"AB"
   },
   {
      "display_name":"Indian Cabins",
      "lat":59.8675,
      "lon":-117.034722199999,
      "province":"AB"
   },
   {
      "display_name":"Indus",
      "lat":50.9158333,
      "lon":-113.779999900999,
      "province":"AB"
   },
   {
      "display_name":"Innisfail",
      "lat":52.024210356,
      "lon":-113.953489718999,
      "province":"AB"
   },
   {
      "display_name":"Innisfree",
      "lat":53.3825,
      "lon":-111.530833199999,
      "province":"AB"
   },
   {
      "display_name":"Irma",
      "lat":52.9119444,
      "lon":-111.228333299999,
      "province":"AB"
   },
   {
      "display_name":"Iron River",
      "lat":54.4413888999999,
      "lon":-110.9088889,
      "province":"AB"
   },
   {
      "display_name":"Iron Springs",
      "lat":49.93,
      "lon":-112.687499999999,
      "province":"AB"
   },
   {
      "display_name":"Irricana",
      "lat":51.3236111,
      "lon":-113.608055599999,
      "province":"AB"
   },
   {
      "display_name":"Irvine",
      "lat":49.9552999,
      "lon":-110.276699899,
      "province":"AB"
   },
   {
      "display_name":"Island Lake",
      "lat":54.841524576,
      "lon":-113.558094667999,
      "province":"AB"
   },
   {
      "display_name":"Island Lake South",
      "lat":54.823043021,
      "lon":-113.541958844999,
      "province":"AB"
   },
   {
      "display_name":"Islay",
      "lat":53.3938889,
      "lon":-110.538888899999,
      "province":"AB"
   },
   {
      "display_name":"Itaska Beach",
      "lat":53.0722222,
      "lon":-114.079999999999,
      "province":"AB"
   },
   {
      "display_name":"Jackfish",
      "lat":58.4188889,
      "lon":-110.9180556,
      "province":"AB"
   },
   {
      "display_name":"Jarrow",
      "lat":52.9407999,
      "lon":-111.395299999999,
      "province":"AB"
   },
   {
      "display_name":"Jarvie",
      "lat":54.4547221,
      "lon":-113.986944299999,
      "province":"AB"
   },
   {
      "display_name":"Jarvis Bay",
      "lat":52.33515812,
      "lon":-114.079727812999,
      "province":"AB"
   },
   {
      "display_name":"Jarvis Bay Provincial Park",
      "lat":52.3452777999999,
      "lon":-114.0863889,
      "province":"AB"
   },
   {
      "display_name":"Jasper",
      "lat":52.871082718,
      "lon":-118.093122825999,
      "province":"AB"
   },
   {
      "display_name":"Jasper National Park of Canada",
      "lat":52.9833329999999,
      "lon":-118.1,
      "province":"AB"
   },
   {
      "display_name":"Jean Côté",
      "lat":55.8980555,
      "lon":-117.310555499999,
      "province":"AB"
   },
   {
      "display_name":"Jenner",
      "lat":50.7466666,
      "lon":-111.184444399999,
      "province":"AB"
   },
   {
      "display_name":"Joffre",
      "lat":52.3361111,
      "lon":-113.5372222,
      "province":"AB"
   },
   {
      "display_name":"John D'Or Prairie",
      "lat":58.493799818,
      "lon":-115.143893528999,
      "province":"AB"
   },
   {
      "display_name":"Josephburg",
      "lat":53.7133333,
      "lon":-113.069999899999,
      "province":"AB"
   },
   {
      "display_name":"Joussard",
      "lat":55.395175444,
      "lon":-115.951109388999,
      "province":"AB"
   },
   {
      "display_name":"Judson",
      "lat":49.5222222,
      "lon":-112.345555500999,
      "province":"AB"
   },
   {
      "display_name":"Kapasiwin",
      "lat":53.5441666,
      "lon":-114.444722099999,
      "province":"AB"
   },
   {
      "display_name":"Kathyrn",
      "lat":51.2183333,
      "lon":-113.708333199999,
      "province":"AB"
   },
   {
      "display_name":"Kavanagh",
      "lat":53.1822222,
      "lon":-113.516944399999,
      "province":"AB"
   },
   {
      "display_name":"Keg River (1-101-23-W5)",
      "lat":57.745954769,
      "lon":-117.610399162999,
      "province":"AB"
   },
   {
      "display_name":"Keg River (21-101-24-W5)",
      "lat":57.790668364,
      "lon":-117.855313986999,
      "province":"AB"
   },
   {
      "display_name":"Kelsey",
      "lat":52.8458333,
      "lon":-112.548888899999,
      "province":"AB"
   },
   {
      "display_name":"Kenny Woods",
      "lat":58.1102778,
      "lon":-111.3738889,
      "province":"AB"
   },
   {
      "display_name":"Keoma",
      "lat":51.2169444,
      "lon":-113.648611099999,
      "province":"AB"
   },
   {
      "display_name":"Keppler Creek",
      "lat":57.1949999999999,
      "lon":-117.0969444,
      "province":"AB"
   },
   {
      "display_name":"Kew",
      "lat":50.732911635,
      "lon":-114.417251113999,
      "province":"AB"
   },
   {
      "display_name":"Kikino",
      "lat":54.4441666,
      "lon":-112.093888798999,
      "province":"AB"
   },
   {
      "display_name":"Killam",
      "lat":52.7897222,
      "lon":-111.855277699999,
      "province":"AB"
   },
   {
      "display_name":"Kilome Lake",
      "lat":59.9180556,
      "lon":-114.1697222,
      "province":"AB"
   },
   {
      "display_name":"Kinbrook Island Provincial Park",
      "lat":50.434444,
      "lon":-111.941667,
      "province":"AB"
   },
   {
      "display_name":"Kingman",
      "lat":53.2133333,
      "lon":-112.749444300999,
      "province":"AB"
   },
   {
      "display_name":"Kinosis",
      "lat":56.3319444999999,
      "lon":-110.9575,
      "province":"AB"
   },
   {
      "display_name":"Kinsella",
      "lat":53.001601088,
      "lon":-111.524343287999,
      "province":"AB"
   },
   {
      "display_name":"Kinuso",
      "lat":55.3319444,
      "lon":-115.4352778,
      "province":"AB"
   },
   {
      "display_name":"Kirkcaldy",
      "lat":50.335,
      "lon":-113.237777799999,
      "province":"AB"
   },
   {
      "display_name":"Kitscoty",
      "lat":53.3419444,
      "lon":-110.333333299999,
      "province":"AB"
   },
   {
      "display_name":"La Corey",
      "lat":54.4433334,
      "lon":-110.7594444,
      "province":"AB"
   },
   {
      "display_name":"La Crête",
      "lat":58.187756718,
      "lon":-116.416728818999,
      "province":"AB"
   },
   {
      "display_name":"La Glace",
      "lat":55.4027778,
      "lon":-119.154166599999,
      "province":"AB"
   },
   {
      "display_name":"Lac des Arcs",
      "lat":51.050090928,
      "lon":-115.156500632999,
      "province":"AB"
   },
   {
      "display_name":"Lac La Biche",
      "lat":54.7702778,
      "lon":-111.9791667,
      "province":"AB"
   },
   {
      "display_name":"Lacombe",
      "lat":52.4644443,
      "lon":-113.734166698999,
      "province":"AB"
   },
   {
      "display_name":"Lake Louise",
      "lat":51.4252777,
      "lon":-116.180555498999,
      "province":"AB"
   },
   {
      "display_name":"Lakeland Provincial Park",
      "lat":54.752778,
      "lon":-111.54722,
      "province":"AB"
   },
   {
      "display_name":"Lakeview (12-53-4-W5)",
      "lat":53.559722099,
      "lon":-114.457499899999,
      "province":"AB"
   },
   {
      "display_name":"Lamont",
      "lat":53.762516834,
      "lon":-112.778405099999,
      "province":"AB"
   },
   {
      "display_name":"Lancaster Park",
      "lat":53.6727778,
      "lon":-113.490833199999,
      "province":"AB"
   },
   {
      "display_name":"Langdon",
      "lat":50.973730865,
      "lon":-113.670062208999,
      "province":"AB"
   },
   {
      "display_name":"Larkspur",
      "lat":54.438675431,
      "lon":-113.768016944999,
      "province":"AB"
   },
   {
      "display_name":"Lavoy",
      "lat":53.458682573,
      "lon":-111.862818194999,
      "province":"AB"
   },
   {
      "display_name":"Lawsonburg",
      "lat":51.4836111,
      "lon":-112.159166699999,
      "province":"AB"
   },
   {
      "display_name":"Leahurst",
      "lat":52.376301554,
      "lon":-112.643749551999,
      "province":"AB"
   },
   {
      "display_name":"Leavitt",
      "lat":49.170864138,
      "lon":-113.453133724999,
      "province":"AB"
   },
   {
      "display_name":"Leduc",
      "lat":53.2666666,
      "lon":-113.545833299999,
      "province":"AB"
   },
   {
      "display_name":"Leedale",
      "lat":52.5819444,
      "lon":-114.469722200999,
      "province":"AB"
   },
   {
      "display_name":"Legal",
      "lat":53.9494999,
      "lon":-113.595111000999,
      "province":"AB"
   },
   {
      "display_name":"Legend",
      "lat":49.4844444,
      "lon":-111.609722199999,
      "province":"AB"
   },
   {
      "display_name":"Lehigh",
      "lat":51.3499999999999,
      "lon":-112.5333333,
      "province":"AB"
   },
   {
      "display_name":"Leslieville",
      "lat":52.3833333,
      "lon":-114.604722099999,
      "province":"AB"
   },
   {
      "display_name":"Lesser Slave Lake Provincial Park",
      "lat":55.4122222,
      "lon":-114.8136111,
      "province":"AB"
   },
   {
      "display_name":"Lethbridge",
      "lat":49.692807349,
      "lon":-112.835208149999,
      "province":"AB"
   },
   {
      "display_name":"Lindbergh",
      "lat":53.8875,
      "lon":-110.672777800999,
      "province":"AB"
   },
   {
      "display_name":"Linden",
      "lat":51.5905555,
      "lon":-113.488333200999,
      "province":"AB"
   },
   {
      "display_name":"Little Berland River",
      "lat":53.7358332999999,
      "lon":-118.2302778,
      "province":"AB"
   },
   {
      "display_name":"Little Bow Provincial Park",
      "lat":50.2302778,
      "lon":-112.9297222,
      "province":"AB"
   },
   {
      "display_name":"Little Buffalo",
      "lat":56.4375,
      "lon":-116.107500000999,
      "province":"AB"
   },
   {
      "display_name":"Little Fish Lake Provincial Park",
      "lat":51.3727777999999,
      "lon":-112.1991667,
      "province":"AB"
   },
   {
      "display_name":"Little Gem",
      "lat":51.7394444999999,
      "lon":-110.9786111,
      "province":"AB"
   },
   {
      "display_name":"Little Smoky (66-21,22-W5)",
      "lat":54.7388889,
      "lon":-117.1797222,
      "province":"AB"
   },
   {
      "display_name":"Lloydminster",
      "lat":53.278985791,
      "lon":-110.019289379999,
      "province":"AB"
   },
   {
      "display_name":"Lodgepole",
      "lat":53.1005555,
      "lon":-115.313610999999,
      "province":"AB"
   },
   {
      "display_name":"Lois Hole Centennial Provincial Park",
      "lat":53.5955554999999,
      "lon":-113.7308333,
      "province":"AB"
   },
   {
      "display_name":"Lomond",
      "lat":50.3494444,
      "lon":-112.640555499999,
      "province":"AB"
   },
   {
      "display_name":"Lone Pine",
      "lat":54.3058333,
      "lon":-115.114722099999,
      "province":"AB"
   },
   {
      "display_name":"Long Lake Provincial Park",
      "lat":54.4430556,
      "lon":-112.7711111,
      "province":"AB"
   },
   {
      "display_name":"Longview",
      "lat":50.5308333,
      "lon":-114.230833199999,
      "province":"AB"
   },
   {
      "display_name":"Loon Lake",
      "lat":56.5388888,
      "lon":-115.393888899999,
      "province":"AB"
   },
   {
      "display_name":"Lougheed",
      "lat":52.744444401,
      "lon":-111.542777798999,
      "province":"AB"
   },
   {
      "display_name":"Lousana",
      "lat":52.1127777,
      "lon":-113.189999899999,
      "province":"AB"
   },
   {
      "display_name":"Loyalist",
      "lat":51.9858333,
      "lon":-110.954444399999,
      "province":"AB"
   },
   {
      "display_name":"Lundbreck",
      "lat":49.584524312,
      "lon":-114.164187292999,
      "province":"AB"
   },
   {
      "display_name":"Lyalta",
      "lat":51.114499866,
      "lon":-113.601626351,
      "province":"AB"
   },
   {
      "display_name":"Madden",
      "lat":51.4341666999999,
      "lon":-114.2805556,
      "province":"AB"
   },
   {
      "display_name":"Magrath",
      "lat":49.416338506,
      "lon":-112.871528745999,
      "province":"AB"
   },
   {
      "display_name":"Majestic",
      "lat":50.8249999999999,
      "lon":-110.8333333,
      "province":"AB"
   },
   {
      "display_name":"Makepeace",
      "lat":50.9394444,
      "lon":-112.616111099999,
      "province":"AB"
   },
   {
      "display_name":"Mallaig",
      "lat":54.2102778,
      "lon":-111.360833199999,
      "province":"AB"
   },
   {
      "display_name":"Ma-Me-O Beach",
      "lat":52.973470045,
      "lon":-113.960160335999,
      "province":"AB"
   },
   {
      "display_name":"Manning",
      "lat":56.920004117,
      "lon":-117.628838696999,
      "province":"AB"
   },
   {
      "display_name":"Mannville",
      "lat":53.3402777,
      "lon":-111.177777699999,
      "province":"AB"
   },
   {
      "display_name":"Manyberries",
      "lat":49.4005555,
      "lon":-110.694722098999,
      "province":"AB"
   },
   {
      "display_name":"Margaret Lake",
      "lat":58.9536110999999,
      "lon":-115.412499999999,
      "province":"AB"
   },
   {
      "display_name":"Margie",
      "lat":55.435,
      "lon":-111.3358333,
      "province":"AB"
   },
   {
      "display_name":"Mariana Lake",
      "lat":55.9536110999999,
      "lon":-112.0166667,
      "province":"AB"
   },
   {
      "display_name":"Markerville",
      "lat":52.123611,
      "lon":-114.170555499999,
      "province":"AB"
   },
   {
      "display_name":"Marlboro",
      "lat":53.5555555,
      "lon":-116.796110998999,
      "province":"AB"
   },
   {
      "display_name":"Marwayne",
      "lat":53.517499999,
      "lon":-110.329999900999,
      "province":"AB"
   },
   {
      "display_name":"Maskwacis",
      "lat":52.81935214,
      "lon":-113.460689940999,
      "province":"AB"
   },
   {
      "display_name":"Mayerthorpe",
      "lat":53.9547222,
      "lon":-115.138055599999,
      "province":"AB"
   },
   {
      "display_name":"McLaughlin",
      "lat":52.9897221,
      "lon":-110.164999899999,
      "province":"AB"
   },
   {
      "display_name":"McLennan",
      "lat":55.706212905,
      "lon":-116.905698598999,
      "province":"AB"
   },
   {
      "display_name":"McLeod Valley",
      "lat":53.7205555,
      "lon":-115.970555599999,
      "province":"AB"
   },
   {
      "display_name":"McNab",
      "lat":49.3494444,
      "lon":-112.290277698999,
      "province":"AB"
   },
   {
      "display_name":"McNeill",
      "lat":50.6802778,
      "lon":-110.0277778,
      "province":"AB"
   },
   {
      "display_name":"Meander River",
      "lat":59.043376624,
      "lon":-117.714414747999,
      "province":"AB"
   },
   {
      "display_name":"Meanook",
      "lat":54.576552768,
      "lon":-113.319373687999,
      "province":"AB"
   },
   {
      "display_name":"Medicine Hat",
      "lat":50.0408333,
      "lon":-110.676666700999,
      "province":"AB"
   },
   {
      "display_name":"Medley",
      "lat":54.419124387,
      "lon":-110.267761238999,
      "province":"AB"
   },
   {
      "display_name":"Meeting Creek",
      "lat":52.6819444,
      "lon":-112.731666698999,
      "province":"AB"
   },
   {
      "display_name":"Metiskow",
      "lat":52.4086111,
      "lon":-110.633333199999,
      "province":"AB"
   },
   {
      "display_name":"Mewatha Beach",
      "lat":54.606546612,
      "lon":-112.741195618999,
      "province":"AB"
   },
   {
      "display_name":"Michichi",
      "lat":51.5852778,
      "lon":-112.533611099999,
      "province":"AB"
   },
   {
      "display_name":"Midland Provincial Park",
      "lat":51.4780556,
      "lon":-112.7722222,
      "province":"AB"
   },
   {
      "display_name":"Miette",
      "lat":53.2222223,
      "lon":-117.9405556,
      "province":"AB"
   },
   {
      "display_name":"Miette Hotsprings",
      "lat":53.1324999999999,
      "lon":-117.7711111,
      "province":"AB"
   },
   {
      "display_name":"Milk River",
      "lat":49.155372217,
      "lon":-112.083327740999,
      "province":"AB"
   },
   {
      "display_name":"Millarville",
      "lat":50.756442054,
      "lon":-114.325457318999,
      "province":"AB"
   },
   {
      "display_name":"Millet",
      "lat":53.09232237,
      "lon":-113.472701488999,
      "province":"AB"
   },
   {
      "display_name":"Millicent",
      "lat":50.7102777,
      "lon":-111.778888899999,
      "province":"AB"
   },
   {
      "display_name":"Milo",
      "lat":50.57,
      "lon":-112.881944399999,
      "province":"AB"
   },
   {
      "display_name":"Minburn",
      "lat":53.3155555,
      "lon":-111.364166599999,
      "province":"AB"
   },
   {
      "display_name":"Minnow Lake",
      "lat":53.3566666,
      "lon":-116.040277799999,
      "province":"AB"
   },
   {
      "display_name":"Miquelon Lake Provincial Park",
      "lat":53.2508333,
      "lon":-112.8811111,
      "province":"AB"
   },
   {
      "display_name":"Mirror",
      "lat":52.4666667,
      "lon":-113.1038889,
      "province":"AB"
   },
   {
      "display_name":"Monarch",
      "lat":49.8044444,
      "lon":-113.107777699999,
      "province":"AB"
   },
   {
      "display_name":"Monitor",
      "lat":51.9783333,
      "lon":-110.569444298999,
      "province":"AB"
   },
   {
      "display_name":"Moonshine Lake Provincial Park",
      "lat":55.8797223,
      "lon":-119.2155556,
      "province":"AB"
   },
   {
      "display_name":"Moose Lake Provincial Park",
      "lat":54.2713889,
      "lon":-110.93,
      "province":"AB"
   },
   {
      "display_name":"Moose Portage",
      "lat":55.2291666,
      "lon":-113.883055599999,
      "province":"AB"
   },
   {
      "display_name":"Morinville",
      "lat":53.8027777,
      "lon":-113.643888898999,
      "province":"AB"
   },
   {
      "display_name":"Morley",
      "lat":51.167155944,
      "lon":-114.852035341999,
      "province":"AB"
   },
   {
      "display_name":"Morningside",
      "lat":52.5777777,
      "lon":-113.633888899999,
      "province":"AB"
   },
   {
      "display_name":"Morrin",
      "lat":51.6602778,
      "lon":-112.767222199999,
      "province":"AB"
   },
   {
      "display_name":"Mossleigh",
      "lat":50.7202778,
      "lon":-113.324444300999,
      "province":"AB"
   },
   {
      "display_name":"Mountain View",
      "lat":49.1344444,
      "lon":-113.596388899999,
      "province":"AB"
   },
   {
      "display_name":"Mulhurst",
      "lat":53.049346768,
      "lon":-113.981067524999,
      "province":"AB"
   },
   {
      "display_name":"Mundare",
      "lat":53.5938889,
      "lon":-112.341666698999,
      "province":"AB"
   },
   {
      "display_name":"Municipal District of Bighorn No. 8",
      "lat":51.3499999999999,
      "lon":-115.0666667,
      "province":"AB"
   },
   {
      "display_name":"Munson",
      "lat":51.5633333,
      "lon":-112.738333299999,
      "province":"AB"
   },
   {
      "display_name":"Musidora",
      "lat":53.6897222,
      "lon":-111.584166699999,
      "province":"AB"
   },
   {
      "display_name":"Myrnam",
      "lat":53.6616666,
      "lon":-111.230277800999,
      "province":"AB"
   },
   {
      "display_name":"Nacmine",
      "lat":51.469976097,
      "lon":-112.784408602999,
      "province":"AB"
   },
   {
      "display_name":"Nakamun Park",
      "lat":53.877604273,
      "lon":-114.213700045999,
      "province":"AB"
   },
   {
      "display_name":"Namaka",
      "lat":50.958255952,
      "lon":-113.287120427999,
      "province":"AB"
   },
   {
      "display_name":"Nampa",
      "lat":56.038089509,
      "lon":-117.130161634999,
      "province":"AB"
   },
   {
      "display_name":"Nanton",
      "lat":50.345998636,
      "lon":-113.777096386999,
      "province":"AB"
   },
   {
      "display_name":"Neerlandia",
      "lat":54.3191667,
      "lon":-114.377222199999,
      "province":"AB"
   },
   {
      "display_name":"Nevis",
      "lat":52.3302777,
      "lon":-113.031388800999,
      "province":"AB"
   },
   {
      "display_name":"New Brigden",
      "lat":51.7005555,
      "lon":-110.489999898999,
      "province":"AB"
   },
   {
      "display_name":"New Dayton",
      "lat":49.4255555,
      "lon":-112.381388900999,
      "province":"AB"
   },
   {
      "display_name":"New Norway",
      "lat":52.8688889,
      "lon":-112.951111099999,
      "province":"AB"
   },
   {
      "display_name":"New Sarepta",
      "lat":53.2741666,
      "lon":-113.145555599999,
      "province":"AB"
   },
   {
      "display_name":"Newbrook",
      "lat":54.326011113,
      "lon":-112.949210530999,
      "province":"AB"
   },
   {
      "display_name":"Nightingale",
      "lat":51.1602777,
      "lon":-113.333055599999,
      "province":"AB"
   },
   {
      "display_name":"Niton Junction",
      "lat":53.6219444,
      "lon":-115.769722199999,
      "province":"AB"
   },
   {
      "display_name":"Nobleford",
      "lat":49.8813889,
      "lon":-113.0558333,
      "province":"AB"
   },
   {
      "display_name":"Nordegg",
      "lat":52.4705556,
      "lon":-116.0752778,
      "province":"AB"
   },
   {
      "display_name":"Norglenwold",
      "lat":52.324519419,
      "lon":-114.131943357999,
      "province":"AB"
   },
   {
      "display_name":"Norris Beach",
      "lat":52.966622392,
      "lon":-114.023372376999,
      "province":"AB"
   },
   {
      "display_name":"North Star",
      "lat":56.8563889,
      "lon":-117.615277799999,
      "province":"AB"
   },
   {
      "display_name":"Notikewin",
      "lat":56.9747221,
      "lon":-117.624999900999,
      "province":"AB"
   },
   {
      "display_name":"Notikewin Provincial Park",
      "lat":57.2205554999999,
      "lon":-117.1402778,
      "province":"AB"
   },
   {
      "display_name":"Obed",
      "lat":53.558293374,
      "lon":-117.214856236999,
      "province":"AB"
   },
   {
      "display_name":"Obed Lake Provincial Park",
      "lat":53.5630549999999,
      "lon":-117.092221999999,
      "province":"AB"
   },
   {
      "display_name":"O'Brien Provincial Park",
      "lat":55.0661111,
      "lon":-118.8213889,
      "province":"AB"
   },
   {
      "display_name":"Ohaton",
      "lat":52.969955581,
      "lon":-112.660610041999,
      "province":"AB"
   },
   {
      "display_name":"Okotoks",
      "lat":50.7261111,
      "lon":-113.977499899999,
      "province":"AB"
   },
   {
      "display_name":"Olds",
      "lat":51.7919444,
      "lon":-114.107499999999,
      "province":"AB"
   },
   {
      "display_name":"Onefour",
      "lat":49.1208332999999,
      "lon":-110.47,
      "province":"AB"
   },
   {
      "display_name":"Onoway",
      "lat":53.7025,
      "lon":-114.191944299999,
      "province":"AB"
   },
   {
      "display_name":"Osland Lakes",
      "lat":57.2652777999999,
      "lon":-119.4822222,
      "province":"AB"
   },
   {
      "display_name":"Oyen",
      "lat":51.3527778,
      "lon":-110.483333299999,
      "province":"AB"
   },
   {
      "display_name":"Paddle Prairie",
      "lat":57.9511111,
      "lon":-117.472222200999,
      "province":"AB"
   },
   {
      "display_name":"Paradise Valley",
      "lat":53.0327777,
      "lon":-110.295833199999,
      "province":"AB"
   },
   {
      "display_name":"Park Lake Provincial Park",
      "lat":49.8127777999999,
      "lon":-112.92,
      "province":"AB"
   },
   {
      "display_name":"Parkland (16-15-27-W4)",
      "lat":50.2561111,
      "lon":-113.658611000999,
      "province":"AB"
   },
   {
      "display_name":"Parkland Beach",
      "lat":52.607196842,
      "lon":-114.065276528999,
      "province":"AB"
   },
   {
      "display_name":"Patricia",
      "lat":50.6994444,
      "lon":-111.676944398999,
      "province":"AB"
   },
   {
      "display_name":"Peace Point",
      "lat":59.1269445,
      "lon":-112.4494444,
      "province":"AB"
   },
   {
      "display_name":"Peace River",
      "lat":56.238900985,
      "lon":-117.291801356999,
      "province":"AB"
   },
   {
      "display_name":"Peavine Metis Settlement",
      "lat":55.784495449,
      "lon":-116.297496851999,
      "province":"AB"
   },
   {
      "display_name":"Peerless Lake",
      "lat":56.680383014,
      "lon":-114.580792539999,
      "province":"AB"
   },
   {
      "display_name":"Peers",
      "lat":53.6658333,
      "lon":-115.992499999999,
      "province":"AB"
   },
   {
      "display_name":"Pelican Narrows",
      "lat":54.262874369,
      "lon":-110.890000295999,
      "province":"AB"
   },
   {
      "display_name":"Pembina River Provincial Park",
      "lat":53.6077778,
      "lon":-114.9972222,
      "province":"AB"
   },
   {
      "display_name":"Pemukan",
      "lat":51.9719444,
      "lon":-110.444166699999,
      "province":"AB"
   },
   {
      "display_name":"Penhold",
      "lat":52.1369444,
      "lon":-113.873055599999,
      "province":"AB"
   },
   {
      "display_name":"Perryvale",
      "lat":54.4677777,
      "lon":-113.386666600999,
      "province":"AB"
   },
   {
      "display_name":"Peter Lougheed Provincial Park",
      "lat":50.6994444,
      "lon":-115.1877778,
      "province":"AB"
   },
   {
      "display_name":"Philomena",
      "lat":55.1755555999999,
      "lon":-111.6158333,
      "province":"AB"
   },
   {
      "display_name":"Pibroch",
      "lat":54.2544444,
      "lon":-113.874999898999,
      "province":"AB"
   },
   {
      "display_name":"Pickardville",
      "lat":54.051901378,
      "lon":-113.881060841999,
      "province":"AB"
   },
   {
      "display_name":"Picture Butte",
      "lat":49.8769444,
      "lon":-112.779722099999,
      "province":"AB"
   },
   {
      "display_name":"Pierre Grey's Lakes Provincial Park",
      "lat":53.9030554999999,
      "lon":-118.5902778,
      "province":"AB"
   },
   {
      "display_name":"Pigeon Lake Provincial Park",
      "lat":53.0352776999999,
      "lon":-114.1611111,
      "province":"AB"
   },
   {
      "display_name":"Pincher",
      "lat":49.524842656,
      "lon":-113.946702380999,
      "province":"AB"
   },
   {
      "display_name":"Pincher Creek",
      "lat":49.4852777,
      "lon":-113.947499899999,
      "province":"AB"
   },
   {
      "display_name":"Pine Lake",
      "lat":52.1102778,
      "lon":-113.482222199999,
      "province":"AB"
   },
   {
      "display_name":"Pipestone",
      "lat":53.0536111,
      "lon":-113.794722199999,
      "province":"AB"
   },
   {
      "display_name":"Plamondon",
      "lat":54.8497,
      "lon":-112.341899999999,
      "province":"AB"
   },
   {
      "display_name":"Pocahontas",
      "lat":53.205,
      "lon":-117.9261111,
      "province":"AB"
   },
   {
      "display_name":"Point Alison",
      "lat":53.5502777,
      "lon":-114.485833300999,
      "province":"AB"
   },
   {
      "display_name":"Point Brule",
      "lat":58.0216667,
      "lon":-111.3383333,
      "province":"AB"
   },
   {
      "display_name":"Police Outpost Provincial Park",
      "lat":49.0061111,
      "lon":-113.4622222,
      "province":"AB"
   },
   {
      "display_name":"Pollockville",
      "lat":51.1061111,
      "lon":-111.590277799999,
      "province":"AB"
   },
   {
      "display_name":"Ponoka",
      "lat":52.6749999,
      "lon":-113.579999899999,
      "province":"AB"
   },
   {
      "display_name":"Poplar Bay",
      "lat":53.007846383,
      "lon":-114.121489547999,
      "province":"AB"
   },
   {
      "display_name":"Priddis",
      "lat":50.886111,
      "lon":-114.329444299999,
      "province":"AB"
   },
   {
      "display_name":"Provost",
      "lat":52.3533333,
      "lon":-110.264722199999,
      "province":"AB"
   },
   {
      "display_name":"Purple Springs",
      "lat":49.8155555,
      "lon":-111.892499899999,
      "province":"AB"
   },
   {
      "display_name":"Quatre Fourches",
      "lat":58.6355556,
      "lon":-111.3138889,
      "province":"AB"
   },
   {
      "display_name":"Queen Elizabeth Provincial Park, Lac Cardinal",
      "lat":56.218611,
      "lon":-117.693888899999,
      "province":"AB"
   },
   {
      "display_name":"Queenstown",
      "lat":50.6394444,
      "lon":-112.939444299999,
      "province":"AB"
   },
   {
      "display_name":"Quigley",
      "lat":56.1377778,
      "lon":-110.8605556,
      "province":"AB"
   },
   {
      "display_name":"Radway",
      "lat":54.06,
      "lon":-112.944999899999,
      "province":"AB"
   },
   {
      "display_name":"Rainbow Lake",
      "lat":58.5044444,
      "lon":-119.400277701,
      "province":"AB"
   },
   {
      "display_name":"Rainier",
      "lat":50.3683,
      "lon":-112.092499998999,
      "province":"AB"
   },
   {
      "display_name":"Ralston",
      "lat":50.2458333,
      "lon":-111.168610999999,
      "province":"AB"
   },
   {
      "display_name":"Ram Falls Provincial Park",
      "lat":52.0969444,
      "lon":-115.8391667,
      "province":"AB"
   },
   {
      "display_name":"Ranfurly",
      "lat":53.4072222,
      "lon":-111.679722099999,
      "province":"AB"
   },
   {
      "display_name":"Raymond",
      "lat":49.4649999,
      "lon":-112.661111099999,
      "province":"AB"
   },
   {
      "display_name":"Red Deer",
      "lat":52.2686111,
      "lon":-113.810277799999,
      "province":"AB"
   },
   {
      "display_name":"Red Earth Creek",
      "lat":56.536256981,
      "lon":-115.297888916999,
      "province":"AB"
   },
   {
      "display_name":"Red Lodge Provincial Park",
      "lat":51.9444445,
      "lon":-114.2441667,
      "province":"AB"
   },
   {
      "display_name":"Red Rock Coulee Natural Area",
      "lat":49.6596999999999,
      "lon":-110.8771998,
      "province":"AB"
   },
   {
      "display_name":"Red Willow",
      "lat":52.45041301,
      "lon":-112.573125676999,
      "province":"AB"
   },
   {
      "display_name":"Redcliff",
      "lat":50.0774999,
      "lon":-110.785555499999,
      "province":"AB"
   },
   {
      "display_name":"Redland",
      "lat":51.2897221,
      "lon":-113.008055599999,
      "province":"AB"
   },
   {
      "display_name":"Redwater",
      "lat":53.9508333,
      "lon":-113.107499999999,
      "province":"AB"
   },
   {
      "display_name":"Reno",
      "lat":55.994269166,
      "lon":-116.99977879,
      "province":"AB"
   },
   {
      "display_name":"Rich Lake",
      "lat":54.5077778,
      "lon":-111.618611000999,
      "province":"AB"
   },
   {
      "display_name":"Rich Valley",
      "lat":53.8483333,
      "lon":-114.349999900999,
      "province":"AB"
   },
   {
      "display_name":"Richdale",
      "lat":51.6102777,
      "lon":-111.604166699999,
      "province":"AB"
   },
   {
      "display_name":"Rimbey",
      "lat":52.6391666,
      "lon":-114.236666599999,
      "province":"AB"
   },
   {
      "display_name":"Riverview",
      "lat":53.8619444,
      "lon":-110.641944399999,
      "province":"AB"
   },
   {
      "display_name":"Robb",
      "lat":53.2333333,
      "lon":-116.978610999999,
      "province":"AB"
   },
   {
      "display_name":"Rochester",
      "lat":54.3724999,
      "lon":-113.460555499999,
      "province":"AB"
   },
   {
      "display_name":"Rochfort Bridge",
      "lat":53.913611,
      "lon":-115.036388899999,
      "province":"AB"
   },
   {
      "display_name":"Rochon Sands",
      "lat":52.453985119,
      "lon":-112.881718688999,
      "province":"AB"
   },
   {
      "display_name":"Rochon Sands Provincial Park",
      "lat":52.4608332999999,
      "lon":-112.8875,
      "province":"AB"
   },
   {
      "display_name":"Rock Lake Provincial Park",
      "lat":53.4830556,
      "lon":-118.2263888,
      "province":"AB"
   },
   {
      "display_name":"Rocky Lane",
      "lat":58.458753188,
      "lon":-116.259086239999,
      "province":"AB"
   },
   {
      "display_name":"Rocky Mountain House",
      "lat":52.379311058,
      "lon":-114.918724184999,
      "province":"AB"
   },
   {
      "display_name":"Rocky Rapids",
      "lat":53.2797222,
      "lon":-114.951666699999,
      "province":"AB"
   },
   {
      "display_name":"Rockyford",
      "lat":51.2341666,
      "lon":-113.142499899999,
      "province":"AB"
   },
   {
      "display_name":"Rolling Hills",
      "lat":50.2255555,
      "lon":-111.774444300999,
      "province":"AB"
   },
   {
      "display_name":"Rolly View",
      "lat":53.2527778,
      "lon":-113.316944400999,
      "province":"AB"
   },
   {
      "display_name":"Rosalind",
      "lat":52.7897222,
      "lon":-112.443888798999,
      "province":"AB"
   },
   {
      "display_name":"Rose Lynn",
      "lat":51.4177777,
      "lon":-111.677222099999,
      "province":"AB"
   },
   {
      "display_name":"Rosebud",
      "lat":51.2997222,
      "lon":-112.951111099999,
      "province":"AB"
   },
   {
      "display_name":"Rosedale",
      "lat":51.4166999,
      "lon":-112.633299999999,
      "province":"AB"
   },
   {
      "display_name":"Rosemary",
      "lat":50.7574999,
      "lon":-112.089722200999,
      "province":"AB"
   },
   {
      "display_name":"Ross Haven",
      "lat":53.7341666,
      "lon":-114.407499999999,
      "province":"AB"
   },
   {
      "display_name":"Round Hill",
      "lat":53.1652777,
      "lon":-112.630833299999,
      "province":"AB"
   },
   {
      "display_name":"Rowley",
      "lat":51.7622222,
      "lon":-112.788333299999,
      "province":"AB"
   },
   {
      "display_name":"Rumsey",
      "lat":51.8419,
      "lon":-112.842499899999,
      "province":"AB"
   },
   {
      "display_name":"Rycroft",
      "lat":55.7558332,
      "lon":-118.708610999999,
      "province":"AB"
   },
   {
      "display_name":"Ryley",
      "lat":53.2908333,
      "lon":-112.429722199999,
      "province":"AB"
   },
   {
      "display_name":"Saddle Lake",
      "lat":53.955945349,
      "lon":-111.701130963999,
      "province":"AB"
   },
   {
      "display_name":"Sandy Beach (2,3-56-1-W5)",
      "lat":53.808422845,
      "lon":-114.039139623999,
      "province":"AB"
   },
   {
      "display_name":"Sandy Lake",
      "lat":55.8144444,
      "lon":-113.416111099999,
      "province":"AB"
   },
   {
      "display_name":"Sangudo",
      "lat":53.887852576,
      "lon":-114.894561297999,
      "province":"AB"
   },
   {
      "display_name":"Saskatchewan River Crossing",
      "lat":51.975751588,
      "lon":-116.743258225999,
      "province":"AB"
   },
   {
      "display_name":"Saskatoon Island Provincial Park",
      "lat":55.2038889,
      "lon":-119.085555599999,
      "province":"AB"
   },
   {
      "display_name":"Scandia",
      "lat":50.2780555,
      "lon":-112.046666700999,
      "province":"AB"
   },
   {
      "display_name":"Scapa",
      "lat":51.8730554999999,
      "lon":-111.9880556,
      "province":"AB"
   },
   {
      "display_name":"Schuler",
      "lat":50.340653227,
      "lon":-110.088678903999,
      "province":"AB"
   },
   {
      "display_name":"Scollard",
      "lat":51.9374999,
      "lon":-112.833888800999,
      "province":"AB"
   },
   {
      "display_name":"Seba Beach",
      "lat":53.559312805,
      "lon":-114.734359631999,
      "province":"AB"
   },
   {
      "display_name":"Sedalia",
      "lat":51.6749999,
      "lon":-110.664722099999,
      "province":"AB"
   },
   {
      "display_name":"Sedgewick",
      "lat":52.7747222,
      "lon":-111.692777799999,
      "province":"AB"
   },
   {
      "display_name":"Seven Persons",
      "lat":49.876092022,
      "lon":-110.908413535999,
      "province":"AB"
   },
   {
      "display_name":"Sexsmith",
      "lat":55.3502777,
      "lon":-118.7816666,
      "province":"AB"
   },
   {
      "display_name":"Shale Banks",
      "lat":53.2363887999999,
      "lon":-118.2058333,
      "province":"AB"
   },
   {
      "display_name":"Shaughnessy",
      "lat":49.8527778,
      "lon":-112.842222098999,
      "province":"AB"
   },
   {
      "display_name":"Sheep River Provincial Park",
      "lat":50.6519443999999,
      "lon":-114.6241666,
      "province":"AB"
   },
   {
      "display_name":"Shepard",
      "lat":50.952964807,
      "lon":-113.908133252999,
      "province":"AB"
   },
   {
      "display_name":"Sherwood Park",
      "lat":53.5338889,
      "lon":-113.290277799999,
      "province":"AB"
   },
   {
      "display_name":"Shouldice",
      "lat":50.7166666,
      "lon":-112.973888799999,
      "province":"AB"
   },
   {
      "display_name":"Sibbald",
      "lat":51.3883333,
      "lon":-110.150277799999,
      "province":"AB"
   },
   {
      "display_name":"Silver Beach",
      "lat":53.03676128,
      "lon":-113.993595463999,
      "province":"AB"
   },
   {
      "display_name":"Silver Sands",
      "lat":53.6369444,
      "lon":-114.656944399999,
      "province":"AB"
   },
   {
      "display_name":"Sir Winston Churchill Provincial Park",
      "lat":54.8319444999999,
      "lon":-111.9727778,
      "province":"AB"
   },
   {
      "display_name":"Skiff",
      "lat":49.5025,
      "lon":-111.791110999999,
      "province":"AB"
   },
   {
      "display_name":"Slave Lake",
      "lat":55.2822222,
      "lon":-114.770277799999,
      "province":"AB"
   },
   {
      "display_name":"Smith",
      "lat":55.161983027,
      "lon":-114.040724494999,
      "province":"AB"
   },
   {
      "display_name":"Smoky Lake",
      "lat":54.1166666,
      "lon":-112.466666699999,
      "province":"AB"
   },
   {
      "display_name":"South Baptiste",
      "lat":54.72187001,
      "lon":-113.57256607,
      "province":"AB"
   },
   {
      "display_name":"South View",
      "lat":53.646833668,
      "lon":-114.663166943999,
      "province":"AB"
   },
   {
      "display_name":"Spedden",
      "lat":54.1386111,
      "lon":-111.725555599999,
      "province":"AB"
   },
   {
      "display_name":"Spirit River",
      "lat":55.7786111,
      "lon":-118.836666698999,
      "province":"AB"
   },
   {
      "display_name":"Spondin",
      "lat":51.8524999999999,
      "lon":-111.6111111,
      "province":"AB"
   },
   {
      "display_name":"Spray Valley Provincial Park",
      "lat":50.8938888,
      "lon":-115.285,
      "province":"AB"
   },
   {
      "display_name":"Spring Coulee",
      "lat":49.33311245,
      "lon":-113.052680571999,
      "province":"AB"
   },
   {
      "display_name":"Spring Lake",
      "lat":53.5186111,
      "lon":-114.133055599999,
      "province":"AB"
   },
   {
      "display_name":"Spruce Grove",
      "lat":53.5538888,
      "lon":-113.902222199999,
      "province":"AB"
   },
   {
      "display_name":"Spruce View",
      "lat":52.0855555,
      "lon":-114.310277799999,
      "province":"AB"
   },
   {
      "display_name":"Sputinow",
      "lat":53.921936058,
      "lon":-110.267797555999,
      "province":"AB"
   },
   {
      "display_name":"St. Albert",
      "lat":53.6369444,
      "lon":-113.620277699999,
      "province":"AB"
   },
   {
      "display_name":"St. Isidore",
      "lat":56.204041938,
      "lon":-117.107412330999,
      "province":"AB"
   },
   {
      "display_name":"St. Lina",
      "lat":54.2961111,
      "lon":-111.453611099999,
      "province":"AB"
   },
   {
      "display_name":"St. Michael",
      "lat":53.8302777,
      "lon":-112.635833299999,
      "province":"AB"
   },
   {
      "display_name":"St. Paul",
      "lat":53.9927777,
      "lon":-111.296110998999,
      "province":"AB"
   },
   {
      "display_name":"Stand Off",
      "lat":49.456881239,
      "lon":-113.302594606999,
      "province":"AB"
   },
   {
      "display_name":"Standard",
      "lat":51.1097222,
      "lon":-112.983611099999,
      "province":"AB"
   },
   {
      "display_name":"Stavely",
      "lat":50.161111,
      "lon":-113.641666699999,
      "province":"AB"
   },
   {
      "display_name":"Steen River",
      "lat":59.6274999,
      "lon":-117.167222099999,
      "province":"AB"
   },
   {
      "display_name":"Stettler",
      "lat":52.3238888,
      "lon":-112.704444299999,
      "province":"AB"
   },
   {
      "display_name":"Stirling",
      "lat":49.503204181,
      "lon":-112.526818337999,
      "province":"AB"
   },
   {
      "display_name":"Stonelaw",
      "lat":51.8686111,
      "lon":-112.480555599999,
      "province":"AB"
   },
   {
      "display_name":"Stony Plain",
      "lat":53.5263888,
      "lon":-114.006944299999,
      "province":"AB"
   },
   {
      "display_name":"Strathcona Science Park",
      "lat":53.5666669999999,
      "lon":-113.36667,
      "province":"AB"
   },
   {
      "display_name":"Strathmore",
      "lat":51.0455555,
      "lon":-113.393055599999,
      "province":"AB"
   },
   {
      "display_name":"Strome",
      "lat":52.8108333,
      "lon":-112.067222098999,
      "province":"AB"
   },
   {
      "display_name":"Suffield",
      "lat":50.2183333,
      "lon":-111.161111099999,
      "province":"AB"
   },
   {
      "display_name":"Sunbreaker Cove",
      "lat":52.3875,
      "lon":-114.187222098999,
      "province":"AB"
   },
   {
      "display_name":"Sundance Beach",
      "lat":53.080856608,
      "lon":-114.121387676999,
      "province":"AB"
   },
   {
      "display_name":"Sundance Provincial Park",
      "lat":53.6702778,
      "lon":-116.8669444,
      "province":"AB"
   },
   {
      "display_name":"Sundre",
      "lat":51.798342782,
      "lon":-114.639661147999,
      "province":"AB"
   },
   {
      "display_name":"Sunnybrook",
      "lat":53.193031999,
      "lon":-114.199900884999,
      "province":"AB"
   },
   {
      "display_name":"Sunnydale",
      "lat":51.1813889,
      "lon":-110.5844444,
      "province":"AB"
   },
   {
      "display_name":"Sunnynook",
      "lat":51.2938889,
      "lon":-111.668055499999,
      "province":"AB"
   },
   {
      "display_name":"Sunnyslope",
      "lat":51.648981868,
      "lon":-113.557715151999,
      "province":"AB"
   },
   {
      "display_name":"Sunrise Beach",
      "lat":53.783784021,
      "lon":-114.054557667999,
      "province":"AB"
   },
   {
      "display_name":"Sunset Beach",
      "lat":54.741464036,
      "lon":-113.540838432999,
      "province":"AB"
   },
   {
      "display_name":"Sunset House",
      "lat":55.111954317,
      "lon":-116.898561833999,
      "province":"AB"
   },
   {
      "display_name":"Sunset Point",
      "lat":53.688812785,
      "lon":-114.352575916999,
      "province":"AB"
   },
   {
      "display_name":"Sunwapta Falls",
      "lat":52.5322221999999,
      "lon":-117.645277799999,
      "province":"AB"
   },
   {
      "display_name":"Sunwapta Peak",
      "lat":52.3486111,
      "lon":-117.275,
      "province":"AB"
   },
   {
      "display_name":"Swalwell",
      "lat":51.5572222,
      "lon":-113.318333199999,
      "province":"AB"
   },
   {
      "display_name":"Swan Hills",
      "lat":54.7166666,
      "lon":-115.401666699999,
      "province":"AB"
   },
   {
      "display_name":"Sweetgrass Landing",
      "lat":58.9272221999999,
      "lon":-111.9163889,
      "province":"AB"
   },
   {
      "display_name":"Sylvan Lake",
      "lat":52.305690126,
      "lon":-114.096162116999,
      "province":"AB"
   },
   {
      "display_name":"Sylvan Lake Provincial Park",
      "lat":52.3166669999999,
      "lon":-114.08333,
      "province":"AB"
   },
   {
      "display_name":"Taber",
      "lat":49.78475,
      "lon":-112.150971899999,
      "province":"AB"
   },
   {
      "display_name":"Tawatinaw",
      "lat":54.297947568,
      "lon":-113.477422128999,
      "province":"AB"
   },
   {
      "display_name":"Tees",
      "lat":52.4675,
      "lon":-113.320833199999,
      "province":"AB"
   },
   {
      "display_name":"Therien",
      "lat":54.238902447,
      "lon":-111.255165644999,
      "province":"AB"
   },
   {
      "display_name":"Thickwood Hills",
      "lat":56.7111669999999,
      "lon":-112.232361,
      "province":"AB"
   },
   {
      "display_name":"Thorhild",
      "lat":54.1588888,
      "lon":-113.125277700999,
      "province":"AB"
   },
   {
      "display_name":"Thorsby",
      "lat":53.2269444,
      "lon":-114.048055499999,
      "province":"AB"
   },
   {
      "display_name":"Three Hills",
      "lat":51.7030555,
      "lon":-113.268610998999,
      "province":"AB"
   },
   {
      "display_name":"Throne",
      "lat":52.053363269,
      "lon":-111.287736298999,
      "province":"AB"
   },
   {
      "display_name":"Thunder Lake Provincial Park",
      "lat":54.1297222,
      "lon":-114.7280556,
      "province":"AB"
   },
   {
      "display_name":"Tide Lake",
      "lat":50.5458333,
      "lon":-111.3347222,
      "province":"AB"
   },
   {
      "display_name":"Tillebrook Trans-Canada Campsite Provincial Park",
      "lat":50.5369445,
      "lon":-111.8144444,
      "province":"AB"
   },
   {
      "display_name":"Tilley",
      "lat":50.4522221,
      "lon":-111.653333199999,
      "province":"AB"
   },
   {
      "display_name":"Tofield",
      "lat":53.3708333,
      "lon":-112.665833299999,
      "province":"AB"
   },
   {
      "display_name":"Tomahawk",
      "lat":53.397882025,
      "lon":-114.762727501999,
      "province":"AB"
   },
   {
      "display_name":"Torrington",
      "lat":51.7913888,
      "lon":-113.605833298999,
      "province":"AB"
   },
   {
      "display_name":"Travers",
      "lat":50.248142145,
      "lon":-112.554882312999,
      "province":"AB"
   },
   {
      "display_name":"Trochu",
      "lat":51.828611,
      "lon":-113.228055499999,
      "province":"AB"
   },
   {
      "display_name":"Trout Lake",
      "lat":56.495758053,
      "lon":-114.557501023999,
      "province":"AB"
   },
   {
      "display_name":"Truman",
      "lat":54.4588889,
      "lon":-111.2041667,
      "province":"AB"
   },
   {
      "display_name":"Tulliby Lake",
      "lat":53.71390573,
      "lon":-110.176904198999,
      "province":"AB"
   },
   {
      "display_name":"Turin",
      "lat":49.964148208,
      "lon":-112.528309522999,
      "province":"AB"
   },
   {
      "display_name":"Tuttle",
      "lat":52.201200641,
      "lon":-113.843219881999,
      "province":"AB"
   },
   {
      "display_name":"Twining",
      "lat":51.6327778,
      "lon":-113.297499899999,
      "province":"AB"
   },
   {
      "display_name":"Two Hills",
      "lat":53.711111,
      "lon":-111.744722098999,
      "province":"AB"
   },
   {
      "display_name":"Two Lakes Provincial Park",
      "lat":54.3666666,
      "lon":-119.767222199999,
      "province":"AB"
   },
   {
      "display_name":"Val Quentin",
      "lat":53.664004498,
      "lon":-114.384522200999,
      "province":"AB"
   },
   {
      "display_name":"Valhalla Centre",
      "lat":55.4036111,
      "lon":-119.381944299999,
      "province":"AB"
   },
   {
      "display_name":"Valleyview",
      "lat":55.0659439,
      "lon":-117.281860899999,
      "province":"AB"
   },
   {
      "display_name":"Vauxhall",
      "lat":50.0683332,
      "lon":-112.106666599999,
      "province":"AB"
   },
   {
      "display_name":"Vegreville",
      "lat":53.4955555,
      "lon":-112.051666698999,
      "province":"AB"
   },
   {
      "display_name":"Venice",
      "lat":54.6977777,
      "lon":-112.148055499999,
      "province":"AB"
   },
   {
      "display_name":"Vermilion",
      "lat":53.3547222,
      "lon":-110.852777699999,
      "province":"AB"
   },
   {
      "display_name":"Vermilion Provincial Park",
      "lat":53.3686111,
      "lon":-110.9094444,
      "province":"AB"
   },
   {
      "display_name":"Veteran",
      "lat":52.001118089,
      "lon":-111.118753517999,
      "province":"AB"
   },
   {
      "display_name":"Viking",
      "lat":53.0947221,
      "lon":-111.775555499999,
      "province":"AB"
   },
   {
      "display_name":"Villeneuve",
      "lat":53.659952078,
      "lon":-113.810713456999,
      "province":"AB"
   },
   {
      "display_name":"Vilna",
      "lat":54.1166666,
      "lon":-111.920833299999,
      "province":"AB"
   },
   {
      "display_name":"Vimy",
      "lat":54.062099988,
      "lon":-113.646932285999,
      "province":"AB"
   },
   {
      "display_name":"Violet Grove",
      "lat":53.1597221,
      "lon":-115.036944299999,
      "province":"AB"
   },
   {
      "display_name":"Vulcan",
      "lat":50.4041666,
      "lon":-113.260555500999,
      "province":"AB"
   },
   {
      "display_name":"Wabamun",
      "lat":53.5583333,
      "lon":-114.4730556,
      "province":"AB"
   },
   {
      "display_name":"Wabamun Lake Provincial Park",
      "lat":53.562778,
      "lon":-114.485833,
      "province":"AB"
   },
   {
      "display_name":"Wabasca-Desmarais",
      "lat":55.979180592,
      "lon":-113.842697907999,
      "province":"AB"
   },
   {
      "display_name":"Wadlin Lake",
      "lat":57.7369444999999,
      "lon":-115.6027778,
      "province":"AB"
   },
   {
      "display_name":"Wainwright",
      "lat":52.838211385,
      "lon":-110.853011929999,
      "province":"AB"
   },
   {
      "display_name":"Waiparous",
      "lat":51.282815666,
      "lon":-114.835054161999,
      "province":"AB"
   },
   {
      "display_name":"Walsh",
      "lat":49.9472222,
      "lon":-110.042499899999,
      "province":"AB"
   },
   {
      "display_name":"Wandering River",
      "lat":55.1955555,
      "lon":-112.475277700999,
      "province":"AB"
   },
   {
      "display_name":"Wanham",
      "lat":55.737510557,
      "lon":-118.385444443999,
      "province":"AB"
   },
   {
      "display_name":"Wapiti",
      "lat":54.9672222,
      "lon":-119.145,
      "province":"AB"
   },
   {
      "display_name":"Warburg",
      "lat":53.181704334,
      "lon":-114.320188137999,
      "province":"AB"
   },
   {
      "display_name":"Warden",
      "lat":52.259186111,
      "lon":-112.742131115999,
      "province":"AB"
   },
   {
      "display_name":"Wardlow",
      "lat":50.9052778,
      "lon":-111.546111099999,
      "province":"AB"
   },
   {
      "display_name":"Warner",
      "lat":49.2827778,
      "lon":-112.207777799999,
      "province":"AB"
   },
   {
      "display_name":"Warspite",
      "lat":54.0910999,
      "lon":-112.614399899999,
      "province":"AB"
   },
   {
      "display_name":"Warwick",
      "lat":53.6272222,
      "lon":-112.052222098999,
      "province":"AB"
   },
   {
      "display_name":"Waskatenau",
      "lat":54.0938888,
      "lon":-112.784166599999,
      "province":"AB"
   },
   {
      "display_name":"Water Valley",
      "lat":51.5061,
      "lon":-114.611399999999,
      "province":"AB"
   },
   {
      "display_name":"Waterton Lakes National Park of Canada",
      "lat":49.0944443999999,
      "lon":-113.8616667,
      "province":"AB"
   },
   {
      "display_name":"Waterton Park",
      "lat":49.0516666,
      "lon":-113.914166599999,
      "province":"AB"
   },
   {
      "display_name":"Watino",
      "lat":55.712589765,
      "lon":-117.623899388999,
      "province":"AB"
   },
   {
      "display_name":"Wayne",
      "lat":51.381524591,
      "lon":-112.658115857999,
      "province":"AB"
   },
   {
      "display_name":"Webster",
      "lat":55.4419444,
      "lon":-118.688055498999,
      "province":"AB"
   },
   {
      "display_name":"Welling",
      "lat":49.481111,
      "lon":-112.785555599999,
      "province":"AB"
   },
   {
      "display_name":"Wembley",
      "lat":55.1555555,
      "lon":-119.145833198999,
      "province":"AB"
   },
   {
      "display_name":"West Baptiste",
      "lat":54.762182554,
      "lon":-113.574371727999,
      "province":"AB"
   },
   {
      "display_name":"West Cove",
      "lat":53.698345383,
      "lon":-114.503551687999,
      "province":"AB"
   },
   {
      "display_name":"Western Monarch",
      "lat":51.3286110999999,
      "lon":-112.4797222,
      "province":"AB"
   },
   {
      "display_name":"Westlock",
      "lat":54.1552777,
      "lon":-113.856944400999,
      "province":"AB"
   },
   {
      "display_name":"Wetaskiwin",
      "lat":52.9691666,
      "lon":-113.376944398999,
      "province":"AB"
   },
   {
      "display_name":"Whispering Hills",
      "lat":54.758434063,
      "lon":-113.552476327999,
      "province":"AB"
   },
   {
      "display_name":"Whitburn",
      "lat":55.8688889,
      "lon":-119.201666699999,
      "province":"AB"
   },
   {
      "display_name":"White Sands",
      "lat":52.4666999,
      "lon":-112.816699899999,
      "province":"AB"
   },
   {
      "display_name":"Whitecourt",
      "lat":54.1411111,
      "lon":-115.684166698999,
      "province":"AB"
   },
   {
      "display_name":"Whitelaw",
      "lat":56.108908265,
      "lon":-118.076109142999,
      "province":"AB"
   },
   {
      "display_name":"Whitemud Falls",
      "lat":56.6924999999999,
      "lon":-110.0613889,
      "province":"AB"
   },
   {
      "display_name":"Whitla",
      "lat":49.882201578,
      "lon":-111.057089070999,
      "province":"AB"
   },
   {
      "display_name":"Whitney Lakes Provincial Park",
      "lat":53.8499999999999,
      "lon":-110.53333,
      "province":"AB"
   },
   {
      "display_name":"Widewater",
      "lat":55.360393162,
      "lon":-115.036907492999,
      "province":"AB"
   },
   {
      "display_name":"Wildwood (27-53-9-W5)",
      "lat":53.610459195,
      "lon":-115.246877592999,
      "province":"AB"
   },
   {
      "display_name":"William A. Switzer Provincial Park",
      "lat":53.5,
      "lon":-117.8,
      "province":"AB"
   },
   {
      "display_name":"Williamson Provincial Park",
      "lat":55.0825,
      "lon":-117.5597222,
      "province":"AB"
   },
   {
      "display_name":"Willingdon",
      "lat":53.8286111,
      "lon":-112.118055499999,
      "province":"AB"
   },
   {
      "display_name":"Willmore Wilderness Provincial Park",
      "lat":53.7013,
      "lon":-119.055838999999,
      "province":"AB"
   },
   {
      "display_name":"Willow Creek Provincial Park",
      "lat":50.1172223,
      "lon":-113.7691667,
      "province":"AB"
   },
   {
      "display_name":"Wimborne",
      "lat":51.866397221,
      "lon":-113.593464242999,
      "province":"AB"
   },
   {
      "display_name":"Winagami Lake Provincial Park",
      "lat":55.6433332999999,
      "lon":-116.6797222,
      "province":"AB"
   },
   {
      "display_name":"Windfall",
      "lat":54.1833334,
      "lon":-116.210833299999,
      "province":"AB"
   },
   {
      "display_name":"Winfield",
      "lat":52.9652777,
      "lon":-114.423055499999,
      "province":"AB"
   },
   {
      "display_name":"Winnifred",
      "lat":49.906685257,
      "lon":-111.210319725999,
      "province":"AB"
   },
   {
      "display_name":"Wiste",
      "lat":51.7936110999999,
      "lon":-110.8961111,
      "province":"AB"
   },
   {
      "display_name":"Woking",
      "lat":55.592513212,
      "lon":-118.775404536999,
      "province":"AB"
   },
   {
      "display_name":"Wolf Lake",
      "lat":53.2105556,
      "lon":-116.0536111,
      "province":"AB"
   },
   {
      "display_name":"Wood Buffalo",
      "lat":57.6641669999999,
      "lon":-112.005,
      "province":"AB"
   },
   {
      "display_name":"Wood Buffalo National Park of Canada",
      "lat":60.2667975999999,
      "lon":-114.1678903,
      "province":"AB"
   },
   {
      "display_name":"Woolford Provincial Park",
      "lat":49.1780555999999,
      "lon":-113.1911111,
      "province":"AB"
   },
   {
      "display_name":"Worsley",
      "lat":56.5066666,
      "lon":-119.133888900999,
      "province":"AB"
   },
   {
      "display_name":"Wrentham",
      "lat":49.5144444,
      "lon":-112.172777799999,
      "province":"AB"
   },
   {
      "display_name":"Writing-On-Stone Provincial Park",
      "lat":49.0833333999999,
      "lon":-111.6333333,
      "province":"AB"
   },
   {
      "display_name":"Wyndham-Carseland Provincial Park",
      "lat":50.8316667,
      "lon":-113.4297222,
      "province":"AB"
   },
   {
      "display_name":"Yellowstone",
      "lat":53.729634351,
      "lon":-114.382058461999,
      "province":"AB"
   },
   {
      "display_name":"Young's Point Provincial Park",
      "lat":55.1436110999999,
      "lon":-117.5672222,
      "province":"AB"
   },
   {
      "display_name":"Youngstown",
      "lat":51.527839065,
      "lon":-111.199998038999,
      "province":"AB"
   }
]