[
   {
      "display_name":"100 Mile House",
      "lat":51.639146908,
      "lon":-121.294482255999,
      "province":"BC"
   },
   {
      "display_name":"105 Mile House",
      "lat":51.70694499,
      "lon":-121.331114100999,
      "province":"BC"
   },
   {
      "display_name":"108 Mile Ranch",
      "lat":51.728096447,
      "lon":-121.350511801999,
      "province":"BC"
   },
   {
      "display_name":"122 Mile House",
      "lat":51.84834696,
      "lon":-121.598813740999,
      "province":"BC"
   },
   {
      "display_name":"141 Mile House",
      "lat":51.993999404,
      "lon":-121.845634351999,
      "province":"BC"
   },
   {
      "display_name":"150 Mile House",
      "lat":52.114653186,
      "lon":-121.935483239999,
      "province":"BC"
   },
   {
      "display_name":"40 Mile Flats",
      "lat":57.936310288,
      "lon":-130.050058540999,
      "province":"BC"
   },
   {
      "display_name":"70 Mile House",
      "lat":51.30843707,
      "lon":-121.396003904999,
      "province":"BC"
   },
   {
      "display_name":"93 Mile",
      "lat":51.574785766,
      "lon":-121.340810727999,
      "province":"BC"
   },
   {
      "display_name":"Abbotsford",
      "lat":49.056399363,
      "lon":-122.321314593999,
      "province":"BC"
   },
   {
      "display_name":"Aberdeen (New Westminster Land District)",
      "lat":49.050297946,
      "lon":-122.411199573999,
      "province":"BC"
   },
   {
      "display_name":"Adams Lake Park",
      "lat":50.9894439999999,
      "lon":-119.726944,
      "province":"BC"
   },
   {
      "display_name":"Agassiz",
      "lat":49.2333,
      "lon":-121.766699999999,
      "province":"BC"
   },
   {
      "display_name":"Ahousat",
      "lat":49.284161346,
      "lon":-126.073828507999,
      "province":"BC"
   },
   {
      "display_name":"Ainsworth Hot Springs",
      "lat":49.734264752,
      "lon":-116.912551632999,
      "province":"BC"
   },
   {
      "display_name":"Akamina-Kishinena Park",
      "lat":49.033333,
      "lon":-114.183333,
      "province":"BC"
   },
   {
      "display_name":"Albert Head",
      "lat":48.391090172,
      "lon":-123.503311379999,
      "province":"BC"
   },
   {
      "display_name":"Albreda",
      "lat":52.6374999,
      "lon":-119.162499999999,
      "province":"BC"
   },
   {
      "display_name":"Aldergrove",
      "lat":49.051552183,
      "lon":-122.464038077999,
      "province":"BC"
   },
   {
      "display_name":"Alert Bay",
      "lat":50.578900778,
      "lon":-126.919830888999,
      "province":"BC"
   },
   {
      "display_name":"Alexandra Bridge Park",
      "lat":49.7052779999999,
      "lon":-121.406388999999,
      "province":"BC"
   },
   {
      "display_name":"Alexis Creek",
      "lat":52.0833,
      "lon":-123.283299899999,
      "province":"BC"
   },
   {
      "display_name":"Aleza Lake",
      "lat":54.116487494,
      "lon":-122.033186250999,
      "province":"BC"
   },
   {
      "display_name":"Alice Arm",
      "lat":55.482282844,
      "lon":-129.476810305999,
      "province":"BC"
   },
   {
      "display_name":"Alice Lake Park",
      "lat":49.783333,
      "lon":-123.11667,
      "province":"BC"
   },
   {
      "display_name":"Alkali Lake",
      "lat":51.788006656,
      "lon":-122.226745676999,
      "province":"BC"
   },
   {
      "display_name":"Allison Lake",
      "lat":49.6888999,
      "lon":-120.601399899999,
      "province":"BC"
   },
   {
      "display_name":"Allison Lake Park",
      "lat":49.6819439999999,
      "lon":-120.601389,
      "province":"BC"
   },
   {
      "display_name":"Alpine Meadows",
      "lat":50.15,
      "lon":-122.966699899999,
      "province":"BC"
   },
   {
      "display_name":"Altona",
      "lat":56.877524242,
      "lon":-120.953723968999,
      "province":"BC"
   },
   {
      "display_name":"Anahim Lake",
      "lat":52.461371714,
      "lon":-125.302967170999,
      "province":"BC"
   },
   {
      "display_name":"Anaqtl'a",
      "lat":48.80116182,
      "lon":-125.122155165999,
      "province":"BC"
   },
   {
      "display_name":"Ancient Forest/Chun T'oh Whudujut Park",
      "lat":53.7997221999999,
      "lon":-121.3072222,
      "province":"BC"
   },
   {
      "display_name":"Anderson Bay Park",
      "lat":49.5124999999999,
      "lon":-124.136111,
      "province":"BC"
   },
   {
      "display_name":"Anderson Flats Park",
      "lat":55.2444439999999,
      "lon":-127.665555,
      "province":"BC"
   },
   {
      "display_name":"Anglemont",
      "lat":50.9666999,
      "lon":-119.166699999999,
      "province":"BC"
   },
   {
      "display_name":"Anhluut'ukwsim Laxmihl Angwinga'asanskwhl Nisga'a (Nisga'a Memorial Lava Bed Park)",
      "lat":55.1166666999999,
      "lon":-128.9,
      "province":"BC"
   },
   {
      "display_name":"Anmore",
      "lat":49.311547004,
      "lon":-122.848837901999,
      "province":"BC"
   },
   {
      "display_name":"Annis",
      "lat":50.79068603,
      "lon":-119.081784999999,
      "province":"BC"
   },
   {
      "display_name":"Anstey Hunakwa Park",
      "lat":51.141667,
      "lon":-118.915278,
      "province":"BC"
   },
   {
      "display_name":"Anzac",
      "lat":54.7667,
      "lon":-122.499999900999,
      "province":"BC"
   },
   {
      "display_name":"Apex Mountain",
      "lat":49.394180016,
      "lon":-119.907218307,
      "province":"BC"
   },
   {
      "display_name":"Apodaca Park",
      "lat":49.3541669999999,
      "lon":-123.338889,
      "province":"BC"
   },
   {
      "display_name":"Arbutus Grove Park",
      "lat":49.249167,
      "lon":-124.151111,
      "province":"BC"
   },
   {
      "display_name":"Arctic Pacific Lakes Park",
      "lat":54.384722,
      "lon":-121.555556,
      "province":"BC"
   },
   {
      "display_name":"Ardmore",
      "lat":48.6388999,
      "lon":-123.466699899999,
      "province":"BC"
   },
   {
      "display_name":"Argenta",
      "lat":50.1667,
      "lon":-116.916699900999,
      "province":"BC"
   },
   {
      "display_name":"Armstrong",
      "lat":50.446114026,
      "lon":-119.199170409999,
      "province":"BC"
   },
   {
      "display_name":"Arras",
      "lat":55.75351865,
      "lon":-120.525783976999,
      "province":"BC"
   },
   {
      "display_name":"Arrow Lakes Park",
      "lat":49.866667,
      "lon":-118.068056,
      "province":"BC"
   },
   {
      "display_name":"Arrowstone Park",
      "lat":50.883889,
      "lon":-121.280278,
      "province":"BC"
   },
   {
      "display_name":"Artlish Caves Park",
      "lat":50.1402779999999,
      "lon":-126.906667,
      "province":"BC"
   },
   {
      "display_name":"Ashcroft",
      "lat":50.720968815,
      "lon":-121.280278546999,
      "province":"BC"
   },
   {
      "display_name":"Ashton Creek",
      "lat":50.555993431,
      "lon":-119.012635295999,
      "province":"BC"
   },
   {
      "display_name":"Atlin",
      "lat":59.567863596,
      "lon":-133.696707424999,
      "province":"BC"
   },
   {
      "display_name":"Atlin/A TÃ©ix'gi Aan Tlein Park",
      "lat":59.15,
      "lon":-134.05,
      "province":"BC"
   },
   {
      "display_name":"Atna River Park",
      "lat":53.9749999999999,
      "lon":-127.908333,
      "province":"BC"
   },
   {
      "display_name":"Attachie",
      "lat":56.220478608,
      "lon":-121.423330599999,
      "province":"BC"
   },
   {
      "display_name":"Avola",
      "lat":51.783575984,
      "lon":-119.314479811999,
      "province":"BC"
   },
   {
      "display_name":"Babine Mountains Park",
      "lat":54.926389,
      "lon":-126.914722,
      "province":"BC"
   },
   {
      "display_name":"Babine River Corridor Park",
      "lat":55.616667,
      "lon":-127.1125,
      "province":"BC"
   },
   {
      "display_name":"Baker Creek",
      "lat":52.927448452,
      "lon":-123.017374651999,
      "province":"BC"
   },
   {
      "display_name":"Baldy Hughes",
      "lat":53.62459651,
      "lon":-122.933230045999,
      "province":"BC"
   },
   {
      "display_name":"Balfour",
      "lat":49.628333812,
      "lon":-116.971804867999,
      "province":"BC"
   },
   {
      "display_name":"Balmoral",
      "lat":50.85311762,
      "lon":-119.354588517999,
      "province":"BC"
   },
   {
      "display_name":"Bamberton Park",
      "lat":48.6066669999999,
      "lon":-123.528055999999,
      "province":"BC"
   },
   {
      "display_name":"Bamfield",
      "lat":48.831223318,
      "lon":-125.132580893999,
      "province":"BC"
   },
   {
      "display_name":"Banana Island Park",
      "lat":50.7266669999999,
      "lon":-119.77,
      "province":"BC"
   },
   {
      "display_name":"Bankeir",
      "lat":49.710726726,
      "lon":-120.224912391999,
      "province":"BC"
   },
   {
      "display_name":"Barlow Creek",
      "lat":53.023012236,
      "lon":-122.445283628999,
      "province":"BC"
   },
   {
      "display_name":"Barnhartvale",
      "lat":50.650535411,
      "lon":-120.170484902999,
      "province":"BC"
   },
   {
      "display_name":"Barrett Lake",
      "lat":54.45,
      "lon":-126.749999998999,
      "province":"BC"
   },
   {
      "display_name":"Barriere",
      "lat":51.181910067,
      "lon":-120.133410752999,
      "province":"BC"
   },
   {
      "display_name":"Baynes Lake",
      "lat":49.2333,
      "lon":-115.216699899999,
      "province":"BC"
   },
   {
      "display_name":"Bear Creek (Yale Division Yale Land District)",
      "lat":49.528979578,
      "lon":-121.761294957999,
      "province":"BC"
   },
   {
      "display_name":"Bear Creek Park",
      "lat":49.9311109999999,
      "lon":-119.521943999999,
      "province":"BC"
   },
   {
      "display_name":"Bear Flat",
      "lat":56.27404659,
      "lon":-121.230744961999,
      "province":"BC"
   },
   {
      "display_name":"Bear Glacier Park",
      "lat":56.0999999999999,
      "lon":-129.671389,
      "province":"BC"
   },
   {
      "display_name":"Bear Lake (Cariboo Land District)",
      "lat":54.495906313,
      "lon":-122.679219577999,
      "province":"BC"
   },
   {
      "display_name":"Bear Lake (Cassiar Land District)",
      "lat":56.193244934,
      "lon":-126.861247450999,
      "province":"BC"
   },
   {
      "display_name":"Bearhole Lake Park",
      "lat":55.047222,
      "lon":-120.55,
      "province":"BC"
   },
   {
      "display_name":"Beaton",
      "lat":50.73450902,
      "lon":-117.735404246999,
      "province":"BC"
   },
   {
      "display_name":"Beatton Park",
      "lat":56.3277779999999,
      "lon":-120.944444,
      "province":"BC"
   },
   {
      "display_name":"Beatton Ranch",
      "lat":56.7332999,
      "lon":-122.583299999999,
      "province":"BC"
   },
   {
      "display_name":"Beatton River Park",
      "lat":56.1008329999999,
      "lon":-120.381389,
      "province":"BC"
   },
   {
      "display_name":"Beaumont Park",
      "lat":54.058333,
      "lon":-124.616667,
      "province":"BC"
   },
   {
      "display_name":"Beaver Creek Park",
      "lat":49.063333,
      "lon":-117.6125,
      "province":"BC"
   },
   {
      "display_name":"Beaver Point Park",
      "lat":48.771389,
      "lon":-123.403611,
      "province":"BC"
   },
   {
      "display_name":"Beaver Valley Park",
      "lat":52.609722,
      "lon":-121.995833,
      "province":"BC"
   },
   {
      "display_name":"Beaverdell",
      "lat":49.43680949,
      "lon":-119.088965106999,
      "province":"BC"
   },
   {
      "display_name":"Beaverley",
      "lat":53.817244598,
      "lon":-122.881336678999,
      "province":"BC"
   },
   {
      "display_name":"Becher's Prairie Park",
      "lat":51.9749999999999,
      "lon":-122.251389,
      "province":"BC"
   },
   {
      "display_name":"Bedard Aspen Park",
      "lat":50.6627777999999,
      "lon":-121.5102778,
      "province":"BC"
   },
   {
      "display_name":"Belcarra",
      "lat":49.318235397,
      "lon":-122.928169370999,
      "province":"BC"
   },
   {
      "display_name":"Bell II",
      "lat":56.7444444,
      "lon":-129.794444398999,
      "province":"BC"
   },
   {
      "display_name":"Bella Bella",
      "lat":52.1639,
      "lon":-128.144399999999,
      "province":"BC"
   },
   {
      "display_name":"Bella Coola",
      "lat":52.369854007,
      "lon":-126.761492304999,
      "province":"BC"
   },
   {
      "display_name":"Bellhouse Park",
      "lat":48.872778,
      "lon":-123.312778,
      "province":"BC"
   },
   {
      "display_name":"Bennett",
      "lat":59.843912402,
      "lon":-134.992401274999,
      "province":"BC"
   },
   {
      "display_name":"Bessborough",
      "lat":55.81085739,
      "lon":-120.506355858999,
      "province":"BC"
   },
   {
      "display_name":"Big Bar Creek",
      "lat":51.182919357,
      "lon":-122.117023513999,
      "province":"BC"
   },
   {
      "display_name":"Big Bar Lake Park",
      "lat":51.311111,
      "lon":-121.814444,
      "province":"BC"
   },
   {
      "display_name":"Big Basin Park",
      "lat":51.3763889999999,
      "lon":-122.643056,
      "province":"BC"
   },
   {
      "display_name":"Big Bay",
      "lat":50.397214429,
      "lon":-125.135258145999,
      "province":"BC"
   },
   {
      "display_name":"Big Creek",
      "lat":51.718810827,
      "lon":-123.037621459999,
      "province":"BC"
   },
   {
      "display_name":"Big Creek Park",
      "lat":51.183333,
      "lon":-123.116667,
      "province":"BC"
   },
   {
      "display_name":"Big Lake Ranch",
      "lat":52.404900249,
      "lon":-121.876236893999,
      "province":"BC"
   },
   {
      "display_name":"Big White",
      "lat":49.721423252,
      "lon":-118.940367591999,
      "province":"BC"
   },
   {
      "display_name":"Bijoux Falls Park",
      "lat":55.312778,
      "lon":-122.668889,
      "province":"BC"
   },
   {
      "display_name":"Birch Island",
      "lat":51.597083478,
      "lon":-119.910416756999,
      "province":"BC"
   },
   {
      "display_name":"Birchdale",
      "lat":50.034394111,
      "lon":-116.873517979999,
      "province":"BC"
   },
   {
      "display_name":"Birken",
      "lat":50.4833,
      "lon":-122.616699999999,
      "province":"BC"
   },
   {
      "display_name":"Birkenhead Lake Park",
      "lat":50.583333,
      "lon":-122.75,
      "province":"BC"
   },
   {
      "display_name":"Bishop River Park",
      "lat":50.9166669999999,
      "lon":-124.03333,
      "province":"BC"
   },
   {
      "display_name":"Black Creek (Cariboo Land District)",
      "lat":52.298114153,
      "lon":-121.093121887999,
      "province":"BC"
   },
   {
      "display_name":"Black Creek (Comox Land District)",
      "lat":49.836867057,
      "lon":-125.132113048999,
      "province":"BC"
   },
   {
      "display_name":"Black Pines",
      "lat":50.93387494,
      "lon":-120.258379199999,
      "province":"BC"
   },
   {
      "display_name":"Blackcomb Glacier Park",
      "lat":50.091667,
      "lon":-122.87083,
      "province":"BC"
   },
   {
      "display_name":"Blackpool",
      "lat":51.596903047,
      "lon":-120.119771261999,
      "province":"BC"
   },
   {
      "display_name":"Blackwater",
      "lat":53.287529068,
      "lon":-123.151305503999,
      "province":"BC"
   },
   {
      "display_name":"Blaeberry",
      "lat":51.433734533,
      "lon":-117.063001018999,
      "province":"BC"
   },
   {
      "display_name":"Blanket Creek Park",
      "lat":50.833333,
      "lon":-118.083329999999,
      "province":"BC"
   },
   {
      "display_name":"Blind Bay",
      "lat":50.8832999,
      "lon":-119.383299899999,
      "province":"BC"
   },
   {
      "display_name":"Blind Channel",
      "lat":50.4167,
      "lon":-125.499999898999,
      "province":"BC"
   },
   {
      "display_name":"Bliss Landing",
      "lat":50.036565119,
      "lon":-124.816336158999,
      "province":"BC"
   },
   {
      "display_name":"Bloedel",
      "lat":50.1166999,
      "lon":-125.383299999999,
      "province":"BC"
   },
   {
      "display_name":"Blowhole",
      "lat":49.8291999,
      "lon":-126.676399899999,
      "province":"BC"
   },
   {
      "display_name":"Blue Earth Lake Park",
      "lat":50.5999999999999,
      "lon":-121.508333,
      "province":"BC"
   },
   {
      "display_name":"Blue River",
      "lat":52.106146609,
      "lon":-119.305861261999,
      "province":"BC"
   },
   {
      "display_name":"Blue River Black Spruce Park",
      "lat":52.138611,
      "lon":-119.273611,
      "province":"BC"
   },
   {
      "display_name":"Blue River Pine Park",
      "lat":52.1136109999999,
      "lon":-119.288889,
      "province":"BC"
   },
   {
      "display_name":"Blue Springs",
      "lat":50.2499999,
      "lon":-118.849999899999,
      "province":"BC"
   },
   {
      "display_name":"Blueberry Creek",
      "lat":49.246006364,
      "lon":-117.658674260999,
      "province":"BC"
   },
   {
      "display_name":"Boat Basin",
      "lat":49.4791999,
      "lon":-126.424999900999,
      "province":"BC"
   },
   {
      "display_name":"Bob Quinn Lake",
      "lat":56.9721999,
      "lon":-130.247200000999,
      "province":"BC"
   },
   {
      "display_name":"Bobtail Mountain Park",
      "lat":53.6875,
      "lon":-123.364722,
      "province":"BC"
   },
   {
      "display_name":"Bocock Peak Park",
      "lat":55.859722,
      "lon":-122.919444,
      "province":"BC"
   },
   {
      "display_name":"Bodega Ridge Park",
      "lat":48.9577779999999,
      "lon":-123.534444,
      "province":"BC"
   },
   {
      "display_name":"Bold Point",
      "lat":50.173183474,
      "lon":-125.155992981999,
      "province":"BC"
   },
   {
      "display_name":"Bonaparte Park",
      "lat":51.1555559999999,
      "lon":-120.488889,
      "province":"BC"
   },
   {
      "display_name":"Bonnet Hill",
      "lat":53.8999999,
      "lon":-122.616699999999,
      "province":"BC"
   },
   {
      "display_name":"Bonnington Falls",
      "lat":49.4666999,
      "lon":-117.483299900999,
      "province":"BC"
   },
   {
      "display_name":"Boothman's Oxbow Park",
      "lat":49.014722,
      "lon":-118.355278,
      "province":"BC"
   },
   {
      "display_name":"Boothroyd",
      "lat":49.963782893,
      "lon":-121.484691139999,
      "province":"BC"
   },
   {
      "display_name":"Border Lake Park",
      "lat":56.3549999999999,
      "lon":-130.713056,
      "province":"BC"
   },
   {
      "display_name":"Boring Ranch",
      "lat":56.9499999,
      "lon":-122.699999899999,
      "province":"BC"
   },
   {
      "display_name":"Boston Bar",
      "lat":49.862440288,
      "lon":-121.443289948999,
      "province":"BC"
   },
   {
      "display_name":"Boston Flats",
      "lat":50.769855937,
      "lon":-121.304061310999,
      "province":"BC"
   },
   {
      "display_name":"Boswell (Kootenay Land District)",
      "lat":49.45524368,
      "lon":-116.764054782999,
      "province":"BC"
   },
   {
      "display_name":"Bouchie Lake",
      "lat":53.026173017,
      "lon":-122.597329291999,
      "province":"BC"
   },
   {
      "display_name":"Boulder Creek Park",
      "lat":55.1074999999999,
      "lon":-127.431389,
      "province":"BC"
   },
   {
      "display_name":"Boundary Creek Park",
      "lat":49.058611,
      "lon":-118.696666999999,
      "province":"BC"
   },
   {
      "display_name":"Bowen Island",
      "lat":49.3797219999999,
      "lon":-123.344167,
      "province":"BC"
   },
   {
      "display_name":"Bowron Lake Park",
      "lat":53.183333,
      "lon":-121.033333,
      "province":"BC"
   },
   {
      "display_name":"Bowser",
      "lat":49.438693533,
      "lon":-124.684756926999,
      "province":"BC"
   },
   {
      "display_name":"Boyle Point Park",
      "lat":49.480556,
      "lon":-124.7,
      "province":"BC"
   },
   {
      "display_name":"Brackendale",
      "lat":49.7667,
      "lon":-123.149999899999,
      "province":"BC"
   },
   {
      "display_name":"Brackendale Eagles Park",
      "lat":49.7541669999999,
      "lon":-123.175,
      "province":"BC"
   },
   {
      "display_name":"Brady Ranch",
      "lat":56.8333,
      "lon":-122.633299898999,
      "province":"BC"
   },
   {
      "display_name":"Braeloch",
      "lat":49.7832999,
      "lon":-119.516699899999,
      "province":"BC"
   },
   {
      "display_name":"Brandywine Falls Park",
      "lat":50.0338889999999,
      "lon":-123.120833,
      "province":"BC"
   },
   {
      "display_name":"Brem River",
      "lat":50.43881897,
      "lon":-124.663243205999,
      "province":"BC"
   },
   {
      "display_name":"Brentwood Bay",
      "lat":48.568282094,
      "lon":-123.456224780999,
      "province":"BC"
   },
   {
      "display_name":"Brew Bay",
      "lat":49.775787911,
      "lon":-124.371108269999,
      "province":"BC"
   },
   {
      "display_name":"Bridal Veil Falls Park",
      "lat":49.182778,
      "lon":-121.742222,
      "province":"BC"
   },
   {
      "display_name":"Bridesville",
      "lat":49.03578013,
      "lon":-119.142376082999,
      "province":"BC"
   },
   {
      "display_name":"Bridge Lake",
      "lat":51.478592462,
      "lon":-120.725519878999,
      "province":"BC"
   },
   {
      "display_name":"Bridge Lake Park",
      "lat":51.4869439999999,
      "lon":-120.700833,
      "province":"BC"
   },
   {
      "display_name":"Bridge River Delta Park",
      "lat":50.8277779999999,
      "lon":-123.205277999999,
      "province":"BC"
   },
   {
      "display_name":"Brilliant",
      "lat":49.321727108,
      "lon":-117.643053529999,
      "province":"BC"
   },
   {
      "display_name":"Brisco",
      "lat":50.8332999,
      "lon":-116.266699899999,
      "province":"BC"
   },
   {
      "display_name":"Britannia Beach",
      "lat":49.627966055,
      "lon":-123.203661540999,
      "province":"BC"
   },
   {
      "display_name":"Broman Lake",
      "lat":54.416315571,
      "lon":-126.133361722999,
      "province":"BC"
   },
   {
      "display_name":"Bromley Rock Park",
      "lat":49.416111,
      "lon":-120.2625,
      "province":"BC"
   },
   {
      "display_name":"Brookmere",
      "lat":49.8181,
      "lon":-120.874999999999,
      "province":"BC"
   },
   {
      "display_name":"Brookswood",
      "lat":49.071770149,
      "lon":-122.665987171999,
      "province":"BC"
   },
   {
      "display_name":"Brouse",
      "lat":50.2167,
      "lon":-117.749999898999,
      "province":"BC"
   },
   {
      "display_name":"Browne Lake Park",
      "lat":49.8241669999999,
      "lon":-119.197778,
      "province":"BC"
   },
   {
      "display_name":"Buccaneer Bay Park",
      "lat":49.495,
      "lon":-123.990833,
      "province":"BC"
   },
   {
      "display_name":"Buckhorn",
      "lat":53.794223189,
      "lon":-122.654717324999,
      "province":"BC"
   },
   {
      "display_name":"Buckinghorse River",
      "lat":57.390145115,
      "lon":-122.84167061,
      "province":"BC"
   },
   {
      "display_name":"Buckinghorse River Wayside Park",
      "lat":57.3849999999999,
      "lon":-122.843055999999,
      "province":"BC"
   },
   {
      "display_name":"Buckley Bay",
      "lat":49.5333333,
      "lon":-124.856944399999,
      "province":"BC"
   },
   {
      "display_name":"Buffalo Creek",
      "lat":51.7332999,
      "lon":-121.149999999999,
      "province":"BC"
   },
   {
      "display_name":"Bugaboo Park",
      "lat":50.801389,
      "lon":-116.802778,
      "province":"BC"
   },
   {
      "display_name":"Buick",
      "lat":56.762466725,
      "lon":-121.270043991999,
      "province":"BC"
   },
   {
      "display_name":"Bulkley House",
      "lat":55.709526541,
      "lon":-126.230275233999,
      "province":"BC"
   },
   {
      "display_name":"Bulkley Junction Park",
      "lat":55.2375,
      "lon":-127.679167,
      "province":"BC"
   },
   {
      "display_name":"Bull Canyon Park",
      "lat":52.091667,
      "lon":-123.379167,
      "province":"BC"
   },
   {
      "display_name":"Bull Harbour",
      "lat":50.917707479,
      "lon":-127.930501526999,
      "province":"BC"
   },
   {
      "display_name":"Bull River",
      "lat":49.470053386,
      "lon":-115.448182424999,
      "province":"BC"
   },
   {
      "display_name":"Burges James Gadsden Park",
      "lat":51.411111,
      "lon":-117.055556,
      "province":"BC"
   },
   {
      "display_name":"Burgoyne Bay Park",
      "lat":48.785833,
      "lon":-123.516667,
      "province":"BC"
   },
   {
      "display_name":"Burnaby",
      "lat":49.252087045,
      "lon":-122.961707109999,
      "province":"BC"
   },
   {
      "display_name":"Burnie-Shea Park",
      "lat":54.323056,
      "lon":-127.626944,
      "province":"BC"
   },
   {
      "display_name":"Burns Lake",
      "lat":54.231421019,
      "lon":-125.759652615999,
      "province":"BC"
   },
   {
      "display_name":"Burns Lake Park",
      "lat":54.199444,
      "lon":-125.721667,
      "province":"BC"
   },
   {
      "display_name":"Burton",
      "lat":49.987813986,
      "lon":-117.875715206999,
      "province":"BC"
   },
   {
      "display_name":"Butedale",
      "lat":53.15,
      "lon":-128.699999998999,
      "province":"BC"
   },
   {
      "display_name":"Butler Ridge Park",
      "lat":56.183333,
      "lon":-122.3,
      "province":"BC"
   },
   {
      "display_name":"Cache Creek",
      "lat":50.811944401,
      "lon":-121.323333299999,
      "province":"BC"
   },
   {
      "display_name":"Cadboro Bay",
      "lat":48.466667,
      "lon":-123.3,
      "province":"BC"
   },
   {
      "display_name":"Caesars",
      "lat":50.0666999,
      "lon":-119.499999899999,
      "province":"BC"
   },
   {
      "display_name":"Cahilty",
      "lat":50.95,
      "lon":-120.016699899999,
      "province":"BC"
   },
   {
      "display_name":"Caligata Lake Park",
      "lat":51.7411109999999,
      "lon":-119.836944,
      "province":"BC"
   },
   {
      "display_name":"Call Lake Park",
      "lat":54.7633329999999,
      "lon":-127.090833,
      "province":"BC"
   },
   {
      "display_name":"Callaghan Lake Park",
      "lat":50.207222,
      "lon":-123.188333,
      "province":"BC"
   },
   {
      "display_name":"Campbell Creek",
      "lat":50.654022249,
      "lon":-120.084968400999,
      "province":"BC"
   },
   {
      "display_name":"Campbell River",
      "lat":50.0166666,
      "lon":-125.241666599999,
      "province":"BC"
   },
   {
      "display_name":"Canal Flats",
      "lat":50.157582338,
      "lon":-115.816853848,
      "province":"BC"
   },
   {
      "display_name":"Canim Beach Park",
      "lat":51.825556,
      "lon":-120.870833,
      "province":"BC"
   },
   {
      "display_name":"Canim Lake",
      "lat":51.766917879,
      "lon":-120.894272732999,
      "province":"BC"
   },
   {
      "display_name":"Canoe",
      "lat":50.75150211,
      "lon":-119.227388004999,
      "province":"BC"
   },
   {
      "display_name":"Canyon",
      "lat":49.083712922,
      "lon":-116.451145858999,
      "province":"BC"
   },
   {
      "display_name":"Canyon Hot Springs",
      "lat":51.13693345,
      "lon":-117.852168904999,
      "province":"BC"
   },
   {
      "display_name":"Cape Scott Park",
      "lat":50.7333329999999,
      "lon":-128.33333,
      "province":"BC"
   },
   {
      "display_name":"Cariboo Mountains Park",
      "lat":52.8833329999999,
      "lon":-120.51667,
      "province":"BC"
   },
   {
      "display_name":"Cariboo Nature Park",
      "lat":51.882222,
      "lon":-121.663333,
      "province":"BC"
   },
   {
      "display_name":"Cariboo River Park",
      "lat":52.866667,
      "lon":-121.211111,
      "province":"BC"
   },
   {
      "display_name":"Carmanah Walbran Park",
      "lat":48.65,
      "lon":-124.65,
      "province":"BC"
   },
   {
      "display_name":"Carmi",
      "lat":49.500929961,
      "lon":-119.121975949999,
      "province":"BC"
   },
   {
      "display_name":"Carp Lake Park",
      "lat":54.766667,
      "lon":-123.383333,
      "province":"BC"
   },
   {
      "display_name":"Carrolls Landing",
      "lat":50.044738047,
      "lon":-117.894136678999,
      "province":"BC"
   },
   {
      "display_name":"Cascade (Similkameen Division Yale Land District)",
      "lat":49.018674824,
      "lon":-118.207067675999,
      "province":"BC"
   },
   {
      "display_name":"Cassidy",
      "lat":49.05,
      "lon":-123.883299999999,
      "province":"BC"
   },
   {
      "display_name":"Castle Rock Hoodoos Park",
      "lat":51.113333,
      "lon":-120.874444,
      "province":"BC"
   },
   {
      "display_name":"Castlegar",
      "lat":49.325486448,
      "lon":-117.662468848999,
      "province":"BC"
   },
   {
      "display_name":"Cathedral Park",
      "lat":49.076389,
      "lon":-120.179167,
      "province":"BC"
   },
   {
      "display_name":"Caulfeild",
      "lat":49.341639614,
      "lon":-123.260490816999,
      "province":"BC"
   },
   {
      "display_name":"Cawston",
      "lat":49.180180126,
      "lon":-119.763752442999,
      "province":"BC"
   },
   {
      "display_name":"Caycuse",
      "lat":48.894327206,
      "lon":-124.366160525999,
      "province":"BC"
   },
   {
      "display_name":"Cecil Lake",
      "lat":56.305960412,
      "lon":-120.576750548999,
      "province":"BC"
   },
   {
      "display_name":"Cedar",
      "lat":49.104325739,
      "lon":-123.854455489999,
      "province":"BC"
   },
   {
      "display_name":"Cedar Point Park",
      "lat":52.577222,
      "lon":-121.538333,
      "province":"BC"
   },
   {
      "display_name":"Cedarside",
      "lat":52.782349125,
      "lon":-119.250129393999,
      "province":"BC"
   },
   {
      "display_name":"Cedarvale",
      "lat":55.0194,
      "lon":-128.329199998999,
      "province":"BC"
   },
   {
      "display_name":"Ceepeecee",
      "lat":49.873234712,
      "lon":-126.711036371999,
      "province":"BC"
   },
   {
      "display_name":"Celista",
      "lat":50.944405152,
      "lon":-119.348962944,
      "province":"BC"
   },
   {
      "display_name":"Central Saanich",
      "lat":48.566903524,
      "lon":-123.397053857999,
      "province":"BC"
   },
   {
      "display_name":"Chamiss Bay",
      "lat":50.0693999,
      "lon":-127.287499898999,
      "province":"BC"
   },
   {
      "display_name":"Champion Lakes Park",
      "lat":49.1847219999999,
      "lon":-117.623611,
      "province":"BC"
   },
   {
      "display_name":"Charlie Lake",
      "lat":56.297401456,
      "lon":-120.985400202999,
      "province":"BC"
   },
   {
      "display_name":"Charlie Lake Park",
      "lat":56.308333,
      "lon":-120.995833,
      "province":"BC"
   },
   {
      "display_name":"Chase",
      "lat":50.822104692,
      "lon":-119.688298916999,
      "province":"BC"
   },
   {
      "display_name":"Chase Park",
      "lat":56.5083329999999,
      "lon":-125.029167,
      "province":"BC"
   },
   {
      "display_name":"Chasm",
      "lat":51.216699899,
      "lon":-121.483299999999,
      "province":"BC"
   },
   {
      "display_name":"Chasm Park",
      "lat":51.179167,
      "lon":-121.4375,
      "province":"BC"
   },
   {
      "display_name":"Chemainus",
      "lat":48.926564081,
      "lon":-123.720587637,
      "province":"BC"
   },
   {
      "display_name":"Chemainus River Park",
      "lat":48.8413889999999,
      "lon":-123.825556,
      "province":"BC"
   },
   {
      "display_name":"Cherry Creek (Alberni Land District)",
      "lat":49.282721535,
      "lon":-124.787495572999,
      "province":"BC"
   },
   {
      "display_name":"Cherry Creek (Kamloops Division Yale Land District)",
      "lat":50.7124999,
      "lon":-120.624999999999,
      "province":"BC"
   },
   {
      "display_name":"Cherryville",
      "lat":50.242198867,
      "lon":-118.614381886999,
      "province":"BC"
   },
   {
      "display_name":"Cheslatta",
      "lat":53.8167,
      "lon":-125.799999899999,
      "province":"BC"
   },
   {
      "display_name":"Chetwynd",
      "lat":55.694899237,
      "lon":-121.619168454999,
      "province":"BC"
   },
   {
      "display_name":"Chezacut",
      "lat":52.399304732,
      "lon":-124.027589106,
      "province":"BC"
   },
   {
      "display_name":"Chilanko Forks",
      "lat":52.11985142,
      "lon":-124.060645544999,
      "province":"BC"
   },
   {
      "display_name":"Chilliwack",
      "lat":49.174998461,
      "lon":-121.941627311999,
      "province":"BC"
   },
   {
      "display_name":"Chilliwack River Park",
      "lat":49.079167,
      "lon":-121.885556,
      "province":"BC"
   },
   {
      "display_name":"Chinook Cove",
      "lat":51.2332999,
      "lon":-120.166699899999,
      "province":"BC"
   },
   {
      "display_name":"Choquette Hot Springs Park",
      "lat":56.833056,
      "lon":-131.756944,
      "province":"BC"
   },
   {
      "display_name":"Christian Valley",
      "lat":49.551275109,
      "lon":-118.801631090999,
      "province":"BC"
   },
   {
      "display_name":"Christina Lake",
      "lat":49.044867668,
      "lon":-118.204665364,
      "province":"BC"
   },
   {
      "display_name":"Christina Lake Park",
      "lat":49.042778,
      "lon":-118.218888999999,
      "province":"BC"
   },
   {
      "display_name":"Chu Chua Cottonwood Park",
      "lat":51.341667,
      "lon":-120.171667,
      "province":"BC"
   },
   {
      "display_name":"Cinema",
      "lat":53.2332999,
      "lon":-122.449999998999,
      "province":"BC"
   },
   {
      "display_name":"Cinnabar Valley",
      "lat":49.103295068,
      "lon":-123.926405863999,
      "province":"BC"
   },
   {
      "display_name":"Cinnemousun Narrows Park",
      "lat":50.9944439999999,
      "lon":-119.015278,
      "province":"BC"
   },
   {
      "display_name":"City of West Kelowna",
      "lat":49.83,
      "lon":-119.628611,
      "province":"BC"
   },
   {
      "display_name":"Clairmont",
      "lat":56.255927938,
      "lon":-120.899882521,
      "province":"BC"
   },
   {
      "display_name":"Claud Elliott Lake Park",
      "lat":50.3208329999999,
      "lon":-126.556944,
      "province":"BC"
   },
   {
      "display_name":"Clayhurst",
      "lat":56.186796326,
      "lon":-120.030463896999,
      "province":"BC"
   },
   {
      "display_name":"Clayoquot Arm Park",
      "lat":49.1777779999999,
      "lon":-125.56667,
      "province":"BC"
   },
   {
      "display_name":"Clayoquot Plateau Park",
      "lat":49.2249999999999,
      "lon":-125.43056,
      "province":"BC"
   },
   {
      "display_name":"Clearbrook",
      "lat":49.049270348,
      "lon":-122.330856734999,
      "province":"BC"
   },
   {
      "display_name":"Clearwater",
      "lat":51.65,
      "lon":-120.033299900999,
      "province":"BC"
   },
   {
      "display_name":"Clemretta",
      "lat":54.008504731,
      "lon":-126.291637555999,
      "province":"BC"
   },
   {
      "display_name":"Clendinning Park",
      "lat":50.4166669999999,
      "lon":-123.733333,
      "province":"BC"
   },
   {
      "display_name":"Clinton",
      "lat":51.094184718,
      "lon":-121.586790718999,
      "province":"BC"
   },
   {
      "display_name":"Clo-oose",
      "lat":48.662948066,
      "lon":-124.821562962999,
      "province":"BC"
   },
   {
      "display_name":"Close-To-The-Edge Park",
      "lat":54.0569439999999,
      "lon":-121.010278,
      "province":"BC"
   },
   {
      "display_name":"Cloverdale",
      "lat":49.111723313,
      "lon":-122.724855087999,
      "province":"BC"
   },
   {
      "display_name":"Coal Harbour (Rupert Land District)",
      "lat":50.6,
      "lon":-127.583299999999,
      "province":"BC"
   },
   {
      "display_name":"Coal River",
      "lat":59.65,
      "lon":-126.933299999999,
      "province":"BC"
   },
   {
      "display_name":"Coalmont",
      "lat":49.508898502,
      "lon":-120.695434816999,
      "province":"BC"
   },
   {
      "display_name":"Cobble Hill",
      "lat":48.69149887,
      "lon":-123.584571757999,
      "province":"BC"
   },
   {
      "display_name":"Cody Caves Park",
      "lat":49.728611,
      "lon":-116.951944,
      "province":"BC"
   },
   {
      "display_name":"Cokato",
      "lat":49.4666999,
      "lon":-115.066699999999,
      "province":"BC"
   },
   {
      "display_name":"Coldstream",
      "lat":50.229200546,
      "lon":-119.226608913999,
      "province":"BC"
   },
   {
      "display_name":"Coldwater River Park",
      "lat":49.735556,
      "lon":-121.008333,
      "province":"BC"
   },
   {
      "display_name":"Colleymount",
      "lat":54.0332999,
      "lon":-126.149999899999,
      "province":"BC"
   },
   {
      "display_name":"Collinson Point Park",
      "lat":48.861667,
      "lon":-123.361667,
      "province":"BC"
   },
   {
      "display_name":"Columbia Lake Park",
      "lat":50.3125,
      "lon":-115.848056,
      "province":"BC"
   },
   {
      "display_name":"Colwood",
      "lat":48.432077548,
      "lon":-123.496519284999,
      "province":"BC"
   },
   {
      "display_name":"Commodore Heights",
      "lat":52.1667,
      "lon":-122.133299998999,
      "province":"BC"
   },
   {
      "display_name":"Comox",
      "lat":49.673857627,
      "lon":-124.927794538999,
      "province":"BC"
   },
   {
      "display_name":"Conkle Lake Park",
      "lat":49.172222,
      "lon":-119.1,
      "province":"BC"
   },
   {
      "display_name":"Coombs",
      "lat":49.304370363,
      "lon":-124.417968552999,
      "province":"BC"
   },
   {
      "display_name":"Cooper Creek",
      "lat":50.198143179,
      "lon":-116.967184035999,
      "province":"BC"
   },
   {
      "display_name":"Copper Johnny Park",
      "lat":51.440278,
      "lon":-121.823611,
      "province":"BC"
   },
   {
      "display_name":"Coquihalla Canyon Park",
      "lat":49.370278,
      "lon":-121.371111,
      "province":"BC"
   },
   {
      "display_name":"Coquihalla River Park",
      "lat":49.4611109999999,
      "lon":-121.261111,
      "province":"BC"
   },
   {
      "display_name":"Coquitlam",
      "lat":49.25391622,
      "lon":-122.848810061999,
      "province":"BC"
   },
   {
      "display_name":"Cornwall Hills Park",
      "lat":50.690278,
      "lon":-121.452222,
      "province":"BC"
   },
   {
      "display_name":"Cottonwood",
      "lat":53.052207562,
      "lon":-122.156352073999,
      "province":"BC"
   },
   {
      "display_name":"Cottonwood River Park",
      "lat":53.171667,
      "lon":-122.488889,
      "province":"BC"
   },
   {
      "display_name":"Courtenay",
      "lat":49.688915532,
      "lon":-124.998974396999,
      "province":"BC"
   },
   {
      "display_name":"Cowichan Bay",
      "lat":48.737086083,
      "lon":-123.619919179999,
      "province":"BC"
   },
   {
      "display_name":"Cowichan River Park",
      "lat":48.772222,
      "lon":-123.895829999999,
      "province":"BC"
   },
   {
      "display_name":"Cowichan Station",
      "lat":48.729413262,
      "lon":-123.665676921999,
      "province":"BC"
   },
   {
      "display_name":"Cranberry",
      "lat":49.870214347,
      "lon":-124.523160622999,
      "province":"BC"
   },
   {
      "display_name":"Cranberry Junction",
      "lat":55.5667,
      "lon":-128.599999898999,
      "province":"BC"
   },
   {
      "display_name":"Cranbrook",
      "lat":49.515485795,
      "lon":-115.758896475999,
      "province":"BC"
   },
   {
      "display_name":"Crater Lake Park",
      "lat":51.348056,
      "lon":-121.098611,
      "province":"BC"
   },
   {
      "display_name":"Crawford Bay",
      "lat":49.676593419,
      "lon":-116.822437727999,
      "province":"BC"
   },
   {
      "display_name":"Crescent Spur",
      "lat":53.581844438,
      "lon":-120.681932608999,
      "province":"BC"
   },
   {
      "display_name":"Creston",
      "lat":49.100619936,
      "lon":-116.507478952999,
      "province":"BC"
   },
   {
      "display_name":"Criss Creek",
      "lat":51.05,
      "lon":-120.733299899999,
      "province":"BC"
   },
   {
      "display_name":"Crofton",
      "lat":48.863168815,
      "lon":-123.643432422999,
      "province":"BC"
   },
   {
      "display_name":"Crooked River Park",
      "lat":54.4749999999999,
      "lon":-122.683333,
      "province":"BC"
   },
   {
      "display_name":"Crowsnest",
      "lat":49.636766276,
      "lon":-114.695344800999,
      "province":"BC"
   },
   {
      "display_name":"Crowsnest Park",
      "lat":49.6519439999999,
      "lon":-114.699167,
      "province":"BC"
   },
   {
      "display_name":"Cultus Lake",
      "lat":49.066604952,
      "lon":-121.966736039999,
      "province":"BC"
   },
   {
      "display_name":"Cultus Lake Park",
      "lat":49.036389,
      "lon":-121.974444,
      "province":"BC"
   },
   {
      "display_name":"Cumberland",
      "lat":49.621954141,
      "lon":-125.026486023999,
      "province":"BC"
   },
   {
      "display_name":"Cummins Lakes Park",
      "lat":52.0999999999999,
      "lon":-118.05,
      "province":"BC"
   },
   {
      "display_name":"Cypress Park",
      "lat":49.395833,
      "lon":-123.213889,
      "province":"BC"
   },
   {
      "display_name":"Dahl Lake Park",
      "lat":53.775,
      "lon":-123.295833,
      "province":"BC"
   },
   {
      "display_name":"Dala-Kildala Rivers Estuaries Park",
      "lat":53.8375,
      "lon":-128.504167,
      "province":"BC"
   },
   {
      "display_name":"Dallas",
      "lat":50.6667,
      "lon":-120.166699899999,
      "province":"BC"
   },
   {
      "display_name":"Danskin",
      "lat":53.9888999,
      "lon":-125.791699899999,
      "province":"BC"
   },
   {
      "display_name":"Dante's Inferno Park",
      "lat":51.891667,
      "lon":-122.872222,
      "province":"BC"
   },
   {
      "display_name":"D'Arcy",
      "lat":50.55,
      "lon":-122.483299899999,
      "province":"BC"
   },
   {
      "display_name":"Darfield",
      "lat":51.2999999,
      "lon":-120.183299999999,
      "province":"BC"
   },
   {
      "display_name":"Darke Lake Park",
      "lat":49.720833,
      "lon":-119.858333,
      "province":"BC"
   },
   {
      "display_name":"Dashwood",
      "lat":49.362062142,
      "lon":-124.505929575999,
      "province":"BC"
   },
   {
      "display_name":"Davis Bay",
      "lat":49.445311595,
      "lon":-123.725532822999,
      "province":"BC"
   },
   {
      "display_name":"Davis Lake Park",
      "lat":49.2977779999999,
      "lon":-122.238889,
      "province":"BC"
   },
   {
      "display_name":"Dawson Creek",
      "lat":55.759513995,
      "lon":-120.234543014999,
      "province":"BC"
   },
   {
      "display_name":"Dawsons Landing",
      "lat":51.58046948,
      "lon":-127.586471846,
      "province":"BC"
   },
   {
      "display_name":"Dead Man's Island Park",
      "lat":54.207222,
      "lon":-125.732222,
      "province":"BC"
   },
   {
      "display_name":"Dease Lake",
      "lat":58.439399965,
      "lon":-129.995500333,
      "province":"BC"
   },
   {
      "display_name":"Decker Lake",
      "lat":54.3,
      "lon":-125.833299999999,
      "province":"BC"
   },
   {
      "display_name":"Deep Bay",
      "lat":49.464234596,
      "lon":-124.724611278999,
      "province":"BC"
   },
   {
      "display_name":"Deep Cove (New Westminster Land District)",
      "lat":49.323228642,
      "lon":-122.947900570999,
      "province":"BC"
   },
   {
      "display_name":"Deep Cove (North Saanich Land District)",
      "lat":48.679567718,
      "lon":-123.472520013999,
      "province":"BC"
   },
   {
      "display_name":"Deep Creek",
      "lat":50.609367774,
      "lon":-119.213438335999,
      "province":"BC"
   },
   {
      "display_name":"Deer Park",
      "lat":49.420464144,
      "lon":-118.046273264999,
      "province":"BC"
   },
   {
      "display_name":"Deerholme",
      "lat":48.7528,
      "lon":-123.758299899999,
      "province":"BC"
   },
   {
      "display_name":"Deka Lake",
      "lat":51.6083,
      "lon":-120.849999999999,
      "province":"BC"
   },
   {
      "display_name":"Delbrook",
      "lat":49.343025684,
      "lon":-123.085197927999,
      "province":"BC"
   },
   {
      "display_name":"Delkatla",
      "lat":54.008621393,
      "lon":-132.129478383999,
      "province":"BC"
   },
   {
      "display_name":"Delta",
      "lat":49.084722,
      "lon":-123.058611,
      "province":"BC"
   },
   {
      "display_name":"Denison-Bonneau Park",
      "lat":50.1597219999999,
      "lon":-118.741667,
      "province":"BC"
   },
   {
      "display_name":"Denman Island",
      "lat":49.535791527,
      "lon":-124.813115875,
      "province":"BC"
   },
   {
      "display_name":"Denman Island Park",
      "lat":49.565278,
      "lon":-124.811111,
      "province":"BC"
   },
   {
      "display_name":"Departure Bay",
      "lat":49.205369452,
      "lon":-123.974761545999,
      "province":"BC"
   },
   {
      "display_name":"Deroche",
      "lat":49.191445948,
      "lon":-122.080719256999,
      "province":"BC"
   },
   {
      "display_name":"Diana Lake Park",
      "lat":54.2291669999999,
      "lon":-130.1625,
      "province":"BC"
   },
   {
      "display_name":"Dionisio Point Park",
      "lat":49.006944,
      "lon":-123.575,
      "province":"BC"
   },
   {
      "display_name":"Dodge Cove",
      "lat":54.2877768,
      "lon":-130.387499799999,
      "province":"BC"
   },
   {
      "display_name":"Dog Creek (Cariboo Land District)",
      "lat":52.094361378,
      "lon":-122.114278130999,
      "province":"BC"
   },
   {
      "display_name":"Dog Creek (Lillooet Land District)",
      "lat":51.5833,
      "lon":-122.233299899999,
      "province":"BC"
   },
   {
      "display_name":"Dog Creek (Range 5 Coast Land District)",
      "lat":54.2832999,
      "lon":-124.266699900999,
      "province":"BC"
   },
   {
      "display_name":"Dogwood Valley",
      "lat":49.484455285,
      "lon":-121.425191988999,
      "province":"BC"
   },
   {
      "display_name":"Doig River",
      "lat":56.571092348,
      "lon":-120.493620069999,
      "province":"BC"
   },
   {
      "display_name":"Dokie Siding",
      "lat":55.662477304,
      "lon":-121.734267522999,
      "province":"BC"
   },
   {
      "display_name":"Dolphin Beach",
      "lat":49.288448735,
      "lon":-124.146734386999,
      "province":"BC"
   },
   {
      "display_name":"Dome Creek",
      "lat":53.7506733,
      "lon":-121.033431655999,
      "province":"BC"
   },
   {
      "display_name":"Donald",
      "lat":51.4957999,
      "lon":-117.173599899999,
      "province":"BC"
   },
   {
      "display_name":"Donald Landing",
      "lat":54.4832999,
      "lon":-125.649999999999,
      "province":"BC"
   },
   {
      "display_name":"Donnely Lake Park",
      "lat":51.7541669999999,
      "lon":-120.669444,
      "province":"BC"
   },
   {
      "display_name":"Donnely Landing",
      "lat":49.624960359,
      "lon":-124.043202741999,
      "province":"BC"
   },
   {
      "display_name":"Dorreen",
      "lat":54.8388999,
      "lon":-128.345799900999,
      "province":"BC"
   },
   {
      "display_name":"Douglas",
      "lat":49.0027777,
      "lon":-122.735555499999,
      "province":"BC"
   },
   {
      "display_name":"Douglas Lake",
      "lat":50.1667,
      "lon":-120.199999999999,
      "province":"BC"
   },
   {
      "display_name":"Downing Park",
      "lat":51.0083329999999,
      "lon":-121.781944,
      "province":"BC"
   },
   {
      "display_name":"Dragon Mountain Park",
      "lat":52.8833329999999,
      "lon":-122.359722,
      "province":"BC"
   },
   {
      "display_name":"Drewry Point Park",
      "lat":49.415278,
      "lon":-116.811111,
      "province":"BC"
   },
   {
      "display_name":"Driftwood Canyon Park",
      "lat":54.826389,
      "lon":-127.022222,
      "province":"BC"
   },
   {
      "display_name":"Drumbeg Park",
      "lat":49.132778,
      "lon":-123.694444,
      "province":"BC"
   },
   {
      "display_name":"Dry Gulch",
      "lat":50.584161472,
      "lon":-116.041435554999,
      "province":"BC"
   },
   {
      "display_name":"Dry Gulch Park",
      "lat":50.5861109999999,
      "lon":-116.038611,
      "province":"BC"
   },
   {
      "display_name":"Duck Range",
      "lat":50.619152038,
      "lon":-119.830225697999,
      "province":"BC"
   },
   {
      "display_name":"Duffey Lake Park",
      "lat":50.429167,
      "lon":-122.2875,
      "province":"BC"
   },
   {
      "display_name":"Dugan Lake",
      "lat":52.1667,
      "lon":-121.924999999999,
      "province":"BC"
   },
   {
      "display_name":"Duncan",
      "lat":48.778933316,
      "lon":-123.701501974999,
      "province":"BC"
   },
   {
      "display_name":"Duncanby Landing",
      "lat":51.40646278,
      "lon":-127.644037049999,
      "province":"BC"
   },
   {
      "display_name":"Dundarave",
      "lat":49.337954474,
      "lon":-123.180536579999,
      "province":"BC"
   },
   {
      "display_name":"Dune Za Keyih Park (Frog-Gataga Park)",
      "lat":58.4,
      "lon":-126.3,
      "province":"BC"
   },
   {
      "display_name":"Dunsmuir",
      "lat":49.388084817,
      "lon":-124.609425570999,
      "province":"BC"
   },
   {
      "display_name":"Dunster",
      "lat":53.126983409,
      "lon":-119.838845427999,
      "province":"BC"
   },
   {
      "display_name":"Durieu",
      "lat":49.2205971,
      "lon":-122.242259397999,
      "province":"BC"
   },
   {
      "display_name":"E.C. Manning Park",
      "lat":49.0999999999999,
      "lon":-120.816667,
      "province":"BC"
   },
   {
      "display_name":"Eagle Bay",
      "lat":50.9333,
      "lon":-119.216699998999,
      "province":"BC"
   },
   {
      "display_name":"Eagle Bay Park",
      "lat":53.803333,
      "lon":-128.711389,
      "province":"BC"
   },
   {
      "display_name":"Eagle Creek",
      "lat":51.859737432,
      "lon":-120.865742714999,
      "province":"BC"
   },
   {
      "display_name":"Eagle Heights",
      "lat":48.756264086,
      "lon":-123.702583304999,
      "province":"BC"
   },
   {
      "display_name":"Eagle River Park",
      "lat":50.991667,
      "lon":-118.702778,
      "province":"BC"
   },
   {
      "display_name":"Eakin Creek Canyon Park",
      "lat":51.4516669999999,
      "lon":-120.226944,
      "province":"BC"
   },
   {
      "display_name":"Eakin Creek Floodplain Park",
      "lat":51.4749999999999,
      "lon":-120.323611,
      "province":"BC"
   },
   {
      "display_name":"Earls Cove",
      "lat":49.75,
      "lon":-123.999999900999,
      "province":"BC"
   },
   {
      "display_name":"East Pine",
      "lat":55.716699901,
      "lon":-121.216699899999,
      "province":"BC"
   },
   {
      "display_name":"East Pine Park",
      "lat":55.719167,
      "lon":-121.223333,
      "province":"BC"
   },
   {
      "display_name":"East Point",
      "lat":48.785,
      "lon":-123.045278,
      "province":"BC"
   },
   {
      "display_name":"East Sooke",
      "lat":48.36454139,
      "lon":-123.686484038999,
      "province":"BC"
   },
   {
      "display_name":"East Wellington",
      "lat":49.183818336,
      "lon":-124.017738105999,
      "province":"BC"
   },
   {
      "display_name":"Eastgate",
      "lat":49.1374999,
      "lon":-120.612499899999,
      "province":"BC"
   },
   {
      "display_name":"Echo Bay",
      "lat":50.748513168,
      "lon":-126.494017212999,
      "province":"BC"
   },
   {
      "display_name":"Echo Lake Park",
      "lat":50.203056,
      "lon":-118.707777999999,
      "province":"BC"
   },
   {
      "display_name":"Ed Bird-Estella Lakes Park",
      "lat":56.933333,
      "lon":-125.1,
      "province":"BC"
   },
   {
      "display_name":"Eddontenajon",
      "lat":57.822094916,
      "lon":-129.958047897999,
      "province":"BC"
   },
   {
      "display_name":"Edge Hills Park",
      "lat":51.036944,
      "lon":-121.864167,
      "province":"BC"
   },
   {
      "display_name":"Edgewater",
      "lat":50.6999999,
      "lon":-116.133299899999,
      "province":"BC"
   },
   {
      "display_name":"Edgewood",
      "lat":49.7832999,
      "lon":-118.149999899999,
      "province":"BC"
   },
   {
      "display_name":"Egmont",
      "lat":49.75,
      "lon":-123.933299899999,
      "province":"BC"
   },
   {
      "display_name":"Ehatisaht",
      "lat":49.8833,
      "lon":-126.849999899999,
      "province":"BC"
   },
   {
      "display_name":"Elephant Hill Park",
      "lat":50.7669439999999,
      "lon":-121.288611,
      "province":"BC"
   },
   {
      "display_name":"Eleven Mile Creek",
      "lat":49.318889,
      "lon":-121.279721999999,
      "province":"BC"
   },
   {
      "display_name":"Eleven Sisters Park",
      "lat":51.856944,
      "lon":-123.5,
      "province":"BC"
   },
   {
      "display_name":"Elk Bay",
      "lat":50.28560203,
      "lon":-125.436473141999,
      "province":"BC"
   },
   {
      "display_name":"Elk Falls Park",
      "lat":50.0416669999999,
      "lon":-125.320833,
      "province":"BC"
   },
   {
      "display_name":"Elk Lakes Park",
      "lat":50.466667,
      "lon":-115.083333,
      "province":"BC"
   },
   {
      "display_name":"Elk Valley Park",
      "lat":49.623611,
      "lon":-114.938056,
      "province":"BC"
   },
   {
      "display_name":"Elkford",
      "lat":50.012250996,
      "lon":-114.930280737999,
      "province":"BC"
   },
   {
      "display_name":"Elko",
      "lat":49.301222128,
      "lon":-115.110988548999,
      "province":"BC"
   },
   {
      "display_name":"Elko Park",
      "lat":49.298333,
      "lon":-115.118056,
      "province":"BC"
   },
   {
      "display_name":"Ellison",
      "lat":49.936266545,
      "lon":-119.357593331999,
      "province":"BC"
   },
   {
      "display_name":"Ellison Park",
      "lat":50.1752779999999,
      "lon":-119.433333,
      "province":"BC"
   },
   {
      "display_name":"Emar Lakes Park",
      "lat":51.4791669999999,
      "lon":-120.395833,
      "province":"BC"
   },
   {
      "display_name":"Emory Creek Park",
      "lat":49.5116669999999,
      "lon":-121.415278,
      "province":"BC"
   },
   {
      "display_name":"Endako",
      "lat":54.087502141,
      "lon":-125.017023928999,
      "province":"BC"
   },
   {
      "display_name":"Enderby",
      "lat":50.554853863,
      "lon":-119.140979714999,
      "province":"BC"
   },
   {
      "display_name":"Enderby Cliffs Park",
      "lat":50.601111,
      "lon":-119.071389,
      "province":"BC"
   },
   {
      "display_name":"Eneas Lakes Park",
      "lat":49.755556,
      "lon":-119.936111,
      "province":"BC"
   },
   {
      "display_name":"English Lake Park",
      "lat":50.915278,
      "lon":-118.331944,
      "province":"BC"
   },
   {
      "display_name":"Englishman River Falls Park",
      "lat":49.2472219999999,
      "lon":-124.351666999999,
      "province":"BC"
   },
   {
      "display_name":"Entiako Park",
      "lat":53.25,
      "lon":-125.55,
      "province":"BC"
   },
   {
      "display_name":"Epsom Park",
      "lat":50.574444,
      "lon":-121.303610999999,
      "province":"BC"
   },
   {
      "display_name":"Erg Mountain Park",
      "lat":53.570556,
      "lon":-120.908333,
      "province":"BC"
   },
   {
      "display_name":"Erie",
      "lat":49.191207473,
      "lon":-117.337388601999,
      "province":"BC"
   },
   {
      "display_name":"Erie Creek Park",
      "lat":49.1897219999999,
      "lon":-117.305,
      "province":"BC"
   },
   {
      "display_name":"Errington",
      "lat":49.288903675,
      "lon":-124.370084035999,
      "province":"BC"
   },
   {
      "display_name":"Eskers Park",
      "lat":54.084722,
      "lon":-123.213889,
      "province":"BC"
   },
   {
      "display_name":"Esler",
      "lat":52.104182425,
      "lon":-122.184317479999,
      "province":"BC"
   },
   {
      "display_name":"Esperanza",
      "lat":49.871257214,
      "lon":-126.738434301999,
      "province":"BC"
   },
   {
      "display_name":"Esquimalt",
      "lat":48.42892692,
      "lon":-123.407988898999,
      "province":"BC"
   },
   {
      "display_name":"Estevan Point",
      "lat":49.378205578,
      "lon":-126.533747082999,
      "province":"BC"
   },
   {
      "display_name":"Ethel F. Wilson Memorial Park",
      "lat":54.417778,
      "lon":-125.686944,
      "province":"BC"
   },
   {
      "display_name":"Evanoff Park",
      "lat":54.083889,
      "lon":-121.338056,
      "province":"BC"
   },
   {
      "display_name":"Eves Park",
      "lat":48.861389,
      "lon":-123.698332999999,
      "province":"BC"
   },
   {
      "display_name":"Exchamsiks River Park",
      "lat":54.335833,
      "lon":-129.296111,
      "province":"BC"
   },
   {
      "display_name":"Extension",
      "lat":49.100488897,
      "lon":-123.958191531999,
      "province":"BC"
   },
   {
      "display_name":"F.H. Barber Park",
      "lat":49.313333,
      "lon":-121.634722,
      "province":"BC"
   },
   {
      "display_name":"Fair Harbour",
      "lat":50.056471633,
      "lon":-127.100679238999,
      "province":"BC"
   },
   {
      "display_name":"Fairmont Hot Springs",
      "lat":50.334924689,
      "lon":-115.856470914999,
      "province":"BC"
   },
   {
      "display_name":"Falkland",
      "lat":50.500938831,
      "lon":-119.557010603999,
      "province":"BC"
   },
   {
      "display_name":"Fanny Bay",
      "lat":49.490105001,
      "lon":-124.812787830999,
      "province":"BC"
   },
   {
      "display_name":"Farmington",
      "lat":55.8999999,
      "lon":-120.500000000999,
      "province":"BC"
   },
   {
      "display_name":"Farrell Creek",
      "lat":56.122755593,
      "lon":-121.737926284999,
      "province":"BC"
   },
   {
      "display_name":"Fauquier",
      "lat":49.8666999,
      "lon":-118.066699899999,
      "province":"BC"
   },
   {
      "display_name":"Federal Ranch",
      "lat":56.4,
      "lon":-122.383300000999,
      "province":"BC"
   },
   {
      "display_name":"Ferguson",
      "lat":50.6833,
      "lon":-117.483299899999,
      "province":"BC"
   },
   {
      "display_name":"Fern Ridge",
      "lat":49.048302401,
      "lon":-122.655561468999,
      "province":"BC"
   },
   {
      "display_name":"Fernie",
      "lat":49.506761605,
      "lon":-115.068801841999,
      "province":"BC"
   },
   {
      "display_name":"Fernwood",
      "lat":48.908949681,
      "lon":-123.528075494999,
      "province":"BC"
   },
   {
      "display_name":"Ferry Island Park",
      "lat":49.204722,
      "lon":-121.780833,
      "province":"BC"
   },
   {
      "display_name":"Field",
      "lat":51.39490343,
      "lon":-116.486875414999,
      "province":"BC"
   },
   {
      "display_name":"Fillongley Park",
      "lat":49.543889,
      "lon":-124.7625,
      "province":"BC"
   },
   {
      "display_name":"Finger-Tatuk Park",
      "lat":53.511111,
      "lon":-124.225,
      "province":"BC"
   },
   {
      "display_name":"Finn Creek Park",
      "lat":51.8977779999999,
      "lon":-119.322222,
      "province":"BC"
   },
   {
      "display_name":"Fintry",
      "lat":50.131639357,
      "lon":-119.506371135,
      "province":"BC"
   },
   {
      "display_name":"Fintry Park",
      "lat":50.137778,
      "lon":-119.510556,
      "province":"BC"
   },
   {
      "display_name":"Fireside",
      "lat":59.67054648,
      "lon":-127.136256637999,
      "province":"BC"
   },
   {
      "display_name":"Firvale",
      "lat":52.433305466,
      "lon":-126.284088345999,
      "province":"BC"
   },
   {
      "display_name":"Flat Lake Park",
      "lat":51.500833,
      "lon":-121.513333,
      "province":"BC"
   },
   {
      "display_name":"Foch-Gilttoyees Park",
      "lat":53.8833329999999,
      "lon":-129.116667,
      "province":"BC"
   },
   {
      "display_name":"Foreman",
      "lat":53.9499999,
      "lon":-122.683299899999,
      "province":"BC"
   },
   {
      "display_name":"Forest Grove",
      "lat":51.7666999,
      "lon":-121.099999999999,
      "province":"BC"
   },
   {
      "display_name":"Fort Babine",
      "lat":55.322294005,
      "lon":-126.626220328999,
      "province":"BC"
   },
   {
      "display_name":"Fort Fraser",
      "lat":54.059966822,
      "lon":-124.550268077999,
      "province":"BC"
   },
   {
      "display_name":"Fort George Canyon Park",
      "lat":53.6819439999999,
      "lon":-122.725,
      "province":"BC"
   },
   {
      "display_name":"Fort Langley",
      "lat":49.1666999,
      "lon":-122.583299999999,
      "province":"BC"
   },
   {
      "display_name":"Fort Nelson",
      "lat":58.8055999,
      "lon":-122.697199999999,
      "province":"BC"
   },
   {
      "display_name":"Fort Rupert",
      "lat":50.688923303,
      "lon":-127.420036651999,
      "province":"BC"
   },
   {
      "display_name":"Fort St. James",
      "lat":54.448708919,
      "lon":-124.256369648999,
      "province":"BC"
   },
   {
      "display_name":"Fort St. John",
      "lat":56.246052619,
      "lon":-120.844595119999,
      "province":"BC"
   },
   {
      "display_name":"Fort Steele",
      "lat":49.616368151,
      "lon":-115.632676888999,
      "province":"BC"
   },
   {
      "display_name":"Fossli Park",
      "lat":49.25,
      "lon":-124.95,
      "province":"BC"
   },
   {
      "display_name":"Fosthall",
      "lat":50.350445734,
      "lon":-117.933382911999,
      "province":"BC"
   },
   {
      "display_name":"Francis Point Park",
      "lat":49.612222,
      "lon":-124.057778,
      "province":"BC"
   },
   {
      "display_name":"FranÃ§ois Lake",
      "lat":54.05,
      "lon":-125.749999899999,
      "province":"BC"
   },
   {
      "display_name":"FranÃ§ois Lake Park",
      "lat":53.966667,
      "lon":-125.177778,
      "province":"BC"
   },
   {
      "display_name":"Franklin Camp",
      "lat":48.9721999,
      "lon":-124.741699899999,
      "province":"BC"
   },
   {
      "display_name":"Fraser Lake",
      "lat":54.0582999,
      "lon":-124.847199999999,
      "province":"BC"
   },
   {
      "display_name":"Fraser River Breaks Park",
      "lat":52.205555,
      "lon":-122.288889,
      "province":"BC"
   },
   {
      "display_name":"Fraser River Park",
      "lat":53.4833329999999,
      "lon":-122.720833,
      "province":"BC"
   },
   {
      "display_name":"Fred Antoine Park",
      "lat":50.9013889999999,
      "lon":-122.1125,
      "province":"BC"
   },
   {
      "display_name":"French Bar Creek Park",
      "lat":51.2249999999999,
      "lon":-122.204167,
      "province":"BC"
   },
   {
      "display_name":"French Beach Park",
      "lat":48.393889,
      "lon":-123.943611,
      "province":"BC"
   },
   {
      "display_name":"French Creek",
      "lat":49.34712515,
      "lon":-124.360496282999,
      "province":"BC"
   },
   {
      "display_name":"Fruitvale",
      "lat":49.115122178,
      "lon":-117.541758521999,
      "province":"BC"
   },
   {
      "display_name":"Fulford Harbour",
      "lat":48.77064436,
      "lon":-123.450253122999,
      "province":"BC"
   },
   {
      "display_name":"Gabriola Sands Park",
      "lat":49.194444,
      "lon":-123.859167,
      "province":"BC"
   },
   {
      "display_name":"Galena",
      "lat":50.6167,
      "lon":-117.866699999999,
      "province":"BC"
   },
   {
      "display_name":"Galena Bay",
      "lat":50.665926528,
      "lon":-117.838147623999,
      "province":"BC"
   },
   {
      "display_name":"Gang Ranch",
      "lat":51.553760176,
      "lon":-122.350995212999,
      "province":"BC"
   },
   {
      "display_name":"Ganges",
      "lat":48.859897995,
      "lon":-123.506538908999,
      "province":"BC"
   },
   {
      "display_name":"Garden Bay",
      "lat":49.636638759,
      "lon":-124.033621418999,
      "province":"BC"
   },
   {
      "display_name":"Garibaldi",
      "lat":49.9667,
      "lon":-123.149999899999,
      "province":"BC"
   },
   {
      "display_name":"Garibaldi Highlands",
      "lat":49.7417,
      "lon":-123.134700000999,
      "province":"BC"
   },
   {
      "display_name":"Garibaldi Park",
      "lat":49.9499999999999,
      "lon":-122.783333,
      "province":"BC"
   },
   {
      "display_name":"Gateway",
      "lat":51.680758058,
      "lon":-121.211468173999,
      "province":"BC"
   },
   {
      "display_name":"Genelle",
      "lat":49.210516466,
      "lon":-117.694094877999,
      "province":"BC"
   },
   {
      "display_name":"Georgetown Mills",
      "lat":54.472707133,
      "lon":-130.400010456999,
      "province":"BC"
   },
   {
      "display_name":"Gerald Island Park",
      "lat":49.3113889999999,
      "lon":-124.162222,
      "province":"BC"
   },
   {
      "display_name":"Germansen Landing",
      "lat":55.7832999,
      "lon":-124.699999899999,
      "province":"BC"
   },
   {
      "display_name":"Gibsons",
      "lat":49.40175673,
      "lon":-123.514422168999,
      "province":"BC"
   },
   {
      "display_name":"Gillies Bay",
      "lat":49.6833,
      "lon":-124.483299999999,
      "province":"BC"
   },
   {
      "display_name":"Gilnockie Park",
      "lat":49.0875,
      "lon":-115.655556,
      "province":"BC"
   },
   {
      "display_name":"Gilpin",
      "lat":49.009199371,
      "lon":-118.319866948999,
      "province":"BC"
   },
   {
      "display_name":"Gilpin Grasslands Park",
      "lat":49.016667,
      "lon":-118.302778,
      "province":"BC"
   },
   {
      "display_name":"Gingolx",
      "lat":54.9944,
      "lon":-129.954199898999,
      "province":"BC"
   },
   {
      "display_name":"Giscome",
      "lat":54.0667,
      "lon":-122.366699899999,
      "province":"BC"
   },
   {
      "display_name":"Gitanyow",
      "lat":55.267566257,
      "lon":-128.071835196999,
      "province":"BC"
   },
   {
      "display_name":"Gitnadoiks River Park",
      "lat":54.1666669999999,
      "lon":-129.16667,
      "province":"BC"
   },
   {
      "display_name":"Gitwinksihlkw",
      "lat":55.19369784,
      "lon":-129.219262065999,
      "province":"BC"
   },
   {
      "display_name":"Glacier National Park of Canada",
      "lat":51.266667,
      "lon":-117.51667,
      "province":"BC"
   },
   {
      "display_name":"Glade",
      "lat":49.405177851,
      "lon":-117.546991649999,
      "province":"BC"
   },
   {
      "display_name":"Gladstone Park",
      "lat":49.272222,
      "lon":-118.245833,
      "province":"BC"
   },
   {
      "display_name":"Glen Vowell",
      "lat":55.313481441,
      "lon":-127.677355934999,
      "province":"BC"
   },
   {
      "display_name":"Glenemma",
      "lat":50.4693695,
      "lon":-119.352474049999,
      "province":"BC"
   },
   {
      "display_name":"Glenmerry",
      "lat":49.098016547,
      "lon":-117.667373873999,
      "province":"BC"
   },
   {
      "display_name":"Glenrosa",
      "lat":49.847164779,
      "lon":-119.667319067999,
      "province":"BC"
   },
   {
      "display_name":"Goat Range Park",
      "lat":50.3166669999999,
      "lon":-117.283333,
      "province":"BC"
   },
   {
      "display_name":"Gold Bridge",
      "lat":50.8499999,
      "lon":-122.833299899999,
      "province":"BC"
   },
   {
      "display_name":"Gold Muchalat Park",
      "lat":49.866667,
      "lon":-126.095833,
      "province":"BC"
   },
   {
      "display_name":"Gold River",
      "lat":49.780695716,
      "lon":-126.051864364999,
      "province":"BC"
   },
   {
      "display_name":"Golden",
      "lat":51.294882651,
      "lon":-116.963859062999,
      "province":"BC"
   },
   {
      "display_name":"Golden Ears Park",
      "lat":49.5,
      "lon":-122.41667,
      "province":"BC"
   },
   {
      "display_name":"Goldpan Park",
      "lat":50.348056,
      "lon":-121.390278,
      "province":"BC"
   },
   {
      "display_name":"Goldstream Park",
      "lat":48.476389,
      "lon":-123.547222,
      "province":"BC"
   },
   {
      "display_name":"Gonzales Hill",
      "lat":48.4133329999999,
      "lon":-123.324445,
      "province":"BC"
   },
   {
      "display_name":"Gonzales Point",
      "lat":48.4119444,
      "lon":-123.2941667,
      "province":"BC"
   },
   {
      "display_name":"Good Hope",
      "lat":51.569548186,
      "lon":-127.514551902999,
      "province":"BC"
   },
   {
      "display_name":"Good Hope Lake",
      "lat":59.293617152,
      "lon":-129.288685625999,
      "province":"BC"
   },
   {
      "display_name":"Goodlow",
      "lat":56.333644729,
      "lon":-120.136478087999,
      "province":"BC"
   },
   {
      "display_name":"Goose Bay",
      "lat":51.380000015,
      "lon":-127.657174981999,
      "province":"BC"
   },
   {
      "display_name":"Gordon Bay Park",
      "lat":48.834722,
      "lon":-124.198611,
      "province":"BC"
   },
   {
      "display_name":"Gowlland Tod Park",
      "lat":48.543056,
      "lon":-123.520833,
      "province":"BC"
   },
   {
      "display_name":"Graham-Laurier Park",
      "lat":56.5666669999999,
      "lon":-123.5,
      "province":"BC"
   },
   {
      "display_name":"Granby Park",
      "lat":49.741667,
      "lon":-118.4625,
      "province":"BC"
   },
   {
      "display_name":"Grand Forks",
      "lat":49.035374115,
      "lon":-118.440452903999,
      "province":"BC"
   },
   {
      "display_name":"Grand Haven",
      "lat":56.240206415,
      "lon":-120.898661437999,
      "province":"BC"
   },
   {
      "display_name":"Granisle",
      "lat":54.88474019,
      "lon":-126.206011021999,
      "province":"BC"
   },
   {
      "display_name":"Granite Bay",
      "lat":50.2332999,
      "lon":-125.299999900999,
      "province":"BC"
   },
   {
      "display_name":"Grantham",
      "lat":49.762774916,
      "lon":-125.021319232999,
      "province":"BC"
   },
   {
      "display_name":"Grasmere",
      "lat":49.0999999999999,
      "lon":-115.08333,
      "province":"BC"
   },
   {
      "display_name":"Grassy Plains",
      "lat":53.966992578,
      "lon":-125.888129215999,
      "province":"BC"
   },
   {
      "display_name":"Gravelle Ferry",
      "lat":52.8499999,
      "lon":-122.233299900999,
      "province":"BC"
   },
   {
      "display_name":"Gray Creek",
      "lat":49.6333,
      "lon":-116.783299898999,
      "province":"BC"
   },
   {
      "display_name":"Graystokes Park",
      "lat":49.9833329999999,
      "lon":-118.833333,
      "province":"BC"
   },
   {
      "display_name":"Great Glacier Park",
      "lat":56.841667,
      "lon":-131.841667,
      "province":"BC"
   },
   {
      "display_name":"Green Lake Park",
      "lat":51.4097219999999,
      "lon":-121.195833,
      "province":"BC"
   },
   {
      "display_name":"Greenstone Mountain Park",
      "lat":50.6125,
      "lon":-120.644444,
      "province":"BC"
   },
   {
      "display_name":"Greenwood",
      "lat":49.094901039,
      "lon":-118.676274667999,
      "province":"BC"
   },
   {
      "display_name":"Grindrod",
      "lat":50.627636071,
      "lon":-119.122545116999,
      "province":"BC"
   },
   {
      "display_name":"Grohman Narrows Park",
      "lat":49.495833,
      "lon":-117.344444,
      "province":"BC"
   },
   {
      "display_name":"Groundbirch",
      "lat":55.779964208,
      "lon":-120.923324008999,
      "province":"BC"
   },
   {
      "display_name":"Gulf Islands National Park Reserve of Canada",
      "lat":48.783333,
      "lon":-123.3,
      "province":"BC"
   },
   {
      "display_name":"Gwaii Haanas National Park Reserve and Haida Heritage Site",
      "lat":52.3499999,
      "lon":-131.43333,
      "province":"BC"
   },
   {
      "display_name":"Gwillim Lake Park",
      "lat":55.433333,
      "lon":-121.233333,
      "province":"BC"
   },
   {
      "display_name":"Gwyneth Lake Park",
      "lat":50.7899999999999,
      "lon":-122.875556,
      "province":"BC"
   },
   {
      "display_name":"Hagensborg",
      "lat":52.385283033,
      "lon":-126.546988993999,
      "province":"BC"
   },
   {
      "display_name":"Hagwilget",
      "lat":55.254593138,
      "lon":-127.595691379999,
      "province":"BC"
   },
   {
      "display_name":"Hai Lake-Mount Herman Park",
      "lat":54.4166669999999,
      "lon":-128.595833,
      "province":"BC"
   },
   {
      "display_name":"Haig",
      "lat":49.396721332,
      "lon":-121.453039894999,
      "province":"BC"
   },
   {
      "display_name":"Halfmoon Bay",
      "lat":49.514567847,
      "lon":-123.908620511999,
      "province":"BC"
   },
   {
      "display_name":"Hall",
      "lat":49.373975164,
      "lon":-117.242609514999,
      "province":"BC"
   },
   {
      "display_name":"Hamber Park",
      "lat":52.3833329999999,
      "lon":-117.886111,
      "province":"BC"
   },
   {
      "display_name":"Hanceville",
      "lat":51.9416666,
      "lon":-123.098611099999,
      "province":"BC"
   },
   {
      "display_name":"Harbour-Dudgeon Lakes Park",
      "lat":51.572778,
      "lon":-119.157778,
      "province":"BC"
   },
   {
      "display_name":"Hardwicke Island",
      "lat":50.4167,
      "lon":-125.916699999999,
      "province":"BC"
   },
   {
      "display_name":"Harrison Hot Springs",
      "lat":49.3,
      "lon":-121.783299899999,
      "province":"BC"
   },
   {
      "display_name":"Harrison Mills",
      "lat":49.255886997,
      "lon":-121.948779314999,
      "province":"BC"
   },
   {
      "display_name":"Harrogate",
      "lat":50.9833,
      "lon":-116.449999898999,
      "province":"BC"
   },
   {
      "display_name":"Harrop",
      "lat":49.601643076,
      "lon":-117.053223670999,
      "province":"BC"
   },
   {
      "display_name":"Harry Lake Aspen Park",
      "lat":50.7916666,
      "lon":-121.5416667,
      "province":"BC"
   },
   {
      "display_name":"Hartley Bay",
      "lat":53.420270157,
      "lon":-129.256015739999,
      "province":"BC"
   },
   {
      "display_name":"Hasler Flat",
      "lat":55.611099981,
      "lon":-121.966948482999,
      "province":"BC"
   },
   {
      "display_name":"Hazelton",
      "lat":55.254566849,
      "lon":-127.675544348999,
      "province":"BC"
   },
   {
      "display_name":"Headquarters",
      "lat":49.764648554,
      "lon":-125.114606162999,
      "province":"BC"
   },
   {
      "display_name":"Health Bay",
      "lat":50.693871175,
      "lon":-126.596779551999,
      "province":"BC"
   },
   {
      "display_name":"Heather-Dina Lakes Park",
      "lat":55.510556,
      "lon":-123.296111,
      "province":"BC"
   },
   {
      "display_name":"Hedley",
      "lat":49.360365494,
      "lon":-120.071774527999,
      "province":"BC"
   },
   {
      "display_name":"Heffley Creek",
      "lat":50.858305702,
      "lon":-120.270635842999,
      "province":"BC"
   },
   {
      "display_name":"Height of the Rockies Park",
      "lat":50.4833329999999,
      "lon":-115.216667,
      "province":"BC"
   },
   {
      "display_name":"Helliwell Park",
      "lat":49.5,
      "lon":-124.605556,
      "province":"BC"
   },
   {
      "display_name":"Hemer Park",
      "lat":49.0991669999999,
      "lon":-123.831389,
      "province":"BC"
   },
   {
      "display_name":"Hemlock Valley",
      "lat":49.3769443,
      "lon":-121.935277599999,
      "province":"BC"
   },
   {
      "display_name":"Herald Park",
      "lat":50.7908329999999,
      "lon":-119.203333,
      "province":"BC"
   },
   {
      "display_name":"Heriot Bay",
      "lat":50.100242125,
      "lon":-125.212729493999,
      "province":"BC"
   },
   {
      "display_name":"Hesquiat",
      "lat":49.395850369,
      "lon":-126.470507711999,
      "province":"BC"
   },
   {
      "display_name":"Hesquiat Lake Park",
      "lat":49.501667,
      "lon":-126.3875,
      "province":"BC"
   },
   {
      "display_name":"Hesquiat Peninsula Park",
      "lat":49.4319439999999,
      "lon":-126.508333,
      "province":"BC"
   },
   {
      "display_name":"Heydon Bay",
      "lat":50.583317302,
      "lon":-125.583555447999,
      "province":"BC"
   },
   {
      "display_name":"High Lakes Basin Park",
      "lat":51.3824999999999,
      "lon":-120.417778,
      "province":"BC"
   },
   {
      "display_name":"Highlands",
      "lat":48.514354782,
      "lon":-123.516291243999,
      "province":"BC"
   },
   {
      "display_name":"Hilliers",
      "lat":49.30681168,
      "lon":-124.483005313999,
      "province":"BC"
   },
   {
      "display_name":"Hills",
      "lat":50.099457169,
      "lon":-117.486081574999,
      "province":"BC"
   },
   {
      "display_name":"Hitacu",
      "lat":48.939858558,
      "lon":-125.527628366999,
      "province":"BC"
   },
   {
      "display_name":"Hi'tatis",
      "lat":49.027359777,
      "lon":-125.045302990999,
      "province":"BC"
   },
   {
      "display_name":"Hitchie Creek Park",
      "lat":48.7958329999999,
      "lon":-124.740278,
      "province":"BC"
   },
   {
      "display_name":"Hixon",
      "lat":53.420422065,
      "lon":-122.586185253999,
      "province":"BC"
   },
   {
      "display_name":"Holberg",
      "lat":50.662326463,
      "lon":-128.011014052999,
      "province":"BC"
   },
   {
      "display_name":"Hole-in-the-Wall Park",
      "lat":55.146667,
      "lon":-121.854166999999,
      "province":"BC"
   },
   {
      "display_name":"Hollyburn",
      "lat":49.332430066,
      "lon":-123.163312473999,
      "province":"BC"
   },
   {
      "display_name":"Holmwood",
      "lat":50.618932703,
      "lon":-119.954042891999,
      "province":"BC"
   },
   {
      "display_name":"Homathko Estuary Park",
      "lat":50.9347219999999,
      "lon":-124.844444,
      "province":"BC"
   },
   {
      "display_name":"Honeymoon Bay",
      "lat":48.815008581,
      "lon":-124.173056777999,
      "province":"BC"
   },
   {
      "display_name":"Hope",
      "lat":49.380212974,
      "lon":-121.429855174999,
      "province":"BC"
   },
   {
      "display_name":"Hornby Island",
      "lat":49.522660617,
      "lon":-124.642497996999,
      "province":"BC"
   },
   {
      "display_name":"Horne Lake Caves Park",
      "lat":49.345278,
      "lon":-124.753889,
      "province":"BC"
   },
   {
      "display_name":"Horneline Creek Park",
      "lat":59.0013889999999,
      "lon":-127.286111,
      "province":"BC"
   },
   {
      "display_name":"Horsefly",
      "lat":52.3332999,
      "lon":-121.416699999999,
      "province":"BC"
   },
   {
      "display_name":"Horsefly Lake Park",
      "lat":52.388889,
      "lon":-121.2875,
      "province":"BC"
   },
   {
      "display_name":"Horseshoe Bay",
      "lat":49.367379374,
      "lon":-123.273101673999,
      "province":"BC"
   },
   {
      "display_name":"Hosmer",
      "lat":49.589652016,
      "lon":-114.964498455999,
      "province":"BC"
   },
   {
      "display_name":"Hot Springs Cove",
      "lat":49.351986145,
      "lon":-126.259540229999,
      "province":"BC"
   },
   {
      "display_name":"Houston",
      "lat":54.396646093,
      "lon":-126.641763138999,
      "province":"BC"
   },
   {
      "display_name":"Howser",
      "lat":50.30285924,
      "lon":-116.951919980999,
      "province":"BC"
   },
   {
      "display_name":"Hudson's Hope",
      "lat":56.0319444,
      "lon":-121.906944399999,
      "province":"BC"
   },
   {
      "display_name":"Hullcar",
      "lat":50.50303083,
      "lon":-119.269806177999,
      "province":"BC"
   },
   {
      "display_name":"Huntingdon",
      "lat":49.005104892,
      "lon":-122.265585454999,
      "province":"BC"
   },
   {
      "display_name":"Hunts Inlet",
      "lat":54.066836749,
      "lon":-130.443472909999,
      "province":"BC"
   },
   {
      "display_name":"Huscroft",
      "lat":49.0166999,
      "lon":-116.466699899999,
      "province":"BC"
   },
   {
      "display_name":"Hyde Creek",
      "lat":50.580454132,
      "lon":-127.000328000999,
      "province":"BC"
   },
   {
      "display_name":"Hydraulic",
      "lat":52.614799432,
      "lon":-121.706995446999,
      "province":"BC"
   },
   {
      "display_name":"Hyland River Park",
      "lat":59.9625,
      "lon":-128.145833,
      "province":"BC"
   },
   {
      "display_name":"Inkaneep Park",
      "lat":49.226389,
      "lon":-119.541666999999,
      "province":"BC"
   },
   {
      "display_name":"Inland Lake Park",
      "lat":49.958333,
      "lon":-124.486111,
      "province":"BC"
   },
   {
      "display_name":"Inonoaklin Park",
      "lat":49.774722,
      "lon":-118.14,
      "province":"BC"
   },
   {
      "display_name":"Invermere",
      "lat":50.500700575,
      "lon":-116.038191883999,
      "province":"BC"
   },
   {
      "display_name":"Iskut",
      "lat":57.846612886,
      "lon":-129.982556790999,
      "province":"BC"
   },
   {
      "display_name":"Iskut River Hot Springs Park",
      "lat":57.083889,
      "lon":-130.360556,
      "province":"BC"
   },
   {
      "display_name":"Isle Pierre",
      "lat":53.9499999,
      "lon":-123.249999999999,
      "province":"BC"
   },
   {
      "display_name":"Itcha Ilgachuz Park",
      "lat":52.708333,
      "lon":-124.983333,
      "province":"BC"
   },
   {
      "display_name":"Jackman Flats Park",
      "lat":52.936111,
      "lon":-119.386111,
      "province":"BC"
   },
   {
      "display_name":"Jade City",
      "lat":59.246902332,
      "lon":-129.655043332999,
      "province":"BC"
   },
   {
      "display_name":"Jaffray",
      "lat":49.374425221,
      "lon":-115.300035321999,
      "province":"BC"
   },
   {
      "display_name":"James Chabot Park",
      "lat":50.512222,
      "lon":-116.025,
      "province":"BC"
   },
   {
      "display_name":"Jersey",
      "lat":49.1,
      "lon":-117.233299899999,
      "province":"BC"
   },
   {
      "display_name":"Jewel Lake Park",
      "lat":49.1822219999999,
      "lon":-118.603332999999,
      "province":"BC"
   },
   {
      "display_name":"Jimsmith Lake Park",
      "lat":49.4827779999999,
      "lon":-115.841111,
      "province":"BC"
   },
   {
      "display_name":"Joffre Lakes Park",
      "lat":50.345833,
      "lon":-122.476389,
      "province":"BC"
   },
   {
      "display_name":"Johnsons Landing",
      "lat":50.083403623,
      "lon":-116.880003005999,
      "province":"BC"
   },
   {
      "display_name":"Johnstone Creek Park",
      "lat":49.0475,
      "lon":-119.049167,
      "province":"BC"
   },
   {
      "display_name":"Juan de Fuca Park",
      "lat":48.486389,
      "lon":-124.283333,
      "province":"BC"
   },
   {
      "display_name":"Junction Sheep Range Park",
      "lat":51.8,
      "lon":-122.422222,
      "province":"BC"
   },
   {
      "display_name":"Juniper Beach Park",
      "lat":50.786111,
      "lon":-121.083329999999,
      "province":"BC"
   },
   {
      "display_name":"Juskatla",
      "lat":53.610242688,
      "lon":-132.311353119,
      "province":"BC"
   },
   {
      "display_name":"Kakawis",
      "lat":49.189006754,
      "lon":-125.910564008999,
      "province":"BC"
   },
   {
      "display_name":"Kakwa Park",
      "lat":54.05,
      "lon":-120.333333,
      "province":"BC"
   },
   {
      "display_name":"Kalamalka Lake Park",
      "lat":50.183333,
      "lon":-119.2625,
      "province":"BC"
   },
   {
      "display_name":"Kaleden",
      "lat":49.392766493,
      "lon":-119.595862352999,
      "province":"BC"
   },
   {
      "display_name":"Kamloops",
      "lat":50.678250541,
      "lon":-120.347729326999,
      "province":"BC"
   },
   {
      "display_name":"Kanaka Bar",
      "lat":50.112719267,
      "lon":-121.561215240999,
      "province":"BC"
   },
   {
      "display_name":"Kaslo",
      "lat":49.911700758,
      "lon":-116.908442584999,
      "province":"BC"
   },
   {
      "display_name":"Kedleston",
      "lat":50.3166999,
      "lon":-119.183299899999,
      "province":"BC"
   },
   {
      "display_name":"Kekuli Bay Park",
      "lat":50.185278,
      "lon":-119.339167,
      "province":"BC"
   },
   {
      "display_name":"Kelly Lake (Peace River Land District)",
      "lat":55.260182751,
      "lon":-120.042959065999,
      "province":"BC"
   },
   {
      "display_name":"Kelowna",
      "lat":49.8833,
      "lon":-119.483299999999,
      "province":"BC"
   },
   {
      "display_name":"Kemano",
      "lat":53.556765157,
      "lon":-127.943407751,
      "province":"BC"
   },
   {
      "display_name":"Kendrick Camp",
      "lat":49.724381713,
      "lon":-126.650747804999,
      "province":"BC"
   },
   {
      "display_name":"Kennedy Lake Park",
      "lat":49.040278,
      "lon":-125.536111,
      "province":"BC"
   },
   {
      "display_name":"Kennedy River Bog Park",
      "lat":49.0972219999999,
      "lon":-125.622222,
      "province":"BC"
   },
   {
      "display_name":"Kent",
      "lat":49.238056,
      "lon":-121.7625,
      "province":"BC"
   },
   {
      "display_name":"Kentucky-Alleyne Park",
      "lat":49.9166669999999,
      "lon":-120.570833,
      "province":"BC"
   },
   {
      "display_name":"Keremeos",
      "lat":49.206431114,
      "lon":-119.826385992999,
      "province":"BC"
   },
   {
      "display_name":"Keremeos Columns Park",
      "lat":49.2497219999999,
      "lon":-119.789999999999,
      "province":"BC"
   },
   {
      "display_name":"Kersley",
      "lat":52.835804034,
      "lon":-122.418491229999,
      "province":"BC"
   },
   {
      "display_name":"Kettle Valley",
      "lat":49.053621022,
      "lon":-118.944896595999,
      "province":"BC"
   },
   {
      "display_name":"Khutzeymateen Grizzly Sanctuary (Khutzeymateen Park)",
      "lat":54.6333329999999,
      "lon":-129.775278,
      "province":"BC"
   },
   {
      "display_name":"Kianuko Park",
      "lat":49.429167,
      "lon":-116.466667,
      "province":"BC"
   },
   {
      "display_name":"Kickininee Park",
      "lat":49.543056,
      "lon":-119.629167,
      "province":"BC"
   },
   {
      "display_name":"Kikomun Creek Park",
      "lat":49.2430559999999,
      "lon":-115.247222,
      "province":"BC"
   },
   {
      "display_name":"Kilby Park",
      "lat":49.238333,
      "lon":-121.963611,
      "province":"BC"
   },
   {
      "display_name":"Kildala Arm",
      "lat":53.8332999,
      "lon":-128.483299900999,
      "province":"BC"
   },
   {
      "display_name":"Kilkerran",
      "lat":55.839514278,
      "lon":-120.271565336999,
      "province":"BC"
   },
   {
      "display_name":"Killiney Beach",
      "lat":50.189922048,
      "lon":-119.506208112999,
      "province":"BC"
   },
   {
      "display_name":"Kimberley",
      "lat":49.689078938,
      "lon":-115.980610770999,
      "province":"BC"
   },
   {
      "display_name":"Kimsquit",
      "lat":52.833674932,
      "lon":-126.949504960999,
      "province":"BC"
   },
   {
      "display_name":"Kin Beach Park",
      "lat":49.728889,
      "lon":-124.898333,
      "province":"BC"
   },
   {
      "display_name":"Kinaskan Lake Park",
      "lat":57.5041669999999,
      "lon":-130.234722,
      "province":"BC"
   },
   {
      "display_name":"King George VI Park",
      "lat":49.0124999999999,
      "lon":-117.826389,
      "province":"BC"
   },
   {
      "display_name":"Kingcome",
      "lat":50.974163358,
      "lon":-126.175090504999,
      "province":"BC"
   },
   {
      "display_name":"Kingcome Inlet",
      "lat":50.95,
      "lon":-126.199999899999,
      "province":"BC"
   },
   {
      "display_name":"Kingfisher",
      "lat":50.6167,
      "lon":-118.733299899999,
      "province":"BC"
   },
   {
      "display_name":"Kingfisher Creek Park",
      "lat":50.8,
      "lon":-118.783333,
      "province":"BC"
   },
   {
      "display_name":"Kingsgate",
      "lat":49.002430959,
      "lon":-116.178027848999,
      "province":"BC"
   },
   {
      "display_name":"Kinnaird",
      "lat":49.28341598,
      "lon":-117.650842336999,
      "province":"BC"
   },
   {
      "display_name":"Kiskatinaw Park",
      "lat":55.960556,
      "lon":-120.565278,
      "province":"BC"
   },
   {
      "display_name":"Kiskatinaw River Park",
      "lat":56.106944,
      "lon":-120.151389,
      "province":"BC"
   },
   {
      "display_name":"Kispiox",
      "lat":55.350331637,
      "lon":-127.691139884,
      "province":"BC"
   },
   {
      "display_name":"Kitamaat Village",
      "lat":53.973735185,
      "lon":-128.646524597999,
      "province":"BC"
   },
   {
      "display_name":"Kitchener",
      "lat":49.156651099,
      "lon":-116.339451667999,
      "province":"BC"
   },
   {
      "display_name":"Kitimat",
      "lat":54.05097475,
      "lon":-128.650836498,
      "province":"BC"
   },
   {
      "display_name":"Kitimat River Park",
      "lat":54.111389,
      "lon":-128.608889,
      "province":"BC"
   },
   {
      "display_name":"Kitkatla",
      "lat":53.792230326,
      "lon":-130.433381626999,
      "province":"BC"
   },
   {
      "display_name":"Kitsault",
      "lat":55.456104749,
      "lon":-129.471518764999,
      "province":"BC"
   },
   {
      "display_name":"Kitseguecla",
      "lat":55.083565336,
      "lon":-127.833451171999,
      "province":"BC"
   },
   {
      "display_name":"Kitsumkalum Park",
      "lat":54.721944,
      "lon":-128.771111,
      "province":"BC"
   },
   {
      "display_name":"Kitty Coleman Beach Park",
      "lat":49.788889,
      "lon":-124.996667,
      "province":"BC"
   },
   {
      "display_name":"Kitwanga Mountain Park",
      "lat":55.1144439999999,
      "lon":-128.155556,
      "province":"BC"
   },
   {
      "display_name":"Kleanza Creek Park",
      "lat":54.598611,
      "lon":-128.395833,
      "province":"BC"
   },
   {
      "display_name":"Kleena Kleene",
      "lat":51.950110559,
      "lon":-124.833452234999,
      "province":"BC"
   },
   {
      "display_name":"Klemtu",
      "lat":52.590444627,
      "lon":-128.526766222,
      "province":"BC"
   },
   {
      "display_name":"Klin-se-za Park",
      "lat":55.8,
      "lon":-122.561944,
      "province":"BC"
   },
   {
      "display_name":"Kluskoil Lake Park",
      "lat":53.216667,
      "lon":-123.9,
      "province":"BC"
   },
   {
      "display_name":"Kobes",
      "lat":56.6388999,
      "lon":-121.649999898999,
      "province":"BC"
   },
   {
      "display_name":"Kokanee Creek Park",
      "lat":49.608889,
      "lon":-117.123611,
      "province":"BC"
   },
   {
      "display_name":"Kokanee Glacier Park",
      "lat":49.7833333,
      "lon":-117.1333333,
      "province":"BC"
   },
   {
      "display_name":"Koksilah River Park",
      "lat":48.6505559999999,
      "lon":-123.723611,
      "province":"BC"
   },
   {
      "display_name":"Kootenay Bay",
      "lat":49.684850532,
      "lon":-116.866412168999,
      "province":"BC"
   },
   {
      "display_name":"Kootenay Crossing",
      "lat":50.8832999,
      "lon":-116.049999899999,
      "province":"BC"
   },
   {
      "display_name":"Kootenay Lake Park",
      "lat":49.3730559999999,
      "lon":-116.810278,
      "province":"BC"
   },
   {
      "display_name":"Kootenay National Park of Canada",
      "lat":50.9499999999999,
      "lon":-116.03333,
      "province":"BC"
   },
   {
      "display_name":"Kotcho Lake Village Site Park",
      "lat":59.0211109999999,
      "lon":-121.085556,
      "province":"BC"
   },
   {
      "display_name":"Krestova",
      "lat":49.440936537,
      "lon":-117.591825515999,
      "province":"BC"
   },
   {
      "display_name":"'Ksan",
      "lat":55.249713447,
      "lon":-127.678415563999,
      "province":"BC"
   },
   {
      "display_name":"Kuskonook",
      "lat":49.3,
      "lon":-116.649999899999,
      "province":"BC"
   },
   {
      "display_name":"Kyuquot",
      "lat":50.028118726,
      "lon":-127.377402764999,
      "province":"BC"
   },
   {
      "display_name":"Lac la Hache",
      "lat":51.814527786,
      "lon":-121.465151237999,
      "province":"BC"
   },
   {
      "display_name":"Lac La Hache Park",
      "lat":51.8594439999999,
      "lon":-121.638056,
      "province":"BC"
   },
   {
      "display_name":"Lac Le Jeune",
      "lat":50.481712407,
      "lon":-120.493017539999,
      "province":"BC"
   },
   {
      "display_name":"Lac Le Jeune Park",
      "lat":50.4833329999999,
      "lon":-120.466667,
      "province":"BC"
   },
   {
      "display_name":"Ladner",
      "lat":49.0916666,
      "lon":-123.077777700999,
      "province":"BC"
   },
   {
      "display_name":"Ladysmith",
      "lat":48.99264641,
      "lon":-123.820177356999,
      "province":"BC"
   },
   {
      "display_name":"Laidlaw",
      "lat":49.322345067,
      "lon":-121.618135771999,
      "province":"BC"
   },
   {
      "display_name":"Lake Country",
      "lat":50.030278,
      "lon":-119.4025,
      "province":"BC"
   },
   {
      "display_name":"Lake Cowichan",
      "lat":48.826066819,
      "lon":-124.051505190999,
      "province":"BC"
   },
   {
      "display_name":"Lake Errock",
      "lat":49.229101095,
      "lon":-122.011597330999,
      "province":"BC"
   },
   {
      "display_name":"Lakelse Lake",
      "lat":54.380398319,
      "lon":-128.545744185,
      "province":"BC"
   },
   {
      "display_name":"Lakelse Lake Park",
      "lat":54.384722,
      "lon":-128.5375,
      "province":"BC"
   },
   {
      "display_name":"Lakelse Lake Wetlands Park",
      "lat":54.3361109999999,
      "lon":-128.586111,
      "province":"BC"
   },
   {
      "display_name":"Lang Bay",
      "lat":49.779184198,
      "lon":-124.345664724999,
      "province":"BC"
   },
   {
      "display_name":"Langdale",
      "lat":49.434078407,
      "lon":-123.476523837999,
      "province":"BC"
   },
   {
      "display_name":"Langford",
      "lat":48.456602013,
      "lon":-123.497418751999,
      "province":"BC"
   },
   {
      "display_name":"Langley",
      "lat":49.103780075,
      "lon":-122.658836652999,
      "province":"BC"
   },
   {
      "display_name":"Lantzville",
      "lat":49.25320537,
      "lon":-124.081747348999,
      "province":"BC"
   },
   {
      "display_name":"Lardeau",
      "lat":50.143018644,
      "lon":-116.955940573999,
      "province":"BC"
   },
   {
      "display_name":"Lasqueti",
      "lat":49.491821755,
      "lon":-124.346824052999,
      "province":"BC"
   },
   {
      "display_name":"È½ÃUËWELá¹EWÌ± / John Dean Park",
      "lat":48.6152779999999,
      "lon":-123.447778,
      "province":"BC"
   },
   {
      "display_name":"Lava Forks Park",
      "lat":56.440278,
      "lon":-130.902778,
      "province":"BC"
   },
   {
      "display_name":"Lavington",
      "lat":50.231285805,
      "lon":-119.106646118999,
      "province":"BC"
   },
   {
      "display_name":"Lawn Point Park",
      "lat":50.3375,
      "lon":-127.973611,
      "province":"BC"
   },
   {
      "display_name":"Lawnhill",
      "lat":53.403576166,
      "lon":-131.922225489999,
      "province":"BC"
   },
   {
      "display_name":"Lax Kw'alaams",
      "lat":54.5499999,
      "lon":-130.433299899999,
      "province":"BC"
   },
   {
      "display_name":"Laxgalts'ap",
      "lat":55.0306,
      "lon":-129.575,
      "province":"BC"
   },
   {
      "display_name":"Lazo",
      "lat":49.713894661,
      "lon":-124.909115773999,
      "province":"BC"
   },
   {
      "display_name":"Lee Creek",
      "lat":50.90783263,
      "lon":-119.534093407999,
      "province":"BC"
   },
   {
      "display_name":"Lemoray",
      "lat":55.5388999,
      "lon":-122.483299899999,
      "province":"BC"
   },
   {
      "display_name":"Leo Creek",
      "lat":55.0833,
      "lon":-125.566699899999,
      "province":"BC"
   },
   {
      "display_name":"Liard River",
      "lat":59.4166999,
      "lon":-126.083299899999,
      "province":"BC"
   },
   {
      "display_name":"Liard River Corridor Park",
      "lat":59.3,
      "lon":-125.383333,
      "province":"BC"
   },
   {
      "display_name":"Liard River Hot Springs Park",
      "lat":59.425,
      "lon":-126.094444,
      "province":"BC"
   },
   {
      "display_name":"Liard River West Corridor Park",
      "lat":59.433333,
      "lon":-125.933333,
      "province":"BC"
   },
   {
      "display_name":"Lighthouse Point",
      "lat":48.868675877,
      "lon":-123.284055963999,
      "province":"BC"
   },
   {
      "display_name":"Likely",
      "lat":52.618678897,
      "lon":-121.564712361999,
      "province":"BC"
   },
   {
      "display_name":"Lillooet",
      "lat":50.694058436,
      "lon":-121.938662025999,
      "province":"BC"
   },
   {
      "display_name":"Lindell Beach",
      "lat":49.0333,
      "lon":-122.016699999999,
      "province":"BC"
   },
   {
      "display_name":"Lions Bay",
      "lat":49.459059265,
      "lon":-123.236101373999,
      "province":"BC"
   },
   {
      "display_name":"Lister",
      "lat":49.050087376,
      "lon":-116.466576529999,
      "province":"BC"
   },
   {
      "display_name":"Little Fort",
      "lat":51.424855489,
      "lon":-120.206930335999,
      "province":"BC"
   },
   {
      "display_name":"Little Qualicum Falls Park",
      "lat":49.297222,
      "lon":-124.579167,
      "province":"BC"
   },
   {
      "display_name":"Little River",
      "lat":49.737700197,
      "lon":-124.914062150999,
      "province":"BC"
   },
   {
      "display_name":"Lockhart Beach Park",
      "lat":49.5091669999999,
      "lon":-116.787222,
      "province":"BC"
   },
   {
      "display_name":"Lockhart Creek Park",
      "lat":49.502778,
      "lon":-116.709722,
      "province":"BC"
   },
   {
      "display_name":"Logan Lake",
      "lat":50.491255665,
      "lon":-120.813030489999,
      "province":"BC"
   },
   {
      "display_name":"Lone Butte",
      "lat":51.557890277,
      "lon":-121.216015242999,
      "province":"BC"
   },
   {
      "display_name":"Long Creek Park",
      "lat":52.697222,
      "lon":-121.030554999999,
      "province":"BC"
   },
   {
      "display_name":"Loon Lake",
      "lat":51.0832999,
      "lon":-121.299999998999,
      "province":"BC"
   },
   {
      "display_name":"Loon Lake Park",
      "lat":51.105278,
      "lon":-121.257778,
      "province":"BC"
   },
   {
      "display_name":"Loos",
      "lat":53.599693236,
      "lon":-120.704865521999,
      "province":"BC"
   },
   {
      "display_name":"Louis Creek",
      "lat":51.140109148,
      "lon":-120.121610679999,
      "province":"BC"
   },
   {
      "display_name":"Loveland Bay Park",
      "lat":50.051667,
      "lon":-125.447778,
      "province":"BC"
   },
   {
      "display_name":"Lower Nicola",
      "lat":50.159696179,
      "lon":-120.87830297,
      "province":"BC"
   },
   {
      "display_name":"Lower Nimpkish Park",
      "lat":50.5374999999999,
      "lon":-127.011111,
      "province":"BC"
   },
   {
      "display_name":"Lower Post",
      "lat":59.924941876,
      "lon":-128.485982958999,
      "province":"BC"
   },
   {
      "display_name":"Lower Skeena River Park",
      "lat":54.285278,
      "lon":-129.394722,
      "province":"BC"
   },
   {
      "display_name":"Lower Tsitika River Park",
      "lat":50.458333,
      "lon":-126.588889,
      "province":"BC"
   },
   {
      "display_name":"Lumberton",
      "lat":49.41657697,
      "lon":-115.868276957999,
      "province":"BC"
   },
   {
      "display_name":"Lumby",
      "lat":50.2499999,
      "lon":-118.966699998999,
      "province":"BC"
   },
   {
      "display_name":"Lund",
      "lat":49.981774067,
      "lon":-124.756873114999,
      "province":"BC"
   },
   {
      "display_name":"Lynn Valley",
      "lat":49.341643227,
      "lon":-123.032817194999,
      "province":"BC"
   },
   {
      "display_name":"Lytton",
      "lat":50.231566237,
      "lon":-121.582555768999,
      "province":"BC"
   },
   {
      "display_name":"Mabel Lake Park",
      "lat":50.458333,
      "lon":-118.725,
      "province":"BC"
   },
   {
      "display_name":"Mackenzie",
      "lat":55.335319911,
      "lon":-123.096365134999,
      "province":"BC"
   },
   {
      "display_name":"MacMillan Park",
      "lat":49.2847219999999,
      "lon":-124.67,
      "province":"BC"
   },
   {
      "display_name":"Macoah",
      "lat":48.995917405,
      "lon":-125.379407851999,
      "province":"BC"
   },
   {
      "display_name":"Madeira Park",
      "lat":49.615729485,
      "lon":-124.019743424999,
      "province":"BC"
   },
   {
      "display_name":"Magna Bay",
      "lat":50.961837001,
      "lon":-119.283580784999,
      "province":"BC"
   },
   {
      "display_name":"Mahatta River",
      "lat":50.458596057,
      "lon":-127.797819398999,
      "province":"BC"
   },
   {
      "display_name":"Mahood Falls",
      "lat":51.842634454,
      "lon":-120.639334212,
      "province":"BC"
   },
   {
      "display_name":"Main Lake Park",
      "lat":50.2111109999999,
      "lon":-125.216667,
      "province":"BC"
   },
   {
      "display_name":"Malahat",
      "lat":48.5480555,
      "lon":-123.565277699999,
      "province":"BC"
   },
   {
      "display_name":"Malakwa",
      "lat":50.939950957,
      "lon":-118.788804741999,
      "province":"BC"
   },
   {
      "display_name":"Malaspina Park",
      "lat":50.040278,
      "lon":-124.775,
      "province":"BC"
   },
   {
      "display_name":"Malibu",
      "lat":50.16809058,
      "lon":-123.851752339999,
      "province":"BC"
   },
   {
      "display_name":"Manning Park",
      "lat":49.066794899,
      "lon":-120.781559250999,
      "province":"BC"
   },
   {
      "display_name":"Manson Creek",
      "lat":55.6666999,
      "lon":-124.483300000999,
      "province":"BC"
   },
   {
      "display_name":"Mansons Landing",
      "lat":50.058143558,
      "lon":-124.979573572999,
      "province":"BC"
   },
   {
      "display_name":"Mapes",
      "lat":53.8832999,
      "lon":-123.866699900999,
      "province":"BC"
   },
   {
      "display_name":"Maple Bay",
      "lat":48.815828165,
      "lon":-123.612914465999,
      "province":"BC"
   },
   {
      "display_name":"Maple Ridge",
      "lat":49.217407479,
      "lon":-122.597946091999,
      "province":"BC"
   },
   {
      "display_name":"Mara",
      "lat":50.685283561,
      "lon":-119.067452315999,
      "province":"BC"
   },
   {
      "display_name":"Mara Meadows Park",
      "lat":50.7008329999999,
      "lon":-119.105832999999,
      "province":"BC"
   },
   {
      "display_name":"Mara Park",
      "lat":50.7241669999999,
      "lon":-119.034444,
      "province":"BC"
   },
   {
      "display_name":"Marble Canyon Park",
      "lat":50.8669439999999,
      "lon":-121.717778,
      "province":"BC"
   },
   {
      "display_name":"Marble Range Park",
      "lat":51.1916669999999,
      "lon":-121.833333,
      "province":"BC"
   },
   {
      "display_name":"Marble River Park",
      "lat":50.5416669999999,
      "lon":-127.526389,
      "province":"BC"
   },
   {
      "display_name":"Marilla",
      "lat":53.6999999,
      "lon":-125.849999999999,
      "province":"BC"
   },
   {
      "display_name":"Marktosis",
      "lat":49.278611171,
      "lon":-126.057578740999,
      "province":"BC"
   },
   {
      "display_name":"Marl Creek Park",
      "lat":51.507222,
      "lon":-117.201667,
      "province":"BC"
   },
   {
      "display_name":"Marshall School Junction",
      "lat":49.7110999,
      "lon":-124.508599999999,
      "province":"BC"
   },
   {
      "display_name":"Martha Creek Park",
      "lat":51.148889,
      "lon":-118.2025,
      "province":"BC"
   },
   {
      "display_name":"Martin Prairie",
      "lat":50.66237291,
      "lon":-119.811827116999,
      "province":"BC"
   },
   {
      "display_name":"Marysville",
      "lat":49.633200591,
      "lon":-115.950507887999,
      "province":"BC"
   },
   {
      "display_name":"Masset",
      "lat":54.017406035,
      "lon":-132.146600142999,
      "province":"BC"
   },
   {
      "display_name":"Matilpi",
      "lat":50.549400907,
      "lon":-126.184324819999,
      "province":"BC"
   },
   {
      "display_name":"Matsqui",
      "lat":49.1082999,
      "lon":-122.291699899999,
      "province":"BC"
   },
   {
      "display_name":"Maxhamish Lake Park",
      "lat":59.840278,
      "lon":-123.345833,
      "province":"BC"
   },
   {
      "display_name":"Mayne Island",
      "lat":48.8501085,
      "lon":-123.296974955999,
      "province":"BC"
   },
   {
      "display_name":"Mayook",
      "lat":49.482907113,
      "lon":-115.566645893999,
      "province":"BC"
   },
   {
      "display_name":"McBride",
      "lat":53.2999999,
      "lon":-120.166699899999,
      "province":"BC"
   },
   {
      "display_name":"McConnell Lake Park",
      "lat":50.523333,
      "lon":-120.463056,
      "province":"BC"
   },
   {
      "display_name":"McCulloch",
      "lat":49.79475565,
      "lon":-119.190208198999,
      "province":"BC"
   },
   {
      "display_name":"McDame",
      "lat":59.185586039,
      "lon":-129.225150779999,
      "province":"BC"
   },
   {
      "display_name":"McDonald Creek Park",
      "lat":50.1402779999999,
      "lon":-117.816667,
      "province":"BC"
   },
   {
      "display_name":"McDonalds Landing",
      "lat":54.0,
      "lon":-126.033299999999,
      "province":"BC"
   },
   {
      "display_name":"McKearney Ranch",
      "lat":56.6332999,
      "lon":-122.466699999999,
      "province":"BC"
   },
   {
      "display_name":"McLeese Lake",
      "lat":52.413658949,
      "lon":-122.296209365999,
      "province":"BC"
   },
   {
      "display_name":"McLeod Lake",
      "lat":54.984990393,
      "lon":-123.046764563999,
      "province":"BC"
   },
   {
      "display_name":"McLure",
      "lat":51.053898789,
      "lon":-120.224548968999,
      "province":"BC"
   },
   {
      "display_name":"Meachen",
      "lat":49.617288807,
      "lon":-116.266546621999,
      "province":"BC"
   },
   {
      "display_name":"Meadow Creek",
      "lat":50.247047213,
      "lon":-116.973177252999,
      "province":"BC"
   },
   {
      "display_name":"Meadows (Kootenay Land District)",
      "lat":49.187085711,
      "lon":-117.394840866999,
      "province":"BC"
   },
   {
      "display_name":"Mehatl Creek Park",
      "lat":50.0638889999999,
      "lon":-122.061111,
      "province":"BC"
   },
   {
      "display_name":"Memory Island Park",
      "lat":48.611667,
      "lon":-123.633611,
      "province":"BC"
   },
   {
      "display_name":"Merritt",
      "lat":50.111408296,
      "lon":-120.789691209999,
      "province":"BC"
   },
   {
      "display_name":"Merville",
      "lat":49.78483689,
      "lon":-125.057337047999,
      "province":"BC"
   },
   {
      "display_name":"Mesachie Lake",
      "lat":48.812434275,
      "lon":-124.124744551999,
      "province":"BC"
   },
   {
      "display_name":"Metchosin",
      "lat":48.375648775,
      "lon":-123.529048173999,
      "province":"BC"
   },
   {
      "display_name":"Metlakatla",
      "lat":54.337453266,
      "lon":-130.442961906999,
      "province":"BC"
   },
   {
      "display_name":"Meziadin Junction",
      "lat":56.09967465,
      "lon":-129.304735132999,
      "province":"BC"
   },
   {
      "display_name":"Meziadin Lake Park",
      "lat":56.0875,
      "lon":-129.301944,
      "province":"BC"
   },
   {
      "display_name":"Mica Creek",
      "lat":52.008166516,
      "lon":-118.564836752999,
      "province":"BC"
   },
   {
      "display_name":"Middle River",
      "lat":54.876138135,
      "lon":-125.129787435999,
      "province":"BC"
   },
   {
      "display_name":"Midway",
      "lat":49.007135429,
      "lon":-118.773048846999,
      "province":"BC"
   },
   {
      "display_name":"Mile 62 1/2",
      "lat":56.408379253,
      "lon":-121.157300692999,
      "province":"BC"
   },
   {
      "display_name":"Mill Bay (Shawnigan Land District)",
      "lat":48.64490607,
      "lon":-123.556163005999,
      "province":"BC"
   },
   {
      "display_name":"Milligan Hills Park",
      "lat":57.4930559999999,
      "lon":-120.230556,
      "province":"BC"
   },
   {
      "display_name":"Minstrel Island",
      "lat":50.615391477,
      "lon":-126.307809362999,
      "province":"BC"
   },
   {
      "display_name":"Miocene",
      "lat":52.250329786,
      "lon":-121.771385303999,
      "province":"BC"
   },
   {
      "display_name":"Miracle Beach Park",
      "lat":49.849444,
      "lon":-125.098333,
      "province":"BC"
   },
   {
      "display_name":"Mirror Lake",
      "lat":49.882899096,
      "lon":-116.901730075999,
      "province":"BC"
   },
   {
      "display_name":"Mission",
      "lat":49.137610797,
      "lon":-122.303695325999,
      "province":"BC"
   },
   {
      "display_name":"Mitchell Bay",
      "lat":50.6332999,
      "lon":-126.849999900999,
      "province":"BC"
   },
   {
      "display_name":"Mitlenatch Island Nature Park",
      "lat":49.952222,
      "lon":-125.007222,
      "province":"BC"
   },
   {
      "display_name":"Miworth",
      "lat":53.939851131,
      "lon":-122.949122221999,
      "province":"BC"
   },
   {
      "display_name":"Moberly Lake",
      "lat":55.833344891,
      "lon":-121.758464240999,
      "province":"BC"
   },
   {
      "display_name":"Moberly Lake Park",
      "lat":55.808333,
      "lon":-121.695,
      "province":"BC"
   },
   {
      "display_name":"Moha",
      "lat":50.872271706,
      "lon":-122.169492020999,
      "province":"BC"
   },
   {
      "display_name":"Momich Lakes Park",
      "lat":51.329167,
      "lon":-119.358333,
      "province":"BC"
   },
   {
      "display_name":"Monashee Park",
      "lat":50.5416669999999,
      "lon":-118.266667,
      "province":"BC"
   },
   {
      "display_name":"Monck Park",
      "lat":50.177222,
      "lon":-120.537778,
      "province":"BC"
   },
   {
      "display_name":"Monkman Park",
      "lat":54.5666669999999,
      "lon":-121.1875,
      "province":"BC"
   },
   {
      "display_name":"Monte Creek",
      "lat":50.648739637,
      "lon":-119.958111489999,
      "province":"BC"
   },
   {
      "display_name":"Monte Creek Park",
      "lat":50.65,
      "lon":-119.947222,
      "province":"BC"
   },
   {
      "display_name":"Monte Lake",
      "lat":50.525428951,
      "lon":-119.832450650999,
      "province":"BC"
   },
   {
      "display_name":"Monte Lake Park",
      "lat":50.5005559999999,
      "lon":-119.831944,
      "province":"BC"
   },
   {
      "display_name":"Montney",
      "lat":56.450304636,
      "lon":-120.926492558999,
      "province":"BC"
   },
   {
      "display_name":"Montrose",
      "lat":49.07878724,
      "lon":-117.590691898999,
      "province":"BC"
   },
   {
      "display_name":"Moose Valley Park",
      "lat":51.6513889999999,
      "lon":-121.651389,
      "province":"BC"
   },
   {
      "display_name":"Mooyah Bay",
      "lat":49.629531521,
      "lon":-126.458386981999,
      "province":"BC"
   },
   {
      "display_name":"Moresby Camp",
      "lat":53.047474391,
      "lon":-132.028868463999,
      "province":"BC"
   },
   {
      "display_name":"Morice Lake Park",
      "lat":53.966667,
      "lon":-127.65,
      "province":"BC"
   },
   {
      "display_name":"Moricetown",
      "lat":55.033980911,
      "lon":-127.331675648999,
      "province":"BC"
   },
   {
      "display_name":"Morrissey Park",
      "lat":49.390556,
      "lon":-115.017778,
      "province":"BC"
   },
   {
      "display_name":"Morton Lake Park",
      "lat":50.1255559999999,
      "lon":-125.484722,
      "province":"BC"
   },
   {
      "display_name":"Mount Assiniboine Park",
      "lat":50.944444,
      "lon":-115.741667,
      "province":"BC"
   },
   {
      "display_name":"Mount Baldy",
      "lat":49.1522219,
      "lon":-119.237499799999,
      "province":"BC"
   },
   {
      "display_name":"Mount Blanchet Park",
      "lat":55.2916669999999,
      "lon":-125.883333,
      "province":"BC"
   },
   {
      "display_name":"Mount Coulter",
      "lat":49.286389,
      "lon":-121.305556,
      "province":"BC"
   },
   {
      "display_name":"Mount Currie",
      "lat":50.314753973,
      "lon":-122.717992827999,
      "province":"BC"
   },
   {
      "display_name":"Mount Edziza Park",
      "lat":57.7333329999999,
      "lon":-130.733333,
      "province":"BC"
   },
   {
      "display_name":"Mount Elphinstone Park",
      "lat":49.4325,
      "lon":-123.6125,
      "province":"BC"
   },
   {
      "display_name":"Mount Erskine Park",
      "lat":48.850278,
      "lon":-123.551110999999,
      "province":"BC"
   },
   {
      "display_name":"Mount Fernie Park",
      "lat":49.489722,
      "lon":-115.102222,
      "province":"BC"
   },
   {
      "display_name":"Mount Geoffrey Escarpment Park",
      "lat":49.506944,
      "lon":-124.684444,
      "province":"BC"
   },
   {
      "display_name":"Mount Griffin Park",
      "lat":50.923889,
      "lon":-118.575278,
      "province":"BC"
   },
   {
      "display_name":"Mount Maxwell Park",
      "lat":48.804167,
      "lon":-123.515833,
      "province":"BC"
   },
   {
      "display_name":"Mount Pope Park",
      "lat":54.4938889999999,
      "lon":-124.341667,
      "province":"BC"
   },
   {
      "display_name":"Mount Revelstoke National Park of Canada",
      "lat":51.0999999999999,
      "lon":-118.06667,
      "province":"BC"
   },
   {
      "display_name":"Mount Richardson Park",
      "lat":49.568056,
      "lon":-123.761111,
      "province":"BC"
   },
   {
      "display_name":"Mount Robson",
      "lat":53.033447468,
      "lon":-119.234017718999,
      "province":"BC"
   },
   {
      "display_name":"Mount Robson Park",
      "lat":52.966667,
      "lon":-118.833333,
      "province":"BC"
   },
   {
      "display_name":"Mount Savona Park",
      "lat":50.694444,
      "lon":-120.8,
      "province":"BC"
   },
   {
      "display_name":"Mount Seymour Park",
      "lat":49.404167,
      "lon":-122.920833,
      "province":"BC"
   },
   {
      "display_name":"Mount Terry Fox Park",
      "lat":52.9449999999999,
      "lon":-119.258056,
      "province":"BC"
   },
   {
      "display_name":"Moyie",
      "lat":49.288788171,
      "lon":-115.831580805999,
      "province":"BC"
   },
   {
      "display_name":"Moyie Lake Park",
      "lat":49.3722219999999,
      "lon":-115.840278,
      "province":"BC"
   },
   {
      "display_name":"Mud Bay (Newcastle Land District)",
      "lat":49.4666999,
      "lon":-124.799999999999,
      "province":"BC"
   },
   {
      "display_name":"Mud Lake Delta Park",
      "lat":52.121667,
      "lon":-119.159722,
      "province":"BC"
   },
   {
      "display_name":"Mud River",
      "lat":53.761239128,
      "lon":-123.011877385999,
      "province":"BC"
   },
   {
      "display_name":"Mudzenchoot Park",
      "lat":55.038889,
      "lon":-124.441667,
      "province":"BC"
   },
   {
      "display_name":"Muncho Lake",
      "lat":58.9333,
      "lon":-125.766699899999,
      "province":"BC"
   },
   {
      "display_name":"Muncho Lake Park",
      "lat":58.958333,
      "lon":-125.743611,
      "province":"BC"
   },
   {
      "display_name":"Muqqiwn Park (Brooks Peninsula Park)",
      "lat":50.1999999999999,
      "lon":-127.63333,
      "province":"BC"
   },
   {
      "display_name":"Murrayville",
      "lat":49.083625275,
      "lon":-122.615929690999,
      "province":"BC"
   },
   {
      "display_name":"Murrin Park",
      "lat":49.6444439999999,
      "lon":-123.208333,
      "province":"BC"
   },
   {
      "display_name":"Muscovite Lakes Park",
      "lat":55.977778,
      "lon":-124.145833,
      "province":"BC"
   },
   {
      "display_name":"Musgrave Landing",
      "lat":48.751134411,
      "lon":-123.546437570999,
      "province":"BC"
   },
   {
      "display_name":"Myra-Bellevue Park",
      "lat":49.786111,
      "lon":-119.3875,
      "province":"BC"
   },
   {
      "display_name":"Myrtle Point",
      "lat":49.801186242,
      "lon":-124.480549871999,
      "province":"BC"
   },
   {
      "display_name":"Nadina Mountain Park",
      "lat":54.084722,
      "lon":-126.875,
      "province":"BC"
   },
   {
      "display_name":"Nahatlatch Park",
      "lat":49.9758329999999,
      "lon":-121.799167,
      "province":"BC"
   },
   {
      "display_name":"Nahun",
      "lat":50.0833,
      "lon":-119.499999899999,
      "province":"BC"
   },
   {
      "display_name":"Naikoon Park",
      "lat":53.8833329999999,
      "lon":-131.8625,
      "province":"BC"
   },
   {
      "display_name":"Nairn Falls Park",
      "lat":50.2958329999999,
      "lon":-122.8,
      "province":"BC"
   },
   {
      "display_name":"Nakusp",
      "lat":50.240647687,
      "lon":-117.802067895999,
      "province":"BC"
   },
   {
      "display_name":"Nalbeelah Creek Park",
      "lat":54.1444439999999,
      "lon":-128.576389,
      "province":"BC"
   },
   {
      "display_name":"Namu",
      "lat":51.861341699,
      "lon":-127.860425137999,
      "province":"BC"
   },
   {
      "display_name":"Nanaimo",
      "lat":49.165923637,
      "lon":-123.939147298999,
      "province":"BC"
   },
   {
      "display_name":"Nancy Greene Park",
      "lat":49.255278,
      "lon":-117.941667,
      "province":"BC"
   },
   {
      "display_name":"Nanoose Bay",
      "lat":49.2666999,
      "lon":-124.199999899999,
      "province":"BC"
   },
   {
      "display_name":"Naramata",
      "lat":49.594182501,
      "lon":-119.587072115999,
      "province":"BC"
   },
   {
      "display_name":"Nass Camp",
      "lat":55.288421961,
      "lon":-129.005622347999,
      "province":"BC"
   },
   {
      "display_name":"Nation Lakes Park",
      "lat":55.458333,
      "lon":-125.4,
      "province":"BC"
   },
   {
      "display_name":"Nazko",
      "lat":53.0,
      "lon":-123.616699899999,
      "province":"BC"
   },
   {
      "display_name":"Nazko Lake Park",
      "lat":52.4625,
      "lon":-123.533333,
      "province":"BC"
   },
   {
      "display_name":"Nelson",
      "lat":49.497478141,
      "lon":-117.282380154999,
      "province":"BC"
   },
   {
      "display_name":"Nelway",
      "lat":49.000000101,
      "lon":-117.284609356999,
      "province":"BC"
   },
   {
      "display_name":"Nemaiah Valley",
      "lat":51.483339523,
      "lon":-123.883333310999,
      "province":"BC"
   },
   {
      "display_name":"NeneikÃ«kh/Nanika-Kidprice Park",
      "lat":53.951389,
      "lon":-127.40833,
      "province":"BC"
   },
   {
      "display_name":"Netalzul Meadows Park",
      "lat":55.238889,
      "lon":-127.030555999999,
      "province":"BC"
   },
   {
      "display_name":"New Aiyansh",
      "lat":55.200273697,
      "lon":-129.072183157999,
      "province":"BC"
   },
   {
      "display_name":"New Brighton",
      "lat":49.45,
      "lon":-123.433299999999,
      "province":"BC"
   },
   {
      "display_name":"New Denver",
      "lat":49.9917,
      "lon":-117.373599999999,
      "province":"BC"
   },
   {
      "display_name":"New Hazelton",
      "lat":55.246598194,
      "lon":-127.585768512999,
      "province":"BC"
   },
   {
      "display_name":"New Westminster",
      "lat":49.2166999,
      "lon":-122.916699998999,
      "province":"BC"
   },
   {
      "display_name":"Niagara",
      "lat":49.100118284,
      "lon":-118.466733728999,
      "province":"BC"
   },
   {
      "display_name":"Nicholson",
      "lat":51.248100929,
      "lon":-116.901428467999,
      "province":"BC"
   },
   {
      "display_name":"Nickel Plate Park",
      "lat":49.4047219999999,
      "lon":-119.947778,
      "province":"BC"
   },
   {
      "display_name":"Nicolum River Park",
      "lat":49.363333,
      "lon":-121.343888999999,
      "province":"BC"
   },
   {
      "display_name":"Nilkitkwa Lake Park",
      "lat":55.4002779999999,
      "lon":-126.661944,
      "province":"BC"
   },
   {
      "display_name":"Nimpkish",
      "lat":50.3333,
      "lon":-126.916699899999,
      "province":"BC"
   },
   {
      "display_name":"Nimpkish Lake Park",
      "lat":50.3388889999999,
      "lon":-127.0,
      "province":"BC"
   },
   {
      "display_name":"Nimpo Lake",
      "lat":52.336387344,
      "lon":-125.140173815999,
      "province":"BC"
   },
   {
      "display_name":"Ningunsaw Park",
      "lat":56.8388889999999,
      "lon":-130.094444,
      "province":"BC"
   },
   {
      "display_name":"Niskonlith Lake Park",
      "lat":50.7958329999999,
      "lon":-119.77778,
      "province":"BC"
   },
   {
      "display_name":"Nitinat River Park",
      "lat":48.899722,
      "lon":-124.5625,
      "province":"BC"
   },
   {
      "display_name":"Nootka",
      "lat":49.62477558,
      "lon":-126.627196038999,
      "province":"BC"
   },
   {
      "display_name":"Noralee",
      "lat":53.9833,
      "lon":-126.433299999999,
      "province":"BC"
   },
   {
      "display_name":"Norbury Lake Park",
      "lat":49.5416669999999,
      "lon":-115.485556,
      "province":"BC"
   },
   {
      "display_name":"North Bend",
      "lat":49.8833,
      "lon":-121.449999900999,
      "province":"BC"
   },
   {
      "display_name":"North Cowichan",
      "lat":48.824722,
      "lon":-123.719721999999,
      "province":"BC"
   },
   {
      "display_name":"North Delta",
      "lat":49.154715214,
      "lon":-122.911400501999,
      "province":"BC"
   },
   {
      "display_name":"North Saanich",
      "lat":48.621723427,
      "lon":-123.421462945999,
      "province":"BC"
   },
   {
      "display_name":"North Thompson Islands Park",
      "lat":51.370833,
      "lon":-120.183056,
      "province":"BC"
   },
   {
      "display_name":"North Thompson Oxbows East Park",
      "lat":52.4816669999999,
      "lon":-119.244167,
      "province":"BC"
   },
   {
      "display_name":"North Thompson Oxbows Jensen Island Park",
      "lat":50.8722219999999,
      "lon":-120.283611,
      "province":"BC"
   },
   {
      "display_name":"North Thompson Oxbows Manteau Park",
      "lat":52.491667,
      "lon":-119.325,
      "province":"BC"
   },
   {
      "display_name":"North Thompson River Park",
      "lat":51.627778,
      "lon":-120.087222,
      "province":"BC"
   },
   {
      "display_name":"North Vancouver",
      "lat":49.314237021,
      "lon":-123.067198086999,
      "province":"BC"
   },
   {
      "display_name":"Northern Rockies Regional Municipality",
      "lat":58.803889,
      "lon":-122.706667,
      "province":"BC"
   },
   {
      "display_name":"Northern Rocky Mountains Park",
      "lat":58.1913889999999,
      "lon":-124.363610999999,
      "province":"BC"
   },
   {
      "display_name":"Notch Hill",
      "lat":50.852836241,
      "lon":-119.435111090999,
      "province":"BC"
   },
   {
      "display_name":"Nuchatlitz Park",
      "lat":49.8130559999999,
      "lon":-126.969444,
      "province":"BC"
   },
   {
      "display_name":"Nukko Lake",
      "lat":54.083299899,
      "lon":-122.983299999999,
      "province":"BC"
   },
   {
      "display_name":"Nulki",
      "lat":53.918487394,
      "lon":-124.196574401999,
      "province":"BC"
   },
   {
      "display_name":"Nuntsi Park",
      "lat":51.7430559999999,
      "lon":-123.784722,
      "province":"BC"
   },
   {
      "display_name":"Nuumaqimyis",
      "lat":48.8999999,
      "lon":-124.999999998999,
      "province":"BC"
   },
   {
      "display_name":"Oak Bay",
      "lat":48.430127881,
      "lon":-123.308907946999,
      "province":"BC"
   },
   {
      "display_name":"Ocean Falls",
      "lat":52.347208618,
      "lon":-127.688500077999,
      "province":"BC"
   },
   {
      "display_name":"Ocean Grove",
      "lat":49.952389708,
      "lon":-125.201526619999,
      "province":"BC"
   },
   {
      "display_name":"Ogden",
      "lat":50.777724976,
      "lon":-122.818591916999,
      "province":"BC"
   },
   {
      "display_name":"Okanagan Centre",
      "lat":50.0499999,
      "lon":-119.449999899999,
      "province":"BC"
   },
   {
      "display_name":"Okanagan Falls",
      "lat":49.342812025,
      "lon":-119.571233012999,
      "province":"BC"
   },
   {
      "display_name":"Okanagan Lake Park",
      "lat":49.6863889999999,
      "lon":-119.726944,
      "province":"BC"
   },
   {
      "display_name":"Okanagan Mission",
      "lat":49.8166999,
      "lon":-119.483299999999,
      "province":"BC"
   },
   {
      "display_name":"Okanagan Mountain Park",
      "lat":49.7283329999999,
      "lon":-119.639167,
      "province":"BC"
   },
   {
      "display_name":"Okeover Arm Park",
      "lat":49.992222,
      "lon":-124.715,
      "province":"BC"
   },
   {
      "display_name":"Olalla",
      "lat":49.263407373,
      "lon":-119.829031005999,
      "province":"BC"
   },
   {
      "display_name":"Old Fort (Cassiar Land District)",
      "lat":55.039264993,
      "lon":-126.316125971999,
      "province":"BC"
   },
   {
      "display_name":"Old Fort (Peace River Land District)",
      "lat":56.202176154,
      "lon":-120.823270987999,
      "province":"BC"
   },
   {
      "display_name":"Old Man Lake Park",
      "lat":54.411111,
      "lon":-126.402222,
      "province":"BC"
   },
   {
      "display_name":"Old Massett",
      "lat":54.041759776,
      "lon":-132.184121155999,
      "province":"BC"
   },
   {
      "display_name":"Old Town",
      "lat":49.5499999,
      "lon":-115.966700000999,
      "province":"BC"
   },
   {
      "display_name":"Oliver",
      "lat":49.182582964,
      "lon":-119.552691673999,
      "province":"BC"
   },
   {
      "display_name":"Oliver's Landing",
      "lat":49.5832999,
      "lon":-123.220799998999,
      "province":"BC"
   },
   {
      "display_name":"Omineca Park",
      "lat":55.8722219999999,
      "lon":-124.595833,
      "province":"BC"
   },
   {
      "display_name":"One Island Lake Park",
      "lat":55.305833,
      "lon":-120.279167,
      "province":"BC"
   },
   {
      "display_name":"Oona River",
      "lat":53.946875242,
      "lon":-130.255822369,
      "province":"BC"
   },
   {
      "display_name":"Ootischenia",
      "lat":49.289780988,
      "lon":-117.620172710999,
      "province":"BC"
   },
   {
      "display_name":"Ootsa Lake",
      "lat":53.80676956,
      "lon":-126.041852007999,
      "province":"BC"
   },
   {
      "display_name":"Opitsat",
      "lat":49.175126256,
      "lon":-125.911822831999,
      "province":"BC"
   },
   {
      "display_name":"Oregana Creek Park",
      "lat":51.9861109999999,
      "lon":-119.085555,
      "province":"BC"
   },
   {
      "display_name":"Oregon Jack Park",
      "lat":50.6244443999999,
      "lon":-121.4961111,
      "province":"BC"
   },
   {
      "display_name":"Osborn",
      "lat":56.6041999,
      "lon":-120.377800000999,
      "province":"BC"
   },
   {
      "display_name":"Osland",
      "lat":54.1332999,
      "lon":-130.166699899999,
      "province":"BC"
   },
   {
      "display_name":"Osoyoos",
      "lat":49.03109596,
      "lon":-119.464803451999,
      "province":"BC"
   },
   {
      "display_name":"Otter Lake Park",
      "lat":49.5869439999999,
      "lon":-120.774167,
      "province":"BC"
   },
   {
      "display_name":"Oweekeno",
      "lat":51.68051377,
      "lon":-127.225324196999,
      "province":"BC"
   },
   {
      "display_name":"Owen Bay",
      "lat":50.31687911,
      "lon":-125.214115299999,
      "province":"BC"
   },
   {
      "display_name":"Owyacumish River Park",
      "lat":53.531667,
      "lon":-128.435,
      "province":"BC"
   },
   {
      "display_name":"Oyama",
      "lat":50.111075343,
      "lon":-119.367611136,
      "province":"BC"
   },
   {
      "display_name":"Oyster River",
      "lat":49.873750052,
      "lon":-125.129063657999,
      "province":"BC"
   },
   {
      "display_name":"Paarens Beach Park",
      "lat":54.418611,
      "lon":-124.381667,
      "province":"BC"
   },
   {
      "display_name":"Pacific Rim National Park Reserve of Canada",
      "lat":48.9833329999999,
      "lon":-125.666666999999,
      "province":"BC"
   },
   {
      "display_name":"Painted Bluffs Park",
      "lat":50.7969439999999,
      "lon":-120.744722,
      "province":"BC"
   },
   {
      "display_name":"Panorama",
      "lat":50.4583333,
      "lon":-116.237499899999,
      "province":"BC"
   },
   {
      "display_name":"Park Siding",
      "lat":49.166666667,
      "lon":-117.500000000999,
      "province":"BC"
   },
   {
      "display_name":"Parksville",
      "lat":49.322695461,
      "lon":-124.326658816999,
      "province":"BC"
   },
   {
      "display_name":"Parson",
      "lat":51.073945367,
      "lon":-116.632950947999,
      "province":"BC"
   },
   {
      "display_name":"Paterson",
      "lat":49.00098995,
      "lon":-117.835244405999,
      "province":"BC"
   },
   {
      "display_name":"Patterson Lake Park",
      "lat":51.8791669999999,
      "lon":-124.655554999999,
      "province":"BC"
   },
   {
      "display_name":"Paul Lake Park",
      "lat":50.741667,
      "lon":-120.129167,
      "province":"BC"
   },
   {
      "display_name":"Peace Arch Park",
      "lat":49.0047219999999,
      "lon":-122.759166999999,
      "province":"BC"
   },
   {
      "display_name":"Peace River Corridor Park",
      "lat":56.102778,
      "lon":-120.222222,
      "province":"BC"
   },
   {
      "display_name":"Peachland",
      "lat":49.778637457,
      "lon":-119.736108469999,
      "province":"BC"
   },
   {
      "display_name":"Peejay",
      "lat":56.8832999,
      "lon":-120.616699899999,
      "province":"BC"
   },
   {
      "display_name":"Pemberton",
      "lat":50.3166999,
      "lon":-122.799999998999,
      "province":"BC"
   },
   {
      "display_name":"Pemberton Meadows",
      "lat":50.4417,
      "lon":-122.916699999999,
      "province":"BC"
   },
   {
      "display_name":"Pendleton Bay",
      "lat":54.5167,
      "lon":-125.716699999999,
      "province":"BC"
   },
   {
      "display_name":"Pennask Creek Park",
      "lat":49.9416669999999,
      "lon":-120.109722,
      "province":"BC"
   },
   {
      "display_name":"Pennask Lake Park",
      "lat":49.9875,
      "lon":-120.101389,
      "province":"BC"
   },
   {
      "display_name":"Penny",
      "lat":53.847404952,
      "lon":-121.283521493999,
      "province":"BC"
   },
   {
      "display_name":"Penticton",
      "lat":49.482157081,
      "lon":-119.584948140999,
      "province":"BC"
   },
   {
      "display_name":"Perow",
      "lat":54.520179751,
      "lon":-126.440458644999,
      "province":"BC"
   },
   {
      "display_name":"Petroglyph Park",
      "lat":49.1411109999999,
      "lon":-123.926943999999,
      "province":"BC"
   },
   {
      "display_name":"Phillips Arm",
      "lat":50.550053747,
      "lon":-125.349424807999,
      "province":"BC"
   },
   {
      "display_name":"Pillar Park",
      "lat":50.5894439999999,
      "lon":-119.6325,
      "province":"BC"
   },
   {
      "display_name":"Pilot Bay Park",
      "lat":49.641389,
      "lon":-116.865,
      "province":"BC"
   },
   {
      "display_name":"Pinantan Lake",
      "lat":50.726422692,
      "lon":-120.036216870999,
      "province":"BC"
   },
   {
      "display_name":"Pinchi",
      "lat":54.570594017,
      "lon":-124.493299322999,
      "province":"BC"
   },
   {
      "display_name":"Pinchi Lake",
      "lat":54.627150158,
      "lon":-124.404204450999,
      "province":"BC"
   },
   {
      "display_name":"Pine Le Moray Park",
      "lat":55.4072219999999,
      "lon":-122.515556,
      "province":"BC"
   },
   {
      "display_name":"Pine River Breaks Park",
      "lat":55.691944,
      "lon":-121.370833,
      "province":"BC"
   },
   {
      "display_name":"Pine Valley (Cariboo Land District)",
      "lat":52.175254716,
      "lon":-122.089670698999,
      "province":"BC"
   },
   {
      "display_name":"Pine Valley (Peace River Land District)",
      "lat":55.636061543,
      "lon":-122.114867371999,
      "province":"BC"
   },
   {
      "display_name":"Pinecone Burke Park",
      "lat":49.529167,
      "lon":-122.691667,
      "province":"BC"
   },
   {
      "display_name":"Pineview (Cariboo Land District)",
      "lat":53.836663384,
      "lon":-122.657690535999,
      "province":"BC"
   },
   {
      "display_name":"Pink Mountain",
      "lat":57.035654039,
      "lon":-122.507348294999,
      "province":"BC"
   },
   {
      "display_name":"Pink Mountain Park",
      "lat":57.070556,
      "lon":-122.883333,
      "province":"BC"
   },
   {
      "display_name":"Pinnacles Park",
      "lat":52.980278,
      "lon":-122.562221999999,
      "province":"BC"
   },
   {
      "display_name":"Pitt Meadows",
      "lat":49.217152272,
      "lon":-122.686295535999,
      "province":"BC"
   },
   {
      "display_name":"Pleasantside",
      "lat":49.293414256,
      "lon":-122.847407350999,
      "province":"BC"
   },
   {
      "display_name":"Pope Landing",
      "lat":49.614543228,
      "lon":-124.048368980999,
      "province":"BC"
   },
   {
      "display_name":"Popkum",
      "lat":49.200376635,
      "lon":-121.733455591999,
      "province":"BC"
   },
   {
      "display_name":"Porcher Island",
      "lat":54.086717973,
      "lon":-130.392354319,
      "province":"BC"
   },
   {
      "display_name":"Porcupine Meadows Park",
      "lat":50.983889,
      "lon":-120.536111,
      "province":"BC"
   },
   {
      "display_name":"Porpoise Bay Park",
      "lat":49.5074999999999,
      "lon":-123.749167,
      "province":"BC"
   },
   {
      "display_name":"Port Alberni",
      "lat":49.2416999,
      "lon":-124.799999999999,
      "province":"BC"
   },
   {
      "display_name":"Port Alice",
      "lat":50.3832999,
      "lon":-127.449999899999,
      "province":"BC"
   },
   {
      "display_name":"Port Clements",
      "lat":53.685201503,
      "lon":-132.178756146999,
      "province":"BC"
   },
   {
      "display_name":"Port Coquitlam",
      "lat":49.256679895,
      "lon":-122.761660120999,
      "province":"BC"
   },
   {
      "display_name":"Port Edward",
      "lat":54.222427922,
      "lon":-130.288054953999,
      "province":"BC"
   },
   {
      "display_name":"Port Hardy",
      "lat":50.718889431,
      "lon":-127.506635642999,
      "province":"BC"
   },
   {
      "display_name":"Port McNeill",
      "lat":50.585994725,
      "lon":-127.079118435999,
      "province":"BC"
   },
   {
      "display_name":"Port Moody",
      "lat":49.278646553,
      "lon":-122.867625272999,
      "province":"BC"
   },
   {
      "display_name":"Port Neville",
      "lat":50.499336967,
      "lon":-126.081260828999,
      "province":"BC"
   },
   {
      "display_name":"Port Renfrew",
      "lat":48.557440366,
      "lon":-124.404856680999,
      "province":"BC"
   },
   {
      "display_name":"Port Washington",
      "lat":48.816602556,
      "lon":-123.321190598999,
      "province":"BC"
   },
   {
      "display_name":"Powell River",
      "lat":49.871999556,
      "lon":-124.546496500999,
      "province":"BC"
   },
   {
      "display_name":"Premier Lake",
      "lat":49.950091621,
      "lon":-115.649792591999,
      "province":"BC"
   },
   {
      "display_name":"Premier Lake Park",
      "lat":49.918056,
      "lon":-115.643333,
      "province":"BC"
   },
   {
      "display_name":"Prespatou",
      "lat":56.922264317,
      "lon":-121.062580300999,
      "province":"BC"
   },
   {
      "display_name":"Prince George",
      "lat":53.911581606,
      "lon":-122.775660318999,
      "province":"BC"
   },
   {
      "display_name":"Prince Rupert",
      "lat":54.315031049,
      "lon":-130.315415932999,
      "province":"BC"
   },
   {
      "display_name":"Princeton",
      "lat":49.45240047,
      "lon":-120.514190582999,
      "province":"BC"
   },
   {
      "display_name":"Pritchard",
      "lat":50.685138362,
      "lon":-119.812185298999,
      "province":"BC"
   },
   {
      "display_name":"Pritchard Park",
      "lat":50.684167,
      "lon":-119.833333,
      "province":"BC"
   },
   {
      "display_name":"Procter",
      "lat":49.615577746,
      "lon":-116.955820140999,
      "province":"BC"
   },
   {
      "display_name":"Progress",
      "lat":55.781706476,
      "lon":-120.716192745999,
      "province":"BC"
   },
   {
      "display_name":"Promontory",
      "lat":49.099868549,
      "lon":-121.933236349999,
      "province":"BC"
   },
   {
      "display_name":"Prophet River",
      "lat":58.094293029,
      "lon":-122.709659863999,
      "province":"BC"
   },
   {
      "display_name":"Prophet River Hot Springs Park",
      "lat":57.6530559999999,
      "lon":-124.026111,
      "province":"BC"
   },
   {
      "display_name":"Prophet River Wayside Park",
      "lat":57.976111,
      "lon":-122.778055999999,
      "province":"BC"
   },
   {
      "display_name":"Prudhomme Lake Park",
      "lat":54.241389,
      "lon":-130.133333,
      "province":"BC"
   },
   {
      "display_name":"Ptarmigan Creek Park",
      "lat":53.4927778,
      "lon":-120.8897222,
      "province":"BC"
   },
   {
      "display_name":"Pukeashun Park",
      "lat":51.194722,
      "lon":-119.260278,
      "province":"BC"
   },
   {
      "display_name":"Punchaw",
      "lat":53.430648465,
      "lon":-123.18240877,
      "province":"BC"
   },
   {
      "display_name":"Puntchesakut Lake Park",
      "lat":52.983889,
      "lon":-122.940556,
      "province":"BC"
   },
   {
      "display_name":"Punti Island Park",
      "lat":52.2077779999999,
      "lon":-123.911389,
      "province":"BC"
   },
   {
      "display_name":"Purcell Wilderness Conservancy Park",
      "lat":50.15,
      "lon":-116.533333,
      "province":"BC"
   },
   {
      "display_name":"Purden Lake Park",
      "lat":53.929167,
      "lon":-121.911389,
      "province":"BC"
   },
   {
      "display_name":"Pure Lake Park",
      "lat":53.867222,
      "lon":-132.085,
      "province":"BC"
   },
   {
      "display_name":"Pyramid Creek Falls Park",
      "lat":52.356389,
      "lon":-119.166389,
      "province":"BC"
   },
   {
      "display_name":"Qualicum Bay",
      "lat":49.404523233,
      "lon":-124.632782312999,
      "province":"BC"
   },
   {
      "display_name":"Qualicum Beach",
      "lat":49.347533754,
      "lon":-124.442358843999,
      "province":"BC"
   },
   {
      "display_name":"Quathiaski Cove",
      "lat":50.045420584,
      "lon":-125.210342848999,
      "province":"BC"
   },
   {
      "display_name":"Quatsino",
      "lat":50.535720636,
      "lon":-127.652140993999,
      "province":"BC"
   },
   {
      "display_name":"Quatsino Park",
      "lat":50.494167,
      "lon":-127.817778,
      "province":"BC"
   },
   {
      "display_name":"Queens Cove",
      "lat":49.8833,
      "lon":-126.983299898999,
      "province":"BC"
   },
   {
      "display_name":"Quesnel",
      "lat":52.980551153,
      "lon":-122.504289336999,
      "province":"BC"
   },
   {
      "display_name":"Quesnel Forks",
      "lat":52.656394695,
      "lon":-121.662563758999,
      "province":"BC"
   },
   {
      "display_name":"Quesnel Lake Park",
      "lat":52.4638889999999,
      "lon":-121.211111,
      "province":"BC"
   },
   {
      "display_name":"Radium Hot Springs",
      "lat":50.617363683,
      "lon":-116.077715794999,
      "province":"BC"
   },
   {
      "display_name":"Raft Cove Park",
      "lat":50.586389,
      "lon":-128.236944,
      "province":"BC"
   },
   {
      "display_name":"Rainbow / Q'iwentem Park",
      "lat":51.6291669999999,
      "lon":-120.797222,
      "province":"BC"
   },
   {
      "display_name":"Rainbow Alley Park",
      "lat":55.3352779999999,
      "lon":-126.640833,
      "province":"BC"
   },
   {
      "display_name":"Ranchero",
      "lat":50.65704452,
      "lon":-119.198329194999,
      "province":"BC"
   },
   {
      "display_name":"Raspberry",
      "lat":49.335768365,
      "lon":-117.657419791999,
      "province":"BC"
   },
   {
      "display_name":"Rathtrevor Beach Park",
      "lat":49.323611,
      "lon":-124.268333,
      "province":"BC"
   },
   {
      "display_name":"Rayleigh",
      "lat":50.797384039,
      "lon":-120.319731881999,
      "province":"BC"
   },
   {
      "display_name":"Read Island",
      "lat":50.181172739,
      "lon":-125.085930824999,
      "province":"BC"
   },
   {
      "display_name":"Read Island Park",
      "lat":50.144722,
      "lon":-125.134999999999,
      "province":"BC"
   },
   {
      "display_name":"Rearguard Falls Park",
      "lat":52.973889,
      "lon":-119.365833,
      "province":"BC"
   },
   {
      "display_name":"Red Bluff",
      "lat":52.965373855,
      "lon":-122.460749698999,
      "province":"BC"
   },
   {
      "display_name":"Red Bluff Park",
      "lat":54.854444,
      "lon":-126.180833,
      "province":"BC"
   },
   {
      "display_name":"Red Rock",
      "lat":53.688620787,
      "lon":-122.670865284999,
      "province":"BC"
   },
   {
      "display_name":"Redbrush Park",
      "lat":52.283333,
      "lon":-124.330556,
      "province":"BC"
   },
   {
      "display_name":"Redfern-Keily Park",
      "lat":57.4208329999999,
      "lon":-123.9,
      "province":"BC"
   },
   {
      "display_name":"Redstone",
      "lat":52.1332999,
      "lon":-123.699999998999,
      "province":"BC"
   },
   {
      "display_name":"Refuge Cove",
      "lat":50.12380292,
      "lon":-124.836029809999,
      "province":"BC"
   },
   {
      "display_name":"Reid Lake",
      "lat":53.9666999,
      "lon":-123.099999999999,
      "province":"BC"
   },
   {
      "display_name":"Remo",
      "lat":54.500694511,
      "lon":-128.718544897999,
      "province":"BC"
   },
   {
      "display_name":"Renata",
      "lat":49.433281721,
      "lon":-118.107163573999,
      "province":"BC"
   },
   {
      "display_name":"Retallack",
      "lat":50.048800684,
      "lon":-117.148208979999,
      "province":"BC"
   },
   {
      "display_name":"Revelstoke",
      "lat":51.001215075,
      "lon":-118.196239372999,
      "province":"BC"
   },
   {
      "display_name":"Rhone",
      "lat":49.219017813,
      "lon":-119.018313467999,
      "province":"BC"
   },
   {
      "display_name":"Rich Bar",
      "lat":52.914898555,
      "lon":-122.456470313999,
      "province":"BC"
   },
   {
      "display_name":"Richmond",
      "lat":49.153856885,
      "lon":-123.158204570999,
      "province":"BC"
   },
   {
      "display_name":"Riondel",
      "lat":49.767012305,
      "lon":-116.850079292999,
      "province":"BC"
   },
   {
      "display_name":"Riske Creek",
      "lat":51.959617881,
      "lon":-122.518246642999,
      "province":"BC"
   },
   {
      "display_name":"River Jordan",
      "lat":48.422069567,
      "lon":-124.050469898999,
      "province":"BC"
   },
   {
      "display_name":"Rivers Inlet",
      "lat":51.683243882,
      "lon":-127.249792112999,
      "province":"BC"
   },
   {
      "display_name":"Roberts Creek",
      "lat":49.426044413,
      "lon":-123.645617288999,
      "province":"BC"
   },
   {
      "display_name":"Roberts Creek Park",
      "lat":49.4422219999999,
      "lon":-123.673056,
      "province":"BC"
   },
   {
      "display_name":"Roberts Memorial Park",
      "lat":49.063333,
      "lon":-123.775833,
      "province":"BC"
   },
   {
      "display_name":"Robson",
      "lat":49.33452187,
      "lon":-117.691915100999,
      "province":"BC"
   },
   {
      "display_name":"Roche Lake Park",
      "lat":50.473611,
      "lon":-120.138889,
      "province":"BC"
   },
   {
      "display_name":"Rock Bay",
      "lat":50.332307921,
      "lon":-125.486282320999,
      "province":"BC"
   },
   {
      "display_name":"Rock Creek",
      "lat":49.05961898,
      "lon":-118.999025663999,
      "province":"BC"
   },
   {
      "display_name":"Rock Creek Park",
      "lat":49.056667,
      "lon":-119.000833,
      "province":"BC"
   },
   {
      "display_name":"Roe Lake",
      "lat":51.520842496,
      "lon":-120.831328630999,
      "province":"BC"
   },
   {
      "display_name":"Rogers Pass",
      "lat":51.300855517,
      "lon":-117.521282751999,
      "province":"BC"
   },
   {
      "display_name":"Rolla",
      "lat":55.898609539,
      "lon":-120.142591698999,
      "province":"BC"
   },
   {
      "display_name":"Rolley Lake Park",
      "lat":49.2438889999999,
      "lon":-122.386944,
      "province":"BC"
   },
   {
      "display_name":"Roosville",
      "lat":49.002092085,
      "lon":-115.051314582999,
      "province":"BC"
   },
   {
      "display_name":"Roscoe Bay Park",
      "lat":50.160278,
      "lon":-124.776111,
      "province":"BC"
   },
   {
      "display_name":"Rose Harbour",
      "lat":52.147660608,
      "lon":-131.084808720999,
      "province":"BC"
   },
   {
      "display_name":"Rose Prairie",
      "lat":56.508670498,
      "lon":-120.783025629999,
      "province":"BC"
   },
   {
      "display_name":"Rosebery",
      "lat":50.034402664,
      "lon":-117.406329688999,
      "province":"BC"
   },
   {
      "display_name":"Rosebery Park",
      "lat":50.035556,
      "lon":-117.404167,
      "province":"BC"
   },
   {
      "display_name":"Rosedale",
      "lat":49.182012451,
      "lon":-121.804382006999,
      "province":"BC"
   },
   {
      "display_name":"Rosewall Creek Park",
      "lat":49.455,
      "lon":-124.775278,
      "province":"BC"
   },
   {
      "display_name":"Ross Lake Park",
      "lat":55.261111,
      "lon":-127.526667,
      "province":"BC"
   },
   {
      "display_name":"Rossland",
      "lat":49.077460296,
      "lon":-117.800781027999,
      "province":"BC"
   },
   {
      "display_name":"Rosswood",
      "lat":54.799999901,
      "lon":-128.766699999999,
      "province":"BC"
   },
   {
      "display_name":"Round Lake",
      "lat":54.666629019,
      "lon":-126.916935568999,
      "province":"BC"
   },
   {
      "display_name":"Royston",
      "lat":49.645411349,
      "lon":-124.945195016999,
      "province":"BC"
   },
   {
      "display_name":"Ruby Creek",
      "lat":49.346840353,
      "lon":-121.596579600999,
      "province":"BC"
   },
   {
      "display_name":"Rubyrock Lake Park",
      "lat":54.686111,
      "lon":-125.345833,
      "province":"BC"
   },
   {
      "display_name":"Ruckle Park",
      "lat":48.781667,
      "lon":-123.389722,
      "province":"BC"
   },
   {
      "display_name":"Rumble Beach",
      "lat":50.426492887,
      "lon":-127.481559365999,
      "province":"BC"
   },
   {
      "display_name":"Ruth Lake Park",
      "lat":51.8277779999999,
      "lon":-121.031944,
      "province":"BC"
   },
   {
      "display_name":"Rutland",
      "lat":49.888253398,
      "lon":-119.391030426999,
      "province":"BC"
   },
   {
      "display_name":"Ryan Park",
      "lat":49.136111,
      "lon":-116.031944,
      "province":"BC"
   },
   {
      "display_name":"Saanich",
      "lat":48.487848622,
      "lon":-123.387968824999,
      "province":"BC"
   },
   {
      "display_name":"Saanichton",
      "lat":48.6,
      "lon":-123.416699899999,
      "province":"BC"
   },
   {
      "display_name":"Salmo",
      "lat":49.191615002,
      "lon":-117.276785073999,
      "province":"BC"
   },
   {
      "display_name":"Salmon Arm",
      "lat":50.6999999,
      "lon":-119.266699899999,
      "province":"BC"
   },
   {
      "display_name":"Salmon Valley",
      "lat":54.0832999,
      "lon":-122.699999899999,
      "province":"BC"
   },
   {
      "display_name":"Saltair",
      "lat":48.957099459,
      "lon":-123.773654533999,
      "province":"BC"
   },
   {
      "display_name":"Saltery Bay",
      "lat":49.783299899,
      "lon":-124.183299899999,
      "province":"BC"
   },
   {
      "display_name":"Saltery Bay Park",
      "lat":49.7822219999999,
      "lon":-124.192778,
      "province":"BC"
   },
   {
      "display_name":"Sanca",
      "lat":49.3916666,
      "lon":-116.734999899999,
      "province":"BC"
   },
   {
      "display_name":"Sandon",
      "lat":49.976363087,
      "lon":-117.226771370999,
      "province":"BC"
   },
   {
      "display_name":"Sandspit",
      "lat":53.247916993,
      "lon":-131.814430577999,
      "province":"BC"
   },
   {
      "display_name":"Sandwell Park",
      "lat":49.185,
      "lon":-123.816944,
      "province":"BC"
   },
   {
      "display_name":"Santa Gertrudis-Boca del Infierno Park",
      "lat":49.6125,
      "lon":-126.629722,
      "province":"BC"
   },
   {
      "display_name":"Saratoga Beach",
      "lat":49.859496462,
      "lon":-125.115721252999,
      "province":"BC"
   },
   {
      "display_name":"Sardis",
      "lat":49.133114621,
      "lon":-121.949937399999,
      "province":"BC"
   },
   {
      "display_name":"Sargeant Bay Park",
      "lat":49.4869439999999,
      "lon":-123.874167,
      "province":"BC"
   },
   {
      "display_name":"Sarita",
      "lat":48.8832999,
      "lon":-125.033299899999,
      "province":"BC"
   },
   {
      "display_name":"Saseenos",
      "lat":48.390761364,
      "lon":-123.668556978999,
      "province":"BC"
   },
   {
      "display_name":"Sasquatch Park",
      "lat":49.3583329999999,
      "lon":-121.704167,
      "province":"BC"
   },
   {
      "display_name":"Saturna",
      "lat":48.794532673,
      "lon":-123.194647012999,
      "province":"BC"
   },
   {
      "display_name":"Savona",
      "lat":50.751108886,
      "lon":-120.840527079999,
      "province":"BC"
   },
   {
      "display_name":"Say Nuth Khaw Yum Park (Indian Arm Park)",
      "lat":49.4222221999999,
      "lon":-122.8444444,
      "province":"BC"
   },
   {
      "display_name":"Sayward",
      "lat":50.377036212,
      "lon":-125.951953544999,
      "province":"BC"
   },
   {
      "display_name":"Scatter River Old Growth Park",
      "lat":59.631389,
      "lon":-124.681667,
      "province":"BC"
   },
   {
      "display_name":"Schoen Lake Park",
      "lat":50.1838889999999,
      "lon":-126.245278,
      "province":"BC"
   },
   {
      "display_name":"Schoolhouse Lake Park",
      "lat":51.884722,
      "lon":-120.993056,
      "province":"BC"
   },
   {
      "display_name":"Scotch Creek",
      "lat":50.901373687,
      "lon":-119.450878730999,
      "province":"BC"
   },
   {
      "display_name":"Seaford",
      "lat":50.0833,
      "lon":-124.899999899999,
      "province":"BC"
   },
   {
      "display_name":"Sechelt",
      "lat":49.479394551,
      "lon":-123.762234976999,
      "province":"BC"
   },
   {
      "display_name":"Sechelt Indian Government District",
      "lat":49.473690198,
      "lon":-123.744012321999,
      "province":"BC"
   },
   {
      "display_name":"Secret Cove",
      "lat":49.536264815,
      "lon":-123.951887213999,
      "province":"BC"
   },
   {
      "display_name":"Seeley Lake Park",
      "lat":55.198611,
      "lon":-127.690278,
      "province":"BC"
   },
   {
      "display_name":"Selma Park",
      "lat":49.458471898,
      "lon":-123.733332267999,
      "province":"BC"
   },
   {
      "display_name":"Seton Portage",
      "lat":50.70690284,
      "lon":-122.288959429999,
      "province":"BC"
   },
   {
      "display_name":"Seven Mile Corner",
      "lat":55.897554807,
      "lon":-120.324257976999,
      "province":"BC"
   },
   {
      "display_name":"Seven Sisters Park",
      "lat":54.955556,
      "lon":-128.013056,
      "province":"BC"
   },
   {
      "display_name":"Sewall",
      "lat":53.762475062,
      "lon":-132.298067523,
      "province":"BC"
   },
   {
      "display_name":"Sewell Inlet",
      "lat":52.874898033,
      "lon":-131.987129330999,
      "province":"BC"
   },
   {
      "display_name":"Seymour Arm",
      "lat":51.248413891,
      "lon":-118.939565027999,
      "province":"BC"
   },
   {
      "display_name":"Seymour Heights",
      "lat":49.319240722,
      "lon":-123.001637894999,
      "province":"BC"
   },
   {
      "display_name":"Shady Valley",
      "lat":53.979328994,
      "lon":-122.726885620999,
      "province":"BC"
   },
   {
      "display_name":"Shalalth",
      "lat":50.729420969,
      "lon":-122.214505366999,
      "province":"BC"
   },
   {
      "display_name":"Shannon Falls Park",
      "lat":49.667222,
      "lon":-123.163889,
      "province":"BC"
   },
   {
      "display_name":"Shawl Bay",
      "lat":50.843284712,
      "lon":-126.560418274999,
      "province":"BC"
   },
   {
      "display_name":"Shawnigan Lake",
      "lat":48.6535223,
      "lon":-123.621992964999,
      "province":"BC"
   },
   {
      "display_name":"Shearwater",
      "lat":52.146602411,
      "lon":-128.091995463999,
      "province":"BC"
   },
   {
      "display_name":"Shelley",
      "lat":54.0,
      "lon":-122.616699999999,
      "province":"BC"
   },
   {
      "display_name":"Shelter Bay",
      "lat":50.635234248,
      "lon":-117.925231452999,
      "province":"BC"
   },
   {
      "display_name":"Shelter Point",
      "lat":49.940278835,
      "lon":-125.190689694999,
      "province":"BC"
   },
   {
      "display_name":"Shirley",
      "lat":48.389792656,
      "lon":-123.904421359999,
      "province":"BC"
   },
   {
      "display_name":"Shoreacres",
      "lat":49.425043943,
      "lon":-117.527275719999,
      "province":"BC"
   },
   {
      "display_name":"Shoreholme",
      "lat":50.301943698,
      "lon":-117.851657245999,
      "province":"BC"
   },
   {
      "display_name":"Shulus",
      "lat":50.137319255,
      "lon":-120.853331968999,
      "province":"BC"
   },
   {
      "display_name":"Shuswap (Kamloops Division Yale Land District)",
      "lat":50.789606996,
      "lon":-119.708752723999,
      "province":"BC"
   },
   {
      "display_name":"Shuswap Falls",
      "lat":50.294022674,
      "lon":-118.805097046999,
      "province":"BC"
   },
   {
      "display_name":"Shuswap Lake Park",
      "lat":50.908611,
      "lon":-119.439444,
      "province":"BC"
   },
   {
      "display_name":"Shuswap River Islands Park",
      "lat":50.5527779999999,
      "lon":-118.893333,
      "province":"BC"
   },
   {
      "display_name":"Shutty Bench",
      "lat":49.967232196,
      "lon":-116.908606215999,
      "province":"BC"
   },
   {
      "display_name":"Sicamous",
      "lat":50.835017567,
      "lon":-118.980231126999,
      "province":"BC"
   },
   {
      "display_name":"Sidney",
      "lat":48.65,
      "lon":-123.399999898999,
      "province":"BC"
   },
   {
      "display_name":"Sikanni Chief",
      "lat":57.234625901,
      "lon":-122.694744376999,
      "province":"BC"
   },
   {
      "display_name":"Sikanni Chief Canyon Park",
      "lat":57.484722,
      "lon":-122.125,
      "province":"BC"
   },
   {
      "display_name":"Sikanni Old Growth Park",
      "lat":58.239722,
      "lon":-121.715833,
      "province":"BC"
   },
   {
      "display_name":"Silver Beach Park",
      "lat":51.2411109999999,
      "lon":-118.959167,
      "province":"BC"
   },
   {
      "display_name":"Silver Creek (Kamloops Division Yale Land District)",
      "lat":50.596110668,
      "lon":-119.365440678999,
      "province":"BC"
   },
   {
      "display_name":"Silver Creek (Yale Division Yale Land District)",
      "lat":49.363361995,
      "lon":-121.455624060999,
      "province":"BC"
   },
   {
      "display_name":"Silver Lake Park",
      "lat":49.316111,
      "lon":-121.413611,
      "province":"BC"
   },
   {
      "display_name":"Silver River",
      "lat":49.575590154,
      "lon":-121.818069719,
      "province":"BC"
   },
   {
      "display_name":"Silver Star",
      "lat":50.3572222,
      "lon":-119.059444399999,
      "province":"BC"
   },
   {
      "display_name":"Silver Star Park",
      "lat":50.377778,
      "lon":-119.079167,
      "province":"BC"
   },
   {
      "display_name":"Silverton",
      "lat":49.953674865,
      "lon":-117.356198106999,
      "province":"BC"
   },
   {
      "display_name":"Simpson Ranch",
      "lat":56.6,
      "lon":-122.433299900999,
      "province":"BC"
   },
   {
      "display_name":"Sinclair Mills",
      "lat":54.020559932,
      "lon":-121.676109754999,
      "province":"BC"
   },
   {
      "display_name":"Sinkut River",
      "lat":53.953797064,
      "lon":-123.857300040999,
      "province":"BC"
   },
   {
      "display_name":"Sir Alexander Mackenzie Park",
      "lat":52.3808329999999,
      "lon":-127.471944,
      "province":"BC"
   },
   {
      "display_name":"Six Mile Point",
      "lat":50.769637393,
      "lon":-119.011192706999,
      "province":"BC"
   },
   {
      "display_name":"Skagit Valley Park",
      "lat":49.116667,
      "lon":-121.166666999999,
      "province":"BC"
   },
   {
      "display_name":"Skaha Bluffs Park",
      "lat":49.4458329999999,
      "lon":-119.56111,
      "province":"BC"
   },
   {
      "display_name":"Skidegate",
      "lat":53.271520257,
      "lon":-131.987513722999,
      "province":"BC"
   },
   {
      "display_name":"Skidegate Landing",
      "lat":53.2472,
      "lon":-132.008299899999,
      "province":"BC"
   },
   {
      "display_name":"Skihist Park",
      "lat":50.2444439999999,
      "lon":-121.515278,
      "province":"BC"
   },
   {
      "display_name":"Skookumchuck (Kootenay Land District)",
      "lat":49.913265071,
      "lon":-115.732063689999,
      "province":"BC"
   },
   {
      "display_name":"Skookumchuck (New Westminster Land District)",
      "lat":49.93788663,
      "lon":-122.408408761999,
      "province":"BC"
   },
   {
      "display_name":"Skookumchuck Narrows Park",
      "lat":49.7419439999999,
      "lon":-123.91,
      "province":"BC"
   },
   {
      "display_name":"Skookumchuck Rapids Park",
      "lat":50.6127779999999,
      "lon":-118.753611,
      "province":"BC"
   },
   {
      "display_name":"Sleeping Beauty Mountain Park",
      "lat":54.591944,
      "lon":-128.769167,
      "province":"BC"
   },
   {
      "display_name":"Slesse Park",
      "lat":49.083281284,
      "lon":-121.816412388999,
      "province":"BC"
   },
   {
      "display_name":"Slim Creek Park",
      "lat":53.765556,
      "lon":-121.188056,
      "province":"BC"
   },
   {
      "display_name":"Slocan",
      "lat":49.7667,
      "lon":-117.466699999999,
      "province":"BC"
   },
   {
      "display_name":"Small River Caves Park",
      "lat":53.186944,
      "lon":-119.505833,
      "province":"BC"
   },
   {
      "display_name":"Smelt Bay Park",
      "lat":50.0325,
      "lon":-124.994167,
      "province":"BC"
   },
   {
      "display_name":"Smith River Falls - Fort Halkett Park",
      "lat":59.566111,
      "lon":-126.465,
      "province":"BC"
   },
   {
      "display_name":"Smithers",
      "lat":54.782455596,
      "lon":-127.166161301999,
      "province":"BC"
   },
   {
      "display_name":"Smithers Landing",
      "lat":55.05,
      "lon":-126.499999999999,
      "province":"BC"
   },
   {
      "display_name":"Snake River",
      "lat":59.036396834,
      "lon":-122.439214145999,
      "province":"BC"
   },
   {
      "display_name":"Snug Cove",
      "lat":49.382936727,
      "lon":-123.335711114999,
      "province":"BC"
   },
   {
      "display_name":"Soda Creek",
      "lat":52.34658146,
      "lon":-122.292172867999,
      "province":"BC"
   },
   {
      "display_name":"Sointula",
      "lat":50.6332999,
      "lon":-127.016699999999,
      "province":"BC"
   },
   {
      "display_name":"Solsqua",
      "lat":50.870684576,
      "lon":-118.939533416999,
      "province":"BC"
   },
   {
      "display_name":"Sooke",
      "lat":48.382279613,
      "lon":-123.727915855999,
      "province":"BC"
   },
   {
      "display_name":"Sooke Mountain Park",
      "lat":48.439444,
      "lon":-123.658611,
      "province":"BC"
   },
   {
      "display_name":"Sooke Potholes Park",
      "lat":48.4294439999999,
      "lon":-123.7125,
      "province":"BC"
   },
   {
      "display_name":"Sorrento",
      "lat":50.878242189,
      "lon":-119.467115817999,
      "province":"BC"
   },
   {
      "display_name":"South Bentinck",
      "lat":52.0443999,
      "lon":-126.666699899999,
      "province":"BC"
   },
   {
      "display_name":"South Chilcotin Mountains Park",
      "lat":51.033333,
      "lon":-123.06667,
      "province":"BC"
   },
   {
      "display_name":"South Hazelton",
      "lat":55.23751728,
      "lon":-127.658701720999,
      "province":"BC"
   },
   {
      "display_name":"South Lakeside",
      "lat":52.1082999,
      "lon":-122.097199899999,
      "province":"BC"
   },
   {
      "display_name":"South Shalalth",
      "lat":50.72883025,
      "lon":-122.244354041999,
      "province":"BC"
   },
   {
      "display_name":"South Surrey",
      "lat":49.054281445,
      "lon":-122.832916109999,
      "province":"BC"
   },
   {
      "display_name":"South Taylor",
      "lat":56.106811443,
      "lon":-120.633736889999,
      "province":"BC"
   },
   {
      "display_name":"South Texada Island Park",
      "lat":49.5211109999999,
      "lon":-124.178056,
      "province":"BC"
   },
   {
      "display_name":"South Wellington",
      "lat":49.094100465,
      "lon":-123.886797520999,
      "province":"BC"
   },
   {
      "display_name":"Southbank",
      "lat":54.021238614,
      "lon":-125.770749103999,
      "province":"BC"
   },
   {
      "display_name":"Sowchea Bay Park",
      "lat":54.4199999999999,
      "lon":-124.45,
      "province":"BC"
   },
   {
      "display_name":"Spallumcheen",
      "lat":50.4025,
      "lon":-119.2175,
      "province":"BC"
   },
   {
      "display_name":"Sparwood",
      "lat":49.732621361,
      "lon":-114.891904377999,
      "province":"BC"
   },
   {
      "display_name":"Spectacle Lake Park",
      "lat":48.579722,
      "lon":-123.570833,
      "province":"BC"
   },
   {
      "display_name":"Spences Bridge",
      "lat":50.423355483,
      "lon":-121.344062826999,
      "province":"BC"
   },
   {
      "display_name":"Spider Lake Park",
      "lat":49.343611,
      "lon":-124.6325,
      "province":"BC"
   },
   {
      "display_name":"Spillimacheen",
      "lat":50.907248289,
      "lon":-116.363519750999,
      "province":"BC"
   },
   {
      "display_name":"Spipiyus Park",
      "lat":49.662222,
      "lon":-123.921389,
      "province":"BC"
   },
   {
      "display_name":"Springhouse",
      "lat":51.9667,
      "lon":-122.133299998999,
      "province":"BC"
   },
   {
      "display_name":"Sproat Lake",
      "lat":49.276621663,
      "lon":-124.923621184999,
      "province":"BC"
   },
   {
      "display_name":"Sproat Lake Park",
      "lat":49.2952779999999,
      "lon":-124.929443999999,
      "province":"BC"
   },
   {
      "display_name":"Spuzzum",
      "lat":49.688641001,
      "lon":-121.416753986999,
      "province":"BC"
   },
   {
      "display_name":"Squamish",
      "lat":49.702408621,
      "lon":-123.146732282999,
      "province":"BC"
   },
   {
      "display_name":"Squeah",
      "lat":49.504219562,
      "lon":-121.420498109999,
      "province":"BC"
   },
   {
      "display_name":"St. Joseph Mission",
      "lat":52.0666999,
      "lon":-121.949999999999,
      "province":"BC"
   },
   {
      "display_name":"St. Mary's Alpine Park",
      "lat":49.880556,
      "lon":-116.35,
      "province":"BC"
   },
   {
      "display_name":"Stagleap Park",
      "lat":49.060278,
      "lon":-117.048889,
      "province":"BC"
   },
   {
      "display_name":"Stamp River Park",
      "lat":49.341667,
      "lon":-124.925,
      "province":"BC"
   },
   {
      "display_name":"Stawamus Chief Park",
      "lat":49.6863889999999,
      "lon":-123.136944,
      "province":"BC"
   },
   {
      "display_name":"Steamboat",
      "lat":58.675634514,
      "lon":-123.712166271999,
      "province":"BC"
   },
   {
      "display_name":"Steelhead Park",
      "lat":50.7530559999999,
      "lon":-120.870278,
      "province":"BC"
   },
   {
      "display_name":"Stein Valley Nlaka'pamux Heritage Park",
      "lat":50.25,
      "lon":-122.0,
      "province":"BC"
   },
   {
      "display_name":"Stellako",
      "lat":54.062162399,
      "lon":-124.902516010999,
      "province":"BC"
   },
   {
      "display_name":"Stemwinder Park",
      "lat":49.371111,
      "lon":-120.136667,
      "province":"BC"
   },
   {
      "display_name":"Stewardson Inlet",
      "lat":49.421713679,
      "lon":-126.316360969999,
      "province":"BC"
   },
   {
      "display_name":"Stewart",
      "lat":55.941822876,
      "lon":-129.983772707999,
      "province":"BC"
   },
   {
      "display_name":"Stikine",
      "lat":56.698651778,
      "lon":-131.808636770999,
      "province":"BC"
   },
   {
      "display_name":"Stikine River Park",
      "lat":57.933333,
      "lon":-129.0,
      "province":"BC"
   },
   {
      "display_name":"Stillwater (New Westminster Land District)",
      "lat":49.7667,
      "lon":-124.299999998999,
      "province":"BC"
   },
   {
      "display_name":"Stone Mountain Park",
      "lat":58.594444,
      "lon":-124.769444,
      "province":"BC"
   },
   {
      "display_name":"Stoner",
      "lat":53.629066908,
      "lon":-122.662452405999,
      "province":"BC"
   },
   {
      "display_name":"Strathcona Park",
      "lat":49.65,
      "lon":-125.75,
      "province":"BC"
   },
   {
      "display_name":"Strathcona-Westmin Park",
      "lat":49.5783329999999,
      "lon":-125.594721999999,
      "province":"BC"
   },
   {
      "display_name":"Stuart Lake Park",
      "lat":54.6247219999999,
      "lon":-124.645277999999,
      "province":"BC"
   },
   {
      "display_name":"Stuart River Park",
      "lat":54.064444,
      "lon":-123.558333,
      "province":"BC"
   },
   {
      "display_name":"Stump Lake",
      "lat":50.38831629,
      "lon":-120.327794376999,
      "province":"BC"
   },
   {
      "display_name":"Sturdies Bay",
      "lat":48.8791666,
      "lon":-123.319444399999,
      "province":"BC"
   },
   {
      "display_name":"Sugarbowl-Grizzly Den Park",
      "lat":53.844444,
      "lon":-121.601389,
      "province":"BC"
   },
   {
      "display_name":"Sugarcane",
      "lat":52.108821648,
      "lon":-121.994957979999,
      "province":"BC"
   },
   {
      "display_name":"Sukunka Falls Park",
      "lat":55.329167,
      "lon":-121.721389,
      "province":"BC"
   },
   {
      "display_name":"Sullivan Bay",
      "lat":50.8832999,
      "lon":-126.816699999999,
      "province":"BC"
   },
   {
      "display_name":"Sulphur Passage Park",
      "lat":49.4124999999999,
      "lon":-126.097222,
      "province":"BC"
   },
   {
      "display_name":"Summerland",
      "lat":49.605439338,
      "lon":-119.672582259999,
      "province":"BC"
   },
   {
      "display_name":"Summit Lake (Cariboo Land District)",
      "lat":54.25,
      "lon":-122.633299899999,
      "province":"BC"
   },
   {
      "display_name":"Summit Lake (Kootenay Land District)",
      "lat":50.166672078,
      "lon":-117.671794203999,
      "province":"BC"
   },
   {
      "display_name":"Summit Lake (Peace River Land District)",
      "lat":58.655394212,
      "lon":-124.637718753999,
      "province":"BC"
   },
   {
      "display_name":"Summit Lake Park",
      "lat":50.156667,
      "lon":-117.654721999999,
      "province":"BC"
   },
   {
      "display_name":"Sun Peaks",
      "lat":50.878039039,
      "lon":-119.908131300999,
      "province":"BC"
   },
   {
      "display_name":"Sunningdale",
      "lat":49.116699999,
      "lon":-117.716699999999,
      "province":"BC"
   },
   {
      "display_name":"Sunnybrae",
      "lat":50.773243209,
      "lon":-119.269945746999,
      "province":"BC"
   },
   {
      "display_name":"Sunnyside (Coast Land District)",
      "lat":54.653842596,
      "lon":-124.732343985999,
      "province":"BC"
   },
   {
      "display_name":"Sun-Oka Beach Park",
      "lat":49.5638889999999,
      "lon":-119.631111,
      "province":"BC"
   },
   {
      "display_name":"Sunset Prairie",
      "lat":55.839743905,
      "lon":-120.763986885999,
      "province":"BC"
   },
   {
      "display_name":"Sunshine Valley",
      "lat":49.27272062,
      "lon":-121.238804657999,
      "province":"BC"
   },
   {
      "display_name":"Surge Narrows",
      "lat":50.230598921,
      "lon":-125.108938653999,
      "province":"BC"
   },
   {
      "display_name":"Surge Narrows Park",
      "lat":50.2336109999999,
      "lon":-125.150278,
      "province":"BC"
   },
   {
      "display_name":"Surrey",
      "lat":49.174479157,
      "lon":-122.827771195999,
      "province":"BC"
   },
   {
      "display_name":"Sustut Park",
      "lat":56.376944,
      "lon":-126.698611,
      "province":"BC"
   },
   {
      "display_name":"Sutherland River Park",
      "lat":54.4688889999999,
      "lon":-125.089444,
      "province":"BC"
   },
   {
      "display_name":"Swan Lake Kispiox River Park",
      "lat":55.895833,
      "lon":-128.594444,
      "province":"BC"
   },
   {
      "display_name":"Swan Lake Park",
      "lat":55.528333,
      "lon":-120.029444,
      "province":"BC"
   },
   {
      "display_name":"Swartz Bay",
      "lat":48.682666011,
      "lon":-123.413128562999,
      "province":"BC"
   },
   {
      "display_name":"sáºiáºs Park",
      "lat":49.0169439999999,
      "lon":-119.45,
      "province":"BC"
   },
   {
      "display_name":"SxÌ±Ã³tsaqel/Chilliwack Lake Park",
      "lat":49.072222,
      "lon":-121.440278,
      "province":"BC"
   },
   {
      "display_name":"sxwexwnitkw Park",
      "lat":49.341111,
      "lon":-119.581389,
      "province":"BC"
   },
   {
      "display_name":"Sydney Inlet Park",
      "lat":49.480556,
      "lon":-126.281944,
      "province":"BC"
   },
   {
      "display_name":"Syringa Park",
      "lat":49.3791669999999,
      "lon":-117.895833,
      "province":"BC"
   },
   {
      "display_name":"TÄ Ch'ilÄ Park [a.k.a. Boya Lake Park]",
      "lat":59.3833329999999,
      "lon":-129.090278,
      "province":"BC"
   },
   {
      "display_name":"Ta Ta Creek",
      "lat":49.7832999,
      "lon":-115.783299899999,
      "province":"BC"
   },
   {
      "display_name":"Tachie",
      "lat":54.654817271,
      "lon":-124.757884284999,
      "province":"BC"
   },
   {
      "display_name":"Taghum",
      "lat":49.493387073,
      "lon":-117.398938584999,
      "province":"BC"
   },
   {
      "display_name":"Tahsis",
      "lat":49.930294355,
      "lon":-126.654712232999,
      "province":"BC"
   },
   {
      "display_name":"Tahsish-Kwois Park",
      "lat":50.2016669999999,
      "lon":-127.160278,
      "province":"BC"
   },
   {
      "display_name":"Takla Landing",
      "lat":55.482974293,
      "lon":-125.973533900999,
      "province":"BC"
   },
   {
      "display_name":"Takysie Lake",
      "lat":53.8832999,
      "lon":-125.866700000999,
      "province":"BC"
   },
   {
      "display_name":"Tantalus Park",
      "lat":49.829722,
      "lon":-123.291666999999,
      "province":"BC"
   },
   {
      "display_name":"Tappen",
      "lat":50.783987359,
      "lon":-119.330605306999,
      "province":"BC"
   },
   {
      "display_name":"Tarahne Park",
      "lat":59.578056,
      "lon":-133.705556,
      "province":"BC"
   },
   {
      "display_name":"Tatalrose",
      "lat":53.9833,
      "lon":-125.983299999999,
      "province":"BC"
   },
   {
      "display_name":"Tatla Lake",
      "lat":51.9,
      "lon":-124.599999999999,
      "province":"BC"
   },
   {
      "display_name":"Tatlatui Park",
      "lat":56.989167,
      "lon":-127.4025,
      "province":"BC"
   },
   {
      "display_name":"Tatlayoko Lake",
      "lat":51.7167,
      "lon":-124.433299900999,
      "province":"BC"
   },
   {
      "display_name":"Tatogga",
      "lat":57.716347941,
      "lon":-129.987351872999,
      "province":"BC"
   },
   {
      "display_name":"Tatton",
      "lat":51.705674253,
      "lon":-121.385414837999,
      "province":"BC"
   },
   {
      "display_name":"Taweel Park",
      "lat":51.6427779999999,
      "lon":-120.363056,
      "province":"BC"
   },
   {
      "display_name":"Taylor",
      "lat":56.154368346,
      "lon":-120.679863143999,
      "province":"BC"
   },
   {
      "display_name":"Taylor Arm Park",
      "lat":49.2761109999999,
      "lon":-125.044722,
      "province":"BC"
   },
   {
      "display_name":"Taylor Landing Park",
      "lat":56.134722,
      "lon":-120.666111,
      "province":"BC"
   },
   {
      "display_name":"Tchesinkut Lake",
      "lat":54.082273244,
      "lon":-125.737954821999,
      "province":"BC"
   },
   {
      "display_name":"Teakerne Arm Park",
      "lat":50.2027779999999,
      "lon":-124.845,
      "province":"BC"
   },
   {
      "display_name":"Teeshohsum",
      "lat":49.8975,
      "lon":-124.607778,
      "province":"BC"
   },
   {
      "display_name":"Telachick",
      "lat":53.862114947,
      "lon":-123.182321498999,
      "province":"BC"
   },
   {
      "display_name":"Telegraph Cove",
      "lat":50.545746578,
      "lon":-126.827509732999,
      "province":"BC"
   },
   {
      "display_name":"Telegraph Creek",
      "lat":57.901839084,
      "lon":-131.165526490999,
      "province":"BC"
   },
   {
      "display_name":"Telkwa",
      "lat":54.6972,
      "lon":-127.049999900999,
      "province":"BC"
   },
   {
      "display_name":"Ten Mile Lake",
      "lat":53.088274248,
      "lon":-122.440347657999,
      "province":"BC"
   },
   {
      "display_name":"Ten Mile Lake Park",
      "lat":53.073889,
      "lon":-122.441667,
      "province":"BC"
   },
   {
      "display_name":"Terrace",
      "lat":54.523404994,
      "lon":-128.598449726999,
      "province":"BC"
   },
   {
      "display_name":"Teslin Lake 7",
      "lat":59.5064791,
      "lon":-132.1098586,
      "province":"BC"
   },
   {
      "display_name":"TÃªte Jaune Cache",
      "lat":52.9667,
      "lon":-119.429199999999,
      "province":"BC"
   },
   {
      "display_name":"Tetrahedron Park",
      "lat":49.5947219999999,
      "lon":-123.593333,
      "province":"BC"
   },
   {
      "display_name":"Thompson Sound",
      "lat":50.802549545,
      "lon":-126.008376769,
      "province":"BC"
   },
   {
      "display_name":"Thornhill",
      "lat":54.512492511,
      "lon":-128.540496038999,
      "province":"BC"
   },
   {
      "display_name":"Three Sisters Lakes Park",
      "lat":53.535,
      "lon":-122.530833,
      "province":"BC"
   },
   {
      "display_name":"Thunder Hill Park",
      "lat":50.168056,
      "lon":-115.855278,
      "province":"BC"
   },
   {
      "display_name":"Tintagel",
      "lat":54.202850245,
      "lon":-125.593009805999,
      "province":"BC"
   },
   {
      "display_name":"Tipella",
      "lat":49.733292781,
      "lon":-122.149881422999,
      "province":"BC"
   },
   {
      "display_name":"Titetown Park",
      "lat":53.2847219999999,
      "lon":-123.745833,
      "province":"BC"
   },
   {
      "display_name":"Tlakmaqis",
      "lat":48.979355248,
      "lon":-125.575966208999,
      "province":"BC"
   },
   {
      "display_name":"Tlell",
      "lat":53.5666999,
      "lon":-131.933299898999,
      "province":"BC"
   },
   {
      "display_name":"Toad River",
      "lat":58.8499999,
      "lon":-125.233299899999,
      "province":"BC"
   },
   {
      "display_name":"Toad River Hot Springs Park",
      "lat":58.9269439999999,
      "lon":-125.084443999999,
      "province":"BC"
   },
   {
      "display_name":"Todagin South Slope Park",
      "lat":57.616667,
      "lon":-129.915278,
      "province":"BC"
   },
   {
      "display_name":"Tofino",
      "lat":49.150506821,
      "lon":-125.905590596999,
      "province":"BC"
   },
   {
      "display_name":"Top of the World Park",
      "lat":49.8549999999999,
      "lon":-115.408333,
      "province":"BC"
   },
   {
      "display_name":"Topley",
      "lat":54.5,
      "lon":-126.299999999999,
      "province":"BC"
   },
   {
      "display_name":"Topley Landing",
      "lat":54.799931927,
      "lon":-126.133370165999,
      "province":"BC"
   },
   {
      "display_name":"Topley Landing Park",
      "lat":54.811111,
      "lon":-126.143889,
      "province":"BC"
   },
   {
      "display_name":"Towdystan",
      "lat":52.26337564,
      "lon":-125.086839258999,
      "province":"BC"
   },
   {
      "display_name":"Tower Lake",
      "lat":56.015486458,
      "lon":-120.561330094999,
      "province":"BC"
   },
   {
      "display_name":"Traders Cove",
      "lat":49.936086672,
      "lon":-119.504107483999,
      "province":"BC"
   },
   {
      "display_name":"Trail",
      "lat":49.09771526,
      "lon":-117.699972697999,
      "province":"BC"
   },
   {
      "display_name":"Tranquil Creek Park",
      "lat":49.317778,
      "lon":-125.621667,
      "province":"BC"
   },
   {
      "display_name":"Tranquille",
      "lat":50.720004161,
      "lon":-120.520802011999,
      "province":"BC"
   },
   {
      "display_name":"Trembleur Lake Park",
      "lat":54.83,
      "lon":-125.235,
      "province":"BC"
   },
   {
      "display_name":"Trepanier Park",
      "lat":49.914722,
      "lon":-119.857778,
      "province":"BC"
   },
   {
      "display_name":"Tribune Bay Park",
      "lat":49.529444,
      "lon":-124.641944,
      "province":"BC"
   },
   {
      "display_name":"Trout Lake",
      "lat":50.6472,
      "lon":-117.538899999999,
      "province":"BC"
   },
   {
      "display_name":"Tsawwassen",
      "lat":49.018293126,
      "lon":-123.080536936999,
      "province":"BC"
   },
   {
      "display_name":"Tsay Keh Dene",
      "lat":56.891800553,
      "lon":-124.962642674,
      "province":"BC"
   },
   {
      "display_name":"Ts'il?os Park",
      "lat":51.1666669999999,
      "lon":-123.966667,
      "province":"BC"
   },
   {
      "display_name":"Tsintsunko Lakes Park",
      "lat":51.059167,
      "lon":-120.481944,
      "province":"BC"
   },
   {
      "display_name":"ts'uá¸µw'um",
      "lat":49.4499999999999,
      "lon":-123.71667,
      "province":"BC"
   },
   {
      "display_name":"TsÃºtswecw Park",
      "lat":50.918611,
      "lon":-119.619444,
      "province":"BC"
   },
   {
      "display_name":"Tudyah Lake Park",
      "lat":55.064167,
      "lon":-123.036111,
      "province":"BC"
   },
   {
      "display_name":"Tulameen",
      "lat":49.5457999,
      "lon":-120.758299898999,
      "province":"BC"
   },
   {
      "display_name":"Tumbler Ridge",
      "lat":55.1332999,
      "lon":-120.999999899999,
      "province":"BC"
   },
   {
      "display_name":"Tunkwa Park",
      "lat":50.62,
      "lon":-120.883889,
      "province":"BC"
   },
   {
      "display_name":"Tuwanek",
      "lat":49.544234823,
      "lon":-123.756807051999,
      "province":"BC"
   },
   {
      "display_name":"Tuya Mountains Park",
      "lat":59.172222,
      "lon":-130.5,
      "province":"BC"
   },
   {
      "display_name":"Tweedsmuir Park",
      "lat":53.0,
      "lon":-126.25,
      "province":"BC"
   },
   {
      "display_name":"Twidwell Bend",
      "lat":55.61549478,
      "lon":-121.571498111999,
      "province":"BC"
   },
   {
      "display_name":"Two Mile",
      "lat":55.265934028,
      "lon":-127.617689051999,
      "province":"BC"
   },
   {
      "display_name":"Tyhee Lake Park",
      "lat":54.7075,
      "lon":-127.038611,
      "province":"BC"
   },
   {
      "display_name":"Ucluelet",
      "lat":48.939958809,
      "lon":-125.544842196999,
      "province":"BC"
   },
   {
      "display_name":"Uncha Mountain Red Hills Park",
      "lat":53.9741669999999,
      "lon":-125.533889,
      "province":"BC"
   },
   {
      "display_name":"Union Bay",
      "lat":49.580205975,
      "lon":-124.885175604999,
      "province":"BC"
   },
   {
      "display_name":"University Hill",
      "lat":49.266887569,
      "lon":-123.241848837999,
      "province":"BC"
   },
   {
      "display_name":"Upper Adams River Park",
      "lat":51.6194439999999,
      "lon":-119.208333,
      "province":"BC"
   },
   {
      "display_name":"Upper Fraser",
      "lat":54.120032572,
      "lon":-121.926898732999,
      "province":"BC"
   },
   {
      "display_name":"Upper Halfway",
      "lat":56.517639761,
      "lon":-122.225726406999,
      "province":"BC"
   },
   {
      "display_name":"Upper Lillooet Park",
      "lat":50.683333,
      "lon":-123.616667,
      "province":"BC"
   },
   {
      "display_name":"Upper Seymour River Park",
      "lat":51.627778,
      "lon":-118.933333,
      "province":"BC"
   },
   {
      "display_name":"Upper Violet Creek Park",
      "lat":50.722778,
      "lon":-119.141944,
      "province":"BC"
   },
   {
      "display_name":"Usk",
      "lat":54.6333,
      "lon":-128.416699899999,
      "province":"BC"
   },
   {
      "display_name":"Valemount",
      "lat":52.83051079,
      "lon":-119.265048117999,
      "province":"BC"
   },
   {
      "display_name":"Valhalla Park",
      "lat":49.8722219999999,
      "lon":-117.573332999999,
      "province":"BC"
   },
   {
      "display_name":"Valleyview",
      "lat":50.673821607,
      "lon":-120.249667568999,
      "province":"BC"
   },
   {
      "display_name":"Van Anda",
      "lat":49.7582999,
      "lon":-124.549999998999,
      "province":"BC"
   },
   {
      "display_name":"Vancouver",
      "lat":49.24479866,
      "lon":-123.115387384999,
      "province":"BC"
   },
   {
      "display_name":"Vanderhoof",
      "lat":54.017470613,
      "lon":-124.002281213999,
      "province":"BC"
   },
   {
      "display_name":"Vargas Island Park",
      "lat":49.189167,
      "lon":-126.030555999999,
      "province":"BC"
   },
   {
      "display_name":"Vaseux Lake Park",
      "lat":49.3011109999999,
      "lon":-119.531667,
      "province":"BC"
   },
   {
      "display_name":"Vavenby",
      "lat":51.585761855,
      "lon":-119.726132466999,
      "province":"BC"
   },
   {
      "display_name":"Vedder Crossing",
      "lat":49.100163177,
      "lon":-121.966658348999,
      "province":"BC"
   },
   {
      "display_name":"Vermilion Crossing",
      "lat":51.033445318,
      "lon":-115.983367498999,
      "province":"BC"
   },
   {
      "display_name":"Vernon",
      "lat":50.264224172,
      "lon":-119.268887100999,
      "province":"BC"
   },
   {
      "display_name":"Victor Lake Park",
      "lat":50.956389,
      "lon":-118.403055999999,
      "province":"BC"
   },
   {
      "display_name":"Victoria",
      "lat":48.433438431,
      "lon":-123.361706903999,
      "province":"BC"
   },
   {
      "display_name":"Victoria Harbour",
      "lat":48.4211109999999,
      "lon":-123.392777,
      "province":"BC"
   },
   {
      "display_name":"Vidette",
      "lat":51.1666999,
      "lon":-120.899999999999,
      "province":"BC"
   },
   {
      "display_name":"View Royal",
      "lat":48.4582999,
      "lon":-123.449999998999,
      "province":"BC"
   },
   {
      "display_name":"Village of Daajing Giids",
      "lat":53.2547219999999,
      "lon":-132.1025,
      "province":"BC"
   },
   {
      "display_name":"Wadhams",
      "lat":51.516666666,
      "lon":-127.499999999999,
      "province":"BC"
   },
   {
      "display_name":"Wakes Cove Park",
      "lat":49.122778,
      "lon":-123.7025,
      "province":"BC"
   },
   {
      "display_name":"Walhachin",
      "lat":50.751450658,
      "lon":-120.990690320999,
      "province":"BC"
   },
   {
      "display_name":"Walhachin Oxbows Park",
      "lat":50.7511111,
      "lon":-120.9308333,
      "province":"BC"
   },
   {
      "display_name":"Walloper Lake Park",
      "lat":50.483889,
      "lon":-120.538333,
      "province":"BC"
   },
   {
      "display_name":"Walnut Grove",
      "lat":49.180555105,
      "lon":-122.648191683999,
      "province":"BC"
   },
   {
      "display_name":"Walsh Cove Park",
      "lat":50.268056,
      "lon":-124.802778,
      "province":"BC"
   },
   {
      "display_name":"Wap Creek Park",
      "lat":50.735833,
      "lon":-118.58583,
      "province":"BC"
   },
   {
      "display_name":"Wapiti Lake Park",
      "lat":54.516667,
      "lon":-120.793056,
      "province":"BC"
   },
   {
      "display_name":"Wardner",
      "lat":49.416827131,
      "lon":-115.425804778999,
      "province":"BC"
   },
   {
      "display_name":"Wardner Park",
      "lat":49.416944,
      "lon":-115.421667,
      "province":"BC"
   },
   {
      "display_name":"Warfield",
      "lat":49.094465016,
      "lon":-117.748631496999,
      "province":"BC"
   },
   {
      "display_name":"Wasa",
      "lat":49.785024432,
      "lon":-115.729917927999,
      "province":"BC"
   },
   {
      "display_name":"Wasa Lake Park",
      "lat":49.789444,
      "lon":-115.7375,
      "province":"BC"
   },
   {
      "display_name":"Weewanie",
      "lat":53.6916666,
      "lon":-128.790277698999,
      "province":"BC"
   },
   {
      "display_name":"Weewanie Hot Springs Park",
      "lat":53.6983329999999,
      "lon":-128.789444,
      "province":"BC"
   },
   {
      "display_name":"Welcome Beach",
      "lat":49.480004434,
      "lon":-123.894044202999,
      "province":"BC"
   },
   {
      "display_name":"Wells",
      "lat":53.10414109,
      "lon":-121.570534061999,
      "province":"BC"
   },
   {
      "display_name":"Wells Gray Park",
      "lat":52.333333,
      "lon":-120.0,
      "province":"BC"
   },
   {
      "display_name":"Wendle Park",
      "lat":53.1213889999999,
      "lon":-121.507222,
      "province":"BC"
   },
   {
      "display_name":"Weneez",
      "lat":53.967697583,
      "lon":-123.980427925999,
      "province":"BC"
   },
   {
      "display_name":"West Arm Park",
      "lat":49.5041669999999,
      "lon":-117.133333,
      "province":"BC"
   },
   {
      "display_name":"West Lake Park",
      "lat":53.7375,
      "lon":-122.8625,
      "province":"BC"
   },
   {
      "display_name":"West Shawnigan Lake Park",
      "lat":48.641667,
      "lon":-123.651667,
      "province":"BC"
   },
   {
      "display_name":"West Twin Park",
      "lat":53.355556,
      "lon":-120.544444,
      "province":"BC"
   },
   {
      "display_name":"West Vancouver",
      "lat":49.3311109999999,
      "lon":-123.159722,
      "province":"BC"
   },
   {
      "display_name":"Westbank",
      "lat":49.828564161,
      "lon":-119.631381678999,
      "province":"BC"
   },
   {
      "display_name":"Westbridge",
      "lat":49.171453182,
      "lon":-118.975306547999,
      "province":"BC"
   },
   {
      "display_name":"Westholme",
      "lat":48.8667,
      "lon":-123.699999999999,
      "province":"BC"
   },
   {
      "display_name":"Westmount",
      "lat":49.343924712,
      "lon":-123.209152266999,
      "province":"BC"
   },
   {
      "display_name":"Westside",
      "lat":49.882230456,
      "lon":-119.535235628999,
      "province":"BC"
   },
   {
      "display_name":"Westsyde",
      "lat":50.763668363,
      "lon":-120.348479910999,
      "province":"BC"
   },
   {
      "display_name":"Westview",
      "lat":49.836397393,
      "lon":-124.524637207999,
      "province":"BC"
   },
   {
      "display_name":"Westwold",
      "lat":50.467905693,
      "lon":-119.746649683999,
      "province":"BC"
   },
   {
      "display_name":"Wet'suwet'en Village",
      "lat":54.335859269,
      "lon":-125.890340779999,
      "province":"BC"
   },
   {
      "display_name":"Weymer Creek Park",
      "lat":49.8833329999999,
      "lon":-126.616667,
      "province":"BC"
   },
   {
      "display_name":"Whaletown",
      "lat":50.101193213,
      "lon":-125.046777714999,
      "province":"BC"
   },
   {
      "display_name":"Whiskers Point Park",
      "lat":54.906944,
      "lon":-122.9375,
      "province":"BC"
   },
   {
      "display_name":"Whisky Creek",
      "lat":49.308183018,
      "lon":-124.508305171999,
      "province":"BC"
   },
   {
      "display_name":"Whistler",
      "lat":50.117473724,
      "lon":-122.955440374999,
      "province":"BC"
   },
   {
      "display_name":"Whistler Creek",
      "lat":50.095603895,
      "lon":-122.992754722999,
      "province":"BC"
   },
   {
      "display_name":"White Lake",
      "lat":50.879754035,
      "lon":-119.301500992999,
      "province":"BC"
   },
   {
      "display_name":"White Lake Park",
      "lat":50.8944439999999,
      "lon":-119.233889,
      "province":"BC"
   },
   {
      "display_name":"White Pelican Park",
      "lat":52.288889,
      "lon":-123.025278,
      "province":"BC"
   },
   {
      "display_name":"White Ridge Park",
      "lat":49.777778,
      "lon":-125.972222,
      "province":"BC"
   },
   {
      "display_name":"White River Park",
      "lat":50.1411109999999,
      "lon":-126.033889,
      "province":"BC"
   },
   {
      "display_name":"White Rock",
      "lat":49.025168301,
      "lon":-122.796163107999,
      "province":"BC"
   },
   {
      "display_name":"Whiteswan Lake Park",
      "lat":50.1555559999999,
      "lon":-115.465278,
      "province":"BC"
   },
   {
      "display_name":"Whyac",
      "lat":48.669090783,
      "lon":-124.846433457999,
      "province":"BC"
   },
   {
      "display_name":"Wildwood",
      "lat":49.891027396,
      "lon":-124.557127885999,
      "province":"BC"
   },
   {
      "display_name":"Wiley",
      "lat":54.51671956,
      "lon":-126.333195624999,
      "province":"BC"
   },
   {
      "display_name":"Williams Beach",
      "lat":49.833966309,
      "lon":-125.060902573999,
      "province":"BC"
   },
   {
      "display_name":"Williams Lake",
      "lat":52.141471729,
      "lon":-122.142884315999,
      "province":"BC"
   },
   {
      "display_name":"Williamsons Landing",
      "lat":49.449749325,
      "lon":-123.468571816999,
      "province":"BC"
   },
   {
      "display_name":"Willow River",
      "lat":54.078726172,
      "lon":-122.474372253999,
      "province":"BC"
   },
   {
      "display_name":"Willow Valley",
      "lat":55.856301316,
      "lon":-120.871525010999,
      "province":"BC"
   },
   {
      "display_name":"Willowbrook (Similkameen Division Yale Land District)",
      "lat":49.260719843,
      "lon":-119.593518736999,
      "province":"BC"
   },
   {
      "display_name":"Wilmer",
      "lat":50.535837577,
      "lon":-116.062917761,
      "province":"BC"
   },
   {
      "display_name":"Wilson Landing",
      "lat":49.982100197,
      "lon":-119.497266476,
      "province":"BC"
   },
   {
      "display_name":"Windermere",
      "lat":50.4666999,
      "lon":-115.983299899999,
      "province":"BC"
   },
   {
      "display_name":"Windermere Lake Park",
      "lat":50.423333,
      "lon":-115.967222,
      "province":"BC"
   },
   {
      "display_name":"Winfield",
      "lat":50.033324371,
      "lon":-119.401778785999,
      "province":"BC"
   },
   {
      "display_name":"Winlaw",
      "lat":49.61104927,
      "lon":-117.564036137999,
      "province":"BC"
   },
   {
      "display_name":"Winter Harbour",
      "lat":50.5166999,
      "lon":-128.033299899999,
      "province":"BC"
   },
   {
      "display_name":"Wire Cache Park",
      "lat":51.723056,
      "lon":-119.35,
      "province":"BC"
   },
   {
      "display_name":"Wistaria",
      "lat":53.847449647,
      "lon":-126.280080751999,
      "province":"BC"
   },
   {
      "display_name":"Wistaria Park",
      "lat":53.8577779999999,
      "lon":-126.320833,
      "province":"BC"
   },
   {
      "display_name":"Wonowon",
      "lat":56.728833773,
      "lon":-121.814153599999,
      "province":"BC"
   },
   {
      "display_name":"Wood Mountain Ski Park",
      "lat":49.66,
      "lon":-125.166666999999,
      "province":"BC"
   },
   {
      "display_name":"Woodcock",
      "lat":55.0666999,
      "lon":-128.233299998999,
      "province":"BC"
   },
   {
      "display_name":"Woodsdale",
      "lat":50.049456901,
      "lon":-119.389763989999,
      "province":"BC"
   },
   {
      "display_name":"Woss",
      "lat":50.2167,
      "lon":-126.599999899999,
      "province":"BC"
   },
   {
      "display_name":"Woss Lake Park",
      "lat":50.0666669999999,
      "lon":-126.633333,
      "province":"BC"
   },
   {
      "display_name":"Wrinkly Face Park",
      "lat":50.041111,
      "lon":-119.311667,
      "province":"BC"
   },
   {
      "display_name":"Wycliffe",
      "lat":49.601325766,
      "lon":-115.860705427999,
      "province":"BC"
   },
   {
      "display_name":"Wynndel",
      "lat":49.1799999,
      "lon":-116.552499899999,
      "province":"BC"
   },
   {
      "display_name":"Yaculta",
      "lat":50.021695975,
      "lon":-125.194987804,
      "province":"BC"
   },
   {
      "display_name":"Yahk",
      "lat":49.085002265,
      "lon":-116.081892885999,
      "province":"BC"
   },
   {
      "display_name":"Yahk Park",
      "lat":49.0975,
      "lon":-116.095556,
      "province":"BC"
   },
   {
      "display_name":"Yaku",
      "lat":54.192331939,
      "lon":-133.003272805999,
      "province":"BC"
   },
   {
      "display_name":"Yalakom Park",
      "lat":51.09,
      "lon":-122.427778,
      "province":"BC"
   },
   {
      "display_name":"Yale",
      "lat":49.563164055,
      "lon":-121.429958858999,
      "province":"BC"
   },
   {
      "display_name":"Yankee Flats",
      "lat":50.516355361,
      "lon":-119.375488959,
      "province":"BC"
   },
   {
      "display_name":"Yard Creek Park",
      "lat":50.902778,
      "lon":-118.821389,
      "province":"BC"
   },
   {
      "display_name":"Yarksis",
      "lat":49.165363323,
      "lon":-125.970550162,
      "province":"BC"
   },
   {
      "display_name":"Yarrow",
      "lat":49.0832999,
      "lon":-122.049999898999,
      "province":"BC"
   },
   {
      "display_name":"Yekooche",
      "lat":54.599230532,
      "lon":-125.072416960999,
      "province":"BC"
   },
   {
      "display_name":"Ymir",
      "lat":49.2832999,
      "lon":-117.216699999999,
      "province":"BC"
   },
   {
      "display_name":"Yoho National Park of Canada",
      "lat":51.5,
      "lon":-116.5,
      "province":"BC"
   },
   {
      "display_name":"Youbou",
      "lat":48.872621734,
      "lon":-124.199317403999,
      "province":"BC"
   },
   {
      "display_name":"Yreka",
      "lat":50.463813592,
      "lon":-127.558050054999,
      "province":"BC"
   },
   {
      "display_name":"Yuquot",
      "lat":49.595724958,
      "lon":-126.623690449999,
      "province":"BC"
   },
   {
      "display_name":"Zamora",
      "lat":49.1499999,
      "lon":-118.983299899999,
      "province":"BC"
   },
   {
      "display_name":"Zeballos",
      "lat":49.987006182,
      "lon":-126.847156599999,
      "province":"BC"
   }
]