[
   {
      "display_name":"Albert Beach",
      "lat":50.6806,
      "lon":-96.5135999989999,
      "province":"MB"
   },
   {
      "display_name":"Alexander (17-10-21-W)",
      "lat":49.8299999,
      "lon":-100.295299999999,
      "province":"MB"
   },
   {
      "display_name":"Almdals Cove",
      "lat":50.470609962,
      "lon":-96.5711139529999,
      "province":"MB"
   },
   {
      "display_name":"Alonsa",
      "lat":50.7989,
      "lon":-98.9743999989999,
      "province":"MB"
   },
   {
      "display_name":"Altamont",
      "lat":49.3986,
      "lon":-98.4971998989999,
      "province":"MB"
   },
   {
      "display_name":"Altona",
      "lat":49.1046999,
      "lon":-97.5588999999999,
      "province":"MB"
   },
   {
      "display_name":"Amaranth",
      "lat":50.5956,
      "lon":-98.7382998999999,
      "province":"MB"
   },
   {
      "display_name":"Amisk Park Reserve",
      "lat":56.790556,
      "lon":-97.921389,
      "province":"MB"
   },
   {
      "display_name":"Angusville",
      "lat":50.7356,
      "lon":-101.020600000999,
      "province":"MB"
   },
   {
      "display_name":"Anola",
      "lat":49.8849999,
      "lon":-96.6356000009999,
      "province":"MB"
   },
   {
      "display_name":"Arborg",
      "lat":50.908279912,
      "lon":-97.2153070399999,
      "province":"MB"
   },
   {
      "display_name":"Arden",
      "lat":50.277731844,
      "lon":-99.2684500659999,
      "province":"MB"
   },
   {
      "display_name":"Argyle (7,18-14-1-E)",
      "lat":50.1811,
      "lon":-97.4543999999999,
      "province":"MB"
   },
   {
      "display_name":"Arnaud",
      "lat":49.2502999,
      "lon":-97.1038999999999,
      "province":"MB"
   },
   {
      "display_name":"Arnes",
      "lat":50.80259028,
      "lon":-96.9979934559999,
      "province":"MB"
   },
   {
      "display_name":"Arrow River",
      "lat":50.1438999,
      "lon":-100.893299899999,
      "province":"MB"
   },
   {
      "display_name":"Asessippi Provincial Park",
      "lat":50.9663889999999,
      "lon":-101.37972,
      "province":"MB"
   },
   {
      "display_name":"Ashern",
      "lat":51.1821999,
      "lon":-98.3455998999999,
      "province":"MB"
   },
   {
      "display_name":"Ashville",
      "lat":51.177070561,
      "lon":-100.297159099999,
      "province":"MB"
   },
   {
      "display_name":"Askikkapit",
      "lat":54.6197219999999,
      "lon":-95.935556,
      "province":"MB"
   },
   {
      "display_name":"Aspen Park",
      "lat":50.6381,
      "lon":-97.0296999999999,
      "province":"MB"
   },
   {
      "display_name":"Assiniboia",
      "lat":49.898718147,
      "lon":-97.2977931909999,
      "province":"MB"
   },
   {
      "display_name":"Atikaki Provincial Park",
      "lat":51.5,
      "lon":-95.516667,
      "province":"MB"
   },
   {
      "display_name":"Aubigny",
      "lat":49.4580999,
      "lon":-97.2457999999999,
      "province":"MB"
   },
   {
      "display_name":"Austin",
      "lat":49.9503,
      "lon":-98.9360999999999,
      "province":"MB"
   },
   {
      "display_name":"Bacon Ridge",
      "lat":51.0058,
      "lon":-99.0068998999999,
      "province":"MB"
   },
   {
      "display_name":"Baden",
      "lat":52.7803,
      "lon":-101.215799900999,
      "province":"MB"
   },
   {
      "display_name":"Bagot",
      "lat":49.9691999,
      "lon":-98.6299999999999,
      "province":"MB"
   },
   {
      "display_name":"Bakers Narrows",
      "lat":54.671460819,
      "lon":-101.659259210999,
      "province":"MB"
   },
   {
      "display_name":"Bakers Narrows Provincial Park",
      "lat":54.6711109999999,
      "lon":-101.675,
      "province":"MB"
   },
   {
      "display_name":"Baldur",
      "lat":49.385569779,
      "lon":-99.2470449029999,
      "province":"MB"
   },
   {
      "display_name":"Balmoral",
      "lat":50.2564,
      "lon":-97.3185998999999,
      "province":"MB"
   },
   {
      "display_name":"Barkfield",
      "lat":49.33291495,
      "lon":-96.8019544719999,
      "province":"MB"
   },
   {
      "display_name":"Barrows",
      "lat":52.8293999,
      "lon":-101.441099899999,
      "province":"MB"
   },
   {
      "display_name":"Basswood",
      "lat":50.3013999,
      "lon":-100.033599899999,
      "province":"MB"
   },
   {
      "display_name":"Beaudry Provincial Park",
      "lat":49.853889,
      "lon":-97.473333,
      "province":"MB"
   },
   {
      "display_name":"Beausejour",
      "lat":50.0622,
      "lon":-96.5160998999999,
      "province":"MB"
   },
   {
      "display_name":"Beaver Creek Provincial Park",
      "lat":51.3763889999999,
      "lon":-96.915556,
      "province":"MB"
   },
   {
      "display_name":"Bell Lake Provincial Park",
      "lat":52.5416669999999,
      "lon":-101.24139,
      "province":"MB"
   },
   {
      "display_name":"Belleview",
      "lat":49.6046999,
      "lon":-100.856699899999,
      "province":"MB"
   },
   {
      "display_name":"Bellsite",
      "lat":52.5941999,
      "lon":-101.059699999999,
      "province":"MB"
   },
   {
      "display_name":"Belmont",
      "lat":49.4093999,
      "lon":-99.4563998999999,
      "province":"MB"
   },
   {
      "display_name":"Bénard",
      "lat":49.9157999,
      "lon":-97.8466999999999,
      "province":"MB"
   },
   {
      "display_name":"Benito",
      "lat":51.9139,
      "lon":-101.548299898999,
      "province":"MB"
   },
   {
      "display_name":"Berens River",
      "lat":52.353424724,
      "lon":-97.0197643579999,
      "province":"MB"
   },
   {
      "display_name":"Beresford",
      "lat":49.7302999,
      "lon":-100.196899898999,
      "province":"MB"
   },
   {
      "display_name":"Bethany",
      "lat":50.3125,
      "lon":-99.7499998999999,
      "province":"MB"
   },
   {
      "display_name":"Betula Lake",
      "lat":50.0682999,
      "lon":-95.5785998999999,
      "province":"MB"
   },
   {
      "display_name":"Beulah",
      "lat":50.2605999,
      "lon":-101.036699999999,
      "province":"MB"
   },
   {
      "display_name":"Bield",
      "lat":51.2211,
      "lon":-101.153899999999,
      "province":"MB"
   },
   {
      "display_name":"Big Island Lake",
      "lat":54.697766128,
      "lon":-101.761319539999,
      "province":"MB"
   },
   {
      "display_name":"Big Whiteshell Lake",
      "lat":50.0853,
      "lon":-95.3732998999999,
      "province":"MB"
   },
   {
      "display_name":"Binscarth",
      "lat":50.6266999,
      "lon":-101.282799899999,
      "province":"MB"
   },
   {
      "display_name":"Birch Island Provincial Park",
      "lat":52.38972,
      "lon":-99.95472,
      "province":"MB"
   },
   {
      "display_name":"Birch Point Provincial Park",
      "lat":49.168611,
      "lon":-95.2325,
      "province":"MB"
   },
   {
      "display_name":"Birch River",
      "lat":52.3960999,
      "lon":-101.103899899999,
      "province":"MB"
   },
   {
      "display_name":"Bird",
      "lat":56.5035999,
      "lon":-94.2105999999999,
      "province":"MB"
   },
   {
      "display_name":"Bird River",
      "lat":50.4128,
      "lon":-95.6793999989999,
      "province":"MB"
   },
   {
      "display_name":"Birds Hill",
      "lat":49.975,
      "lon":-97.0052999989999,
      "province":"MB"
   },
   {
      "display_name":"Birds Hill Provincial Park",
      "lat":50.0244439999999,
      "lon":-96.883611,
      "province":"MB"
   },
   {
      "display_name":"Birdtail Sioux",
      "lat":50.2666999,
      "lon":-101.149999999999,
      "province":"MB"
   },
   {
      "display_name":"Birnie",
      "lat":50.4471999,
      "lon":-99.4399998999999,
      "province":"MB"
   },
   {
      "display_name":"Birtle",
      "lat":50.4225,
      "lon":-101.047499999999,
      "province":"MB"
   },
   {
      "display_name":"Bissett",
      "lat":51.022888336,
      "lon":-95.6753390069999,
      "province":"MB"
   },
   {
      "display_name":"Bloodvein",
      "lat":51.793332558,
      "lon":-96.6974666449999,
      "province":"MB"
   },
   {
      "display_name":"Blumenfeld",
      "lat":49.0502999,
      "lon":-97.9588999989999,
      "province":"MB"
   },
   {
      "display_name":"Blumenort",
      "lat":49.6044,
      "lon":-96.6888999999999,
      "province":"MB"
   },
   {
      "display_name":"Blumenort South",
      "lat":49.0036,
      "lon":-97.6555999999999,
      "province":"MB"
   },
   {
      "display_name":"Boggy Creek",
      "lat":51.535,
      "lon":-101.353599998999,
      "province":"MB"
   },
   {
      "display_name":"Boissevain",
      "lat":49.2306,
      "lon":-100.054999899999,
      "province":"MB"
   },
   {
      "display_name":"Bowsman",
      "lat":52.2357999,
      "lon":-101.207199899999,
      "province":"MB"
   },
   {
      "display_name":"Bradwardine",
      "lat":49.9956,
      "lon":-100.463599899999,
      "province":"MB"
   },
   {
      "display_name":"Brandon",
      "lat":49.8468999,
      "lon":-99.9521999989999,
      "province":"MB"
   },
   {
      "display_name":"Breezy Point",
      "lat":50.2717,
      "lon":-96.8491999999999,
      "province":"MB"
   },
   {
      "display_name":"Brereton Lake",
      "lat":49.9136,
      "lon":-95.5285999999999,
      "province":"MB"
   },
   {
      "display_name":"Brightstone",
      "lat":50.2827999,
      "lon":-96.1666998999999,
      "province":"MB"
   },
   {
      "display_name":"Broad Valley",
      "lat":50.9856,
      "lon":-97.6510998999999,
      "province":"MB"
   },
   {
      "display_name":"Brochet",
      "lat":57.886863166,
      "lon":-101.667925444999,
      "province":"MB"
   },
   {
      "display_name":"Brokenhead Reserve",
      "lat":50.371247837,
      "lon":-96.6216146709999,
      "province":"MB"
   },
   {
      "display_name":"Brookdale",
      "lat":50.0480999,
      "lon":-99.5635998989999,
      "province":"MB"
   },
   {
      "display_name":"Brunkild",
      "lat":49.5928,
      "lon":-97.5743998999999,
      "province":"MB"
   },
   {
      "display_name":"Bruxelles",
      "lat":49.4875,
      "lon":-98.9185999999999,
      "province":"MB"
   },
   {
      "display_name":"Buffalo Point",
      "lat":49.011742742,
      "lon":-95.2383619569999,
      "province":"MB"
   },
   {
      "display_name":"Burge Lake Provincial Park",
      "lat":56.9022219999999,
      "lon":-101.035,
      "province":"MB"
   },
   {
      "display_name":"Caddy Lake",
      "lat":49.8166999,
      "lon":-95.2257998999999,
      "province":"MB"
   },
   {
      "display_name":"Caliento",
      "lat":49.1335999,
      "lon":-96.4149998999999,
      "province":"MB"
   },
   {
      "display_name":"Camp Morton Provincial Park",
      "lat":50.71,
      "lon":-96.990278,
      "province":"MB"
   },
   {
      "display_name":"Camper",
      "lat":51.074627514,
      "lon":-98.2620283159999,
      "province":"MB"
   },
   {
      "display_name":"Camperville",
      "lat":51.986920998,
      "lon":-100.148671771999,
      "province":"MB"
   },
   {
      "display_name":"Carberry",
      "lat":49.868899999,
      "lon":-99.3593998999999,
      "province":"MB"
   },
   {
      "display_name":"Cardale",
      "lat":50.2366999,
      "lon":-100.321099999999,
      "province":"MB"
   },
   {
      "display_name":"Cardinal",
      "lat":49.4946999,
      "lon":-98.5549998989999,
      "province":"MB"
   },
   {
      "display_name":"Caribou River Provincial Park",
      "lat":59.56361,
      "lon":-96.66111,
      "province":"MB"
   },
   {
      "display_name":"Carlowrie",
      "lat":49.2519,
      "lon":-96.9618999999999,
      "province":"MB"
   },
   {
      "display_name":"Carman",
      "lat":49.504039937,
      "lon":-98.0036733429999,
      "province":"MB"
   },
   {
      "display_name":"Carrick",
      "lat":49.2431,
      "lon":-96.0505999989999,
      "province":"MB"
   },
   {
      "display_name":"Carroll",
      "lat":49.6074999,
      "lon":-100.031899899999,
      "province":"MB"
   },
   {
      "display_name":"Cartwright",
      "lat":49.095603965,
      "lon":-99.3399116469999,
      "province":"MB"
   },
   {
      "display_name":"Cayer",
      "lat":51.3030999,
      "lon":-99.1385998999999,
      "province":"MB"
   },
   {
      "display_name":"Channing",
      "lat":54.751659977,
      "lon":-101.828995953999,
      "province":"MB"
   },
   {
      "display_name":"Charleswood",
      "lat":49.8525,
      "lon":-97.2841999009999,
      "province":"MB"
   },
   {
      "display_name":"Chater",
      "lat":49.8672,
      "lon":-99.8313999999999,
      "province":"MB"
   },
   {
      "display_name":"Chatfield",
      "lat":50.7839,
      "lon":-97.5707998999999,
      "province":"MB"
   },
   {
      "display_name":"Chisel Lake",
      "lat":54.8388999,
      "lon":-100.115300000999,
      "province":"MB"
   },
   {
      "display_name":"Chortitz",
      "lat":49.1335999,
      "lon":-97.9752999999999,
      "province":"MB"
   },
   {
      "display_name":"Churchill",
      "lat":58.762498406,
      "lon":-94.1318509619999,
      "province":"MB"
   },
   {
      "display_name":"Clandeboye",
      "lat":50.2436,
      "lon":-96.9713998999999,
      "province":"MB"
   },
   {
      "display_name":"Clanwilliam",
      "lat":50.3618999,
      "lon":-99.8147000009999,
      "province":"MB"
   },
   {
      "display_name":"Clearwater",
      "lat":49.1335999,
      "lon":-99.0352998999999,
      "province":"MB"
   },
   {
      "display_name":"Clearwater Lake",
      "lat":53.976714845,
      "lon":-100.979754265999,
      "province":"MB"
   },
   {
      "display_name":"Clearwater Lake Provincial Park",
      "lat":54.083056,
      "lon":-101.07833,
      "province":"MB"
   },
   {
      "display_name":"Cloverleaf",
      "lat":49.9891999,
      "lon":-96.5680999999999,
      "province":"MB"
   },
   {
      "display_name":"Colvin Lake Provincial Park",
      "lat":59.6838899999999,
      "lon":-101.56111,
      "province":"MB"
   },
   {
      "display_name":"Cormorant",
      "lat":54.222984096,
      "lon":-100.597877533999,
      "province":"MB"
   },
   {
      "display_name":"Cottonwoods",
      "lat":49.8497,
      "lon":-99.7000000009999,
      "province":"MB"
   },
   {
      "display_name":"Coulter",
      "lat":49.0907999,
      "lon":-100.985299900999,
      "province":"MB"
   },
   {
      "display_name":"Cowan",
      "lat":52.033033521,
      "lon":-100.651768281999,
      "province":"MB"
   },
   {
      "display_name":"Cranberry Portage",
      "lat":54.584778105,
      "lon":-101.367096402999,
      "province":"MB"
   },
   {
      "display_name":"Crandall",
      "lat":50.15,
      "lon":-100.784399999999,
      "province":"MB"
   },
   {
      "display_name":"Crane River",
      "lat":51.534264004,
      "lon":-99.2871262499999,
      "province":"MB"
   },
   {
      "display_name":"Criddle/Vane Homestead Provincial Park",
      "lat":49.7086099999999,
      "lon":-99.60417,
      "province":"MB"
   },
   {
      "display_name":"Cromer",
      "lat":49.7313999,
      "lon":-101.234999999999,
      "province":"MB"
   },
   {
      "display_name":"Cross Lake (65-3-W)",
      "lat":54.624456136,
      "lon":-97.7647435839999,
      "province":"MB"
   },
   {
      "display_name":"Crystal City",
      "lat":49.1464,
      "lon":-98.9488999999999,
      "province":"MB"
   },
   {
      "display_name":"Culross",
      "lat":49.7141999,
      "lon":-97.9110999999999,
      "province":"MB"
   },
   {
      "display_name":"Cypress River",
      "lat":49.5558,
      "lon":-99.0866999989999,
      "province":"MB"
   },
   {
      "display_name":"Dacotah",
      "lat":49.8752999,
      "lon":-97.6385998999999,
      "province":"MB"
   },
   {
      "display_name":"Dakota Plains",
      "lat":49.8166999,
      "lon":-98.5263999999999,
      "province":"MB"
   },
   {
      "display_name":"Dakota Tipi",
      "lat":49.9472,
      "lon":-98.3499999999999,
      "province":"MB"
   },
   {
      "display_name":"Dallas",
      "lat":51.3922,
      "lon":-97.4849999009999,
      "province":"MB"
   },
   {
      "display_name":"Dand",
      "lat":49.3399999,
      "lon":-100.499999998999,
      "province":"MB"
   },
   {
      "display_name":"Darlingford",
      "lat":49.2038999,
      "lon":-98.3781000009999,
      "province":"MB"
   },
   {
      "display_name":"Dauphin",
      "lat":51.1494,
      "lon":-100.049399999999,
      "province":"MB"
   },
   {
      "display_name":"Dauphin Beach",
      "lat":51.134527656,
      "lon":-99.8486215559999,
      "province":"MB"
   },
   {
      "display_name":"Dauphin River",
      "lat":51.948439338,
      "lon":-98.0764674029999,
      "province":"MB"
   },
   {
      "display_name":"Dawson Bay",
      "lat":52.9766999,
      "lon":-100.979699999999,
      "province":"MB"
   },
   {
      "display_name":"Deerwood",
      "lat":49.3977779999999,
      "lon":-98.386389,
      "province":"MB"
   },
   {
      "display_name":"Deleau",
      "lat":49.5811,
      "lon":-100.575299999999,
      "province":"MB"
   },
   {
      "display_name":"Deloraine",
      "lat":49.191128795,
      "lon":-100.498259366999,
      "province":"MB"
   },
   {
      "display_name":"Delta Beach",
      "lat":50.1867,
      "lon":-98.3202998999999,
      "province":"MB"
   },
   {
      "display_name":"Denbeigh Point",
      "lat":52.8931,
      "lon":-99.7818999989999,
      "province":"MB"
   },
   {
      "display_name":"Dog Creek",
      "lat":50.9083,
      "lon":-98.5971999999999,
      "province":"MB"
   },
   {
      "display_name":"Domain",
      "lat":49.6142,
      "lon":-97.3213999999999,
      "province":"MB"
   },
   {
      "display_name":"Dominion City",
      "lat":49.1418999,
      "lon":-97.1555998999999,
      "province":"MB"
   },
   {
      "display_name":"Douglas Station",
      "lat":49.893011981,
      "lon":-99.7121378139999,
      "province":"MB"
   },
   {
      "display_name":"Dropmore",
      "lat":51.0168999,
      "lon":-101.442199999999,
      "province":"MB"
   },
   {
      "display_name":"Duck Bay",
      "lat":52.172729407,
      "lon":-100.154639030999,
      "province":"MB"
   },
   {
      "display_name":"Duck Mountain Provincial Park",
      "lat":51.666111,
      "lon":-100.91444,
      "province":"MB"
   },
   {
      "display_name":"Dufresne",
      "lat":49.7269,
      "lon":-96.7232999999999,
      "province":"MB"
   },
   {
      "display_name":"Dufrost",
      "lat":49.3582999,
      "lon":-97.0516999999999,
      "province":"MB"
   },
   {
      "display_name":"Dugald",
      "lat":49.88503333,
      "lon":-96.8421421539999,
      "province":"MB"
   },
   {
      "display_name":"Dunnottar",
      "lat":50.449181575,
      "lon":-96.9546293039999,
      "province":"MB"
   },
   {
      "display_name":"Dunrea",
      "lat":49.407780279,
      "lon":-99.7343237659999,
      "province":"MB"
   },
   {
      "display_name":"Durban",
      "lat":51.9292,
      "lon":-101.440599999999,
      "province":"MB"
   },
   {
      "display_name":"East Braintree",
      "lat":49.6193999,
      "lon":-95.6232999999999,
      "province":"MB"
   },
   {
      "display_name":"East Paint Lake Park Reserve",
      "lat":55.482222,
      "lon":-97.921944,
      "province":"MB"
   },
   {
      "display_name":"East Selkirk",
      "lat":50.1375,
      "lon":-96.8330998999999,
      "province":"MB"
   },
   {
      "display_name":"Easterville",
      "lat":53.097546619,
      "lon":-99.8175312699999,
      "province":"MB"
   },
   {
      "display_name":"Ebor",
      "lat":49.7410999,
      "lon":-101.331899899999,
      "province":"MB"
   },
   {
      "display_name":"Eddystone",
      "lat":51.0902999,
      "lon":-99.1497000009999,
      "province":"MB"
   },
   {
      "display_name":"Eden",
      "lat":50.3763999,
      "lon":-99.4693998999999,
      "province":"MB"
   },
   {
      "display_name":"Edrans",
      "lat":50.0525,
      "lon":-99.1374998999999,
      "province":"MB"
   },
   {
      "display_name":"Edwin",
      "lat":49.8893999,
      "lon":-98.5149999989999,
      "province":"MB"
   },
   {
      "display_name":"Elgin",
      "lat":49.4439,
      "lon":-100.269199999999,
      "province":"MB"
   },
   {
      "display_name":"Elie",
      "lat":49.9016999,
      "lon":-97.7582998999999,
      "province":"MB"
   },
   {
      "display_name":"Elk Island Provincial Park",
      "lat":50.7547219999999,
      "lon":-96.545833,
      "province":"MB"
   },
   {
      "display_name":"Elkhorn",
      "lat":49.9756,
      "lon":-101.239399999999,
      "province":"MB"
   },
   {
      "display_name":"Elm Creek",
      "lat":49.6755999,
      "lon":-97.9925000009999,
      "province":"MB"
   },
   {
      "display_name":"Elma",
      "lat":49.875,
      "lon":-95.9080998999999,
      "province":"MB"
   },
   {
      "display_name":"Elphinstone",
      "lat":50.5310999,
      "lon":-100.321899998999,
      "province":"MB"
   },
   {
      "display_name":"Elva",
      "lat":49.2161,
      "lon":-101.115299999999,
      "province":"MB"
   },
   {
      "display_name":"Emerson",
      "lat":49.0068999,
      "lon":-97.2147000009999,
      "province":"MB"
   },
   {
      "display_name":"Emesville",
      "lat":50.038611,
      "lon":-97.137222,
      "province":"MB"
   },
   {
      "display_name":"Erickson",
      "lat":50.4981,
      "lon":-99.9113999999999,
      "province":"MB"
   },
   {
      "display_name":"Eriksdale",
      "lat":50.8628,
      "lon":-98.1010998999999,
      "province":"MB"
   },
   {
      "display_name":"Ethelbert",
      "lat":51.5292,
      "lon":-100.393299999999,
      "province":"MB"
   },
   {
      "display_name":"Fairfax",
      "lat":49.4349999,
      "lon":-100.128299899999,
      "province":"MB"
   },
   {
      "display_name":"Fairford Reserve",
      "lat":51.595780456,
      "lon":-98.6919070279999,
      "province":"MB"
   },
   {
      "display_name":"Falcon Beach",
      "lat":49.6864,
      "lon":-95.3260999009999,
      "province":"MB"
   },
   {
      "display_name":"Fannystelle",
      "lat":49.7446999,
      "lon":-97.7777998999999,
      "province":"MB"
   },
   {
      "display_name":"Faulkner",
      "lat":51.421041884,
      "lon":-98.6623378149999,
      "province":"MB"
   },
   {
      "display_name":"Firdale",
      "lat":49.9821999,
      "lon":-99.1096999989999,
      "province":"MB"
   },
   {
      "display_name":"Fisher Bay",
      "lat":51.4777999,
      "lon":-97.2974998999999,
      "province":"MB"
   },
   {
      "display_name":"Fisher Bay Provincial Park",
      "lat":51.66111,
      "lon":-97.16917,
      "province":"MB"
   },
   {
      "display_name":"Fisher Branch",
      "lat":51.0831,
      "lon":-97.6199998999999,
      "province":"MB"
   },
   {
      "display_name":"Fisher River Cree Nation",
      "lat":51.437741513,
      "lon":-97.3910911189999,
      "province":"MB"
   },
   {
      "display_name":"Flin Flon",
      "lat":54.770444023,
      "lon":-101.857951243999,
      "province":"MB"
   },
   {
      "display_name":"Fork River",
      "lat":51.5116999,
      "lon":-100.020299900999,
      "province":"MB"
   },
   {
      "display_name":"Forrest",
      "lat":49.9664,
      "lon":-99.9366999989999,
      "province":"MB"
   },
   {
      "display_name":"Fort Alexander",
      "lat":50.614827004,
      "lon":-96.3093750929999,
      "province":"MB"
   },
   {
      "display_name":"Fort Garry",
      "lat":49.8413999,
      "lon":-97.1499998999999,
      "province":"MB"
   },
   {
      "display_name":"Fortier",
      "lat":49.9349999,
      "lon":-97.9160999999999,
      "province":"MB"
   },
   {
      "display_name":"Foxwarren",
      "lat":50.5172,
      "lon":-101.151399900999,
      "province":"MB"
   },
   {
      "display_name":"Franklin (6-15-16-W)",
      "lat":50.2441999,
      "lon":-99.6646998999999,
      "province":"MB"
   },
   {
      "display_name":"Fraserwood",
      "lat":50.640639115,
      "lon":-97.2162112519999,
      "province":"MB"
   },
   {
      "display_name":"Friedensruh",
      "lat":49.1335999,
      "lon":-97.8682999009999,
      "province":"MB"
   },
   {
      "display_name":"Gambler",
      "lat":50.594760612,
      "lon":-101.382677310999,
      "province":"MB"
   },
   {
      "display_name":"Garden Hill",
      "lat":53.8832999,
      "lon":-94.6488999989999,
      "province":"MB"
   },
   {
      "display_name":"Gardenton",
      "lat":49.0868999,
      "lon":-96.6949998999999,
      "province":"MB"
   },
   {
      "display_name":"Garland",
      "lat":51.6532999,
      "lon":-100.459399899999,
      "province":"MB"
   },
   {
      "display_name":"Garson",
      "lat":50.0778,
      "lon":-96.7066998999999,
      "province":"MB"
   },
   {
      "display_name":"Gilbert Plains",
      "lat":51.147721346,
      "lon":-100.487127312999,
      "province":"MB"
   },
   {
      "display_name":"Gillam",
      "lat":56.353780576,
      "lon":-94.7306755929999,
      "province":"MB"
   },
   {
      "display_name":"Gimli",
      "lat":50.6335999,
      "lon":-96.9899999989999,
      "province":"MB"
   },
   {
      "display_name":"Ginew",
      "lat":49.1402999,
      "lon":-97.2431000009999,
      "province":"MB"
   },
   {
      "display_name":"Giroux",
      "lat":49.5744,
      "lon":-96.5671998999999,
      "province":"MB"
   },
   {
      "display_name":"Gladstone",
      "lat":50.2257999,
      "lon":-98.9499998989999,
      "province":"MB"
   },
   {
      "display_name":"Glen Bay",
      "lat":50.7618999,
      "lon":-96.9813999989999,
      "province":"MB"
   },
   {
      "display_name":"Glenboro",
      "lat":49.5558,
      "lon":-99.2910998999999,
      "province":"MB"
   },
   {
      "display_name":"Glenella",
      "lat":50.5568999,
      "lon":-99.1927999009999,
      "province":"MB"
   },
   {
      "display_name":"Glenora",
      "lat":49.2521999,
      "lon":-99.1543999999999,
      "province":"MB"
   },
   {
      "display_name":"Gnadenfeld",
      "lat":49.0738999,
      "lon":-97.5266999009999,
      "province":"MB"
   },
   {
      "display_name":"Gnadenthal",
      "lat":49.0980999,
      "lon":-97.7968998999999,
      "province":"MB"
   },
   {
      "display_name":"Gods Lake",
      "lat":54.668034216,
      "lon":-94.1508262529999,
      "province":"MB"
   },
   {
      "display_name":"Gods Lake Narrows",
      "lat":54.555038446,
      "lon":-94.4847447399999,
      "province":"MB"
   },
   {
      "display_name":"Gods River",
      "lat":54.834610702,
      "lon":-94.0620697439999,
      "province":"MB"
   },
   {
      "display_name":"Goodlands",
      "lat":49.0944,
      "lon":-100.603899999999,
      "province":"MB"
   },
   {
      "display_name":"Grahamdale",
      "lat":51.3922,
      "lon":-98.4997000009999,
      "province":"MB"
   },
   {
      "display_name":"Grand Beach",
      "lat":50.554359365,
      "lon":-96.6308648729999,
      "province":"MB"
   },
   {
      "display_name":"Grand Beach Provincial Park",
      "lat":50.5680558999999,
      "lon":-96.5616669,
      "province":"MB"
   },
   {
      "display_name":"Grand Marais",
      "lat":50.5416999,
      "lon":-96.6193998999999,
      "province":"MB"
   },
   {
      "display_name":"Grand Rapids",
      "lat":53.18073808,
      "lon":-99.2794417819999,
      "province":"MB"
   },
   {
      "display_name":"Grand Rapids Provincial Park",
      "lat":53.1419439999999,
      "lon":-99.285,
      "province":"MB"
   },
   {
      "display_name":"Grand Valley Provincial Park",
      "lat":49.873333,
      "lon":-100.08444,
      "province":"MB"
   },
   {
      "display_name":"Grande Pointe",
      "lat":49.774196495,
      "lon":-97.0337905849999,
      "province":"MB"
   },
   {
      "display_name":"Grandview",
      "lat":51.1741999,
      "lon":-100.697799999999,
      "province":"MB"
   },
   {
      "display_name":"Granville Lake",
      "lat":56.2311,
      "lon":-100.568599899999,
      "province":"MB"
   },
   {
      "display_name":"Grass River Provincial Park",
      "lat":54.666389,
      "lon":-100.83083,
      "province":"MB"
   },
   {
      "display_name":"Graysville",
      "lat":49.5091999,
      "lon":-98.1574999999999,
      "province":"MB"
   },
   {
      "display_name":"Great Falls",
      "lat":50.4593999,
      "lon":-96.0121998999999,
      "province":"MB"
   },
   {
      "display_name":"Greenland",
      "lat":49.6338999,
      "lon":-96.7285998999999,
      "province":"MB"
   },
   {
      "display_name":"Greenway",
      "lat":49.3652999,
      "lon":-99.1152998999999,
      "province":"MB"
   },
   {
      "display_name":"Gregg",
      "lat":49.9793999,
      "lon":-99.2963999999999,
      "province":"MB"
   },
   {
      "display_name":"Gretna",
      "lat":49.0077999,
      "lon":-97.5617000009999,
      "province":"MB"
   },
   {
      "display_name":"Griswold",
      "lat":49.7749999,
      "lon":-100.470799999999,
      "province":"MB"
   },
   {
      "display_name":"Grosse Isle",
      "lat":50.0635999,
      "lon":-97.4416998999999,
      "province":"MB"
   },
   {
      "display_name":"Grunthal",
      "lat":49.4067,
      "lon":-96.8580999009999,
      "province":"MB"
   },
   {
      "display_name":"Gull Harbour",
      "lat":51.198625284,
      "lon":-96.6184499619999,
      "province":"MB"
   },
   {
      "display_name":"Gunton",
      "lat":50.3181,
      "lon":-97.2661000009999,
      "province":"MB"
   },
   {
      "display_name":"Gypsumville",
      "lat":51.7689,
      "lon":-98.6347000009999,
      "province":"MB"
   },
   {
      "display_name":"Hacienda",
      "lat":49.8606,
      "lon":-97.3635999999999,
      "province":"MB"
   },
   {
      "display_name":"Hadashville",
      "lat":49.6767,
      "lon":-95.9074999989999,
      "province":"MB"
   },
   {
      "display_name":"Hallboro",
      "lat":50.1464,
      "lon":-99.4482998999999,
      "province":"MB"
   },
   {
      "display_name":"Hamiota",
      "lat":50.1805999,
      "lon":-100.596099999999,
      "province":"MB"
   },
   {
      "display_name":"Harding",
      "lat":49.9902999,
      "lon":-100.532499999999,
      "province":"MB"
   },
   {
      "display_name":"Hargrave",
      "lat":49.9172,
      "lon":-101.071899899999,
      "province":"MB"
   },
   {
      "display_name":"Harrowby",
      "lat":50.753591867,
      "lon":-101.447755110999,
      "province":"MB"
   },
   {
      "display_name":"Hartney",
      "lat":49.4808,
      "lon":-100.522499899999,
      "province":"MB"
   },
   {
      "display_name":"Harwill",
      "lat":51.2918999,
      "lon":-97.6860999999999,
      "province":"MB"
   },
   {
      "display_name":"Haskett",
      "lat":49.0182999,
      "lon":-97.9721999989999,
      "province":"MB"
   },
   {
      "display_name":"Haywood",
      "lat":49.6666999,
      "lon":-98.1963999999999,
      "province":"MB"
   },
   {
      "display_name":"Hazelridge",
      "lat":49.9657999,
      "lon":-96.7152998999999,
      "province":"MB"
   },
   {
      "display_name":"Headingley",
      "lat":49.8752999,
      "lon":-97.4082998999999,
      "province":"MB"
   },
   {
      "display_name":"Hecla",
      "lat":51.141963153,
      "lon":-96.6573951489999,
      "province":"MB"
   },
   {
      "display_name":"Hecla/Grindstone Provincial Park",
      "lat":51.185,
      "lon":-96.581667,
      "province":"MB"
   },
   {
      "display_name":"Helston",
      "lat":50.1302999,
      "lon":-99.1088999999999,
      "province":"MB"
   },
   {
      "display_name":"Herb Lake",
      "lat":54.777260589,
      "lon":-99.7700474209999,
      "province":"MB"
   },
   {
      "display_name":"High Bluff",
      "lat":50.0189,
      "lon":-98.1480999999999,
      "province":"MB"
   },
   {
      "display_name":"Hilbre",
      "lat":51.5033,
      "lon":-98.5932999999999,
      "province":"MB"
   },
   {
      "display_name":"Hillside Beach",
      "lat":50.6682999,
      "lon":-96.5635998999999,
      "province":"MB"
   },
   {
      "display_name":"Hilton",
      "lat":49.5060999,
      "lon":-99.5249998999999,
      "province":"MB"
   },
   {
      "display_name":"Hnausa",
      "lat":50.9049999,
      "lon":-96.9955998989999,
      "province":"MB"
   },
   {
      "display_name":"Hnausa Beach Provincial Park",
      "lat":50.9002779999999,
      "lon":-96.992222,
      "province":"MB"
   },
   {
      "display_name":"Hochfeld",
      "lat":49.074756524,
      "lon":-97.9359313239999,
      "province":"MB"
   },
   {
      "display_name":"Hodgson",
      "lat":51.2149999,
      "lon":-97.5716999999999,
      "province":"MB"
   },
   {
      "display_name":"Holland",
      "lat":49.5975,
      "lon":-98.8793998999999,
      "province":"MB"
   },
   {
      "display_name":"Hollow Water",
      "lat":51.188134345,
      "lon":-96.3031941789999,
      "province":"MB"
   },
   {
      "display_name":"Holmfield",
      "lat":49.1355999,
      "lon":-99.4855999989999,
      "province":"MB"
   },
   {
      "display_name":"Homebrook",
      "lat":51.7402999,
      "lon":-98.8827998999999,
      "province":"MB"
   },
   {
      "display_name":"Homewood",
      "lat":49.5086,
      "lon":-97.8641999999999,
      "province":"MB"
   },
   {
      "display_name":"Horndean",
      "lat":49.1924999,
      "lon":-97.6556000009999,
      "province":"MB"
   },
   {
      "display_name":"Hyland Provincial Park",
      "lat":49.9836109999999,
      "lon":-97.049722,
      "province":"MB"
   },
   {
      "display_name":"Ile des Chênes",
      "lat":49.7106,
      "lon":-96.9882998999999,
      "province":"MB"
   },
   {
      "display_name":"Ilford",
      "lat":56.06824108,
      "lon":-95.6001075999999,
      "province":"MB"
   },
   {
      "display_name":"Indian Bay",
      "lat":49.625278,
      "lon":-95.196667,
      "province":"MB"
   },
   {
      "display_name":"Indian Birch",
      "lat":52.514248153,
      "lon":-100.863043915999,
      "province":"MB"
   },
   {
      "display_name":"Ingelow",
      "lat":49.9902999,
      "lon":-99.6082999999999,
      "province":"MB"
   },
   {
      "display_name":"Inglis",
      "lat":50.9447,
      "lon":-101.251099998999,
      "province":"MB"
   },
   {
      "display_name":"Inwood",
      "lat":50.5064,
      "lon":-97.4955998999999,
      "province":"MB"
   },
   {
      "display_name":"Island Lake",
      "lat":53.860594333,
      "lon":-94.6630100389999,
      "province":"MB"
   },
   {
      "display_name":"Jackhead",
      "lat":51.916947505,
      "lon":-97.3094186809999,
      "province":"MB"
   },
   {
      "display_name":"Johnsonkank",
      "lat":53.7574999999999,
      "lon":-93.867778,
      "province":"MB"
   },
   {
      "display_name":"Justice",
      "lat":49.9960999,
      "lon":-99.7991998989999,
      "province":"MB"
   },
   {
      "display_name":"Kaleida",
      "lat":49.1288999,
      "lon":-98.4677999999999,
      "province":"MB"
   },
   {
      "display_name":"Kane",
      "lat":49.3543999,
      "lon":-97.7271998999999,
      "province":"MB"
   },
   {
      "display_name":"Kapeeseewinik",
      "lat":54.5519439999999,
      "lon":-95.969167,
      "province":"MB"
   },
   {
      "display_name":"Katrime",
      "lat":50.0817,
      "lon":-98.7893998989999,
      "province":"MB"
   },
   {
      "display_name":"Keeseekoowenin",
      "lat":50.5443999,
      "lon":-100.298599898999,
      "province":"MB"
   },
   {
      "display_name":"Kelwood",
      "lat":50.6246999,
      "lon":-99.4616999999999,
      "province":"MB"
   },
   {
      "display_name":"Kemnay",
      "lat":49.8416999,
      "lon":-100.134199899999,
      "province":"MB"
   },
   {
      "display_name":"Kenton",
      "lat":49.9874999,
      "lon":-100.614199899999,
      "province":"MB"
   },
   {
      "display_name":"Kenville",
      "lat":52.0002999,
      "lon":-101.323599999999,
      "province":"MB"
   },
   {
      "display_name":"Kettle Stones Provincial Park",
      "lat":52.359167,
      "lon":-100.59528,
      "province":"MB"
   },
   {
      "display_name":"Keyes",
      "lat":50.2418999,
      "lon":-99.1218999009999,
      "province":"MB"
   },
   {
      "display_name":"Killarney-Turtle Mountain",
      "lat":49.181389,
      "lon":-99.6658329999999,
      "province":"MB"
   },
   {
      "display_name":"Kinosota",
      "lat":50.904494085,
      "lon":-98.8753816789999,
      "province":"MB"
   },
   {
      "display_name":"Kinusisipi",
      "lat":53.945473638,
      "lon":-97.8595975629999,
      "province":"MB"
   },
   {
      "display_name":"Kirkella",
      "lat":50.0238999,
      "lon":-101.365299999999,
      "province":"MB"
   },
   {
      "display_name":"Kirkness",
      "lat":50.0783,
      "lon":-96.8618999009999,
      "province":"MB"
   },
   {
      "display_name":"Kitchisakik",
      "lat":54.6649999999999,
      "lon":-93.328333,
      "province":"MB"
   },
   {
      "display_name":"Kleefeld",
      "lat":49.5013999,
      "lon":-96.8746998999999,
      "province":"MB"
   },
   {
      "display_name":"Kola",
      "lat":49.8432999,
      "lon":-101.370599898999,
      "province":"MB"
   },
   {
      "display_name":"Komarno",
      "lat":50.5067,
      "lon":-97.2505998999999,
      "province":"MB"
   },
   {
      "display_name":"La Broquerie",
      "lat":49.520698757,
      "lon":-96.5054881779999,
      "province":"MB"
   },
   {
      "display_name":"La Coulée",
      "lat":49.657354954,
      "lon":-96.5784320179999,
      "province":"MB"
   },
   {
      "display_name":"La Rivière",
      "lat":49.236775167,
      "lon":-98.6799004209999,
      "province":"MB"
   },
   {
      "display_name":"La Salle",
      "lat":49.6930999,
      "lon":-97.2638998989999,
      "province":"MB"
   },
   {
      "display_name":"Lac Brochet",
      "lat":58.618855787,
      "lon":-101.487410752999,
      "province":"MB"
   },
   {
      "display_name":"Lac du Bonnet",
      "lat":50.25170825,
      "lon":-96.0586868679999,
      "province":"MB"
   },
   {
      "display_name":"Ladywood",
      "lat":50.180318291,
      "lon":-96.4967935169999,
      "province":"MB"
   },
   {
      "display_name":"Lake Forest",
      "lat":50.7393999,
      "lon":-96.9893999009999,
      "province":"MB"
   },
   {
      "display_name":"Lake Francis",
      "lat":50.3008,
      "lon":-97.8060999999999,
      "province":"MB"
   },
   {
      "display_name":"Lake Manitoba",
      "lat":50.9833329999999,
      "lon":-98.8,
      "province":"MB"
   },
   {
      "display_name":"Lake St. Andrew Provincial Park",
      "lat":51.680833,
      "lon":-97.404444,
      "province":"MB"
   },
   {
      "display_name":"Lake St. George Provincial Park",
      "lat":51.727778,
      "lon":-97.429444,
      "province":"MB"
   },
   {
      "display_name":"Lake St. Martin",
      "lat":51.7471999,
      "lon":-98.4193999999999,
      "province":"MB"
   },
   {
      "display_name":"Lakeshore Heights",
      "lat":50.4943999,
      "lon":-96.5946999999999,
      "province":"MB"
   },
   {
      "display_name":"Landmark",
      "lat":49.6716999,
      "lon":-96.8216998999999,
      "province":"MB"
   },
   {
      "display_name":"Langruth",
      "lat":50.384378299,
      "lon":-98.6778135049999,
      "province":"MB"
   },
   {
      "display_name":"Lauder",
      "lat":49.3905999,
      "lon":-100.676899899999,
      "province":"MB"
   },
   {
      "display_name":"Laurier",
      "lat":50.8897,
      "lon":-99.5602999999999,
      "province":"MB"
   },
   {
      "display_name":"Lavenham",
      "lat":49.7960999,
      "lon":-98.7193999999999,
      "province":"MB"
   },
   {
      "display_name":"Lavinia",
      "lat":50.2744,
      "lon":-100.668099999999,
      "province":"MB"
   },
   {
      "display_name":"Leaf Rapids",
      "lat":56.45936464,
      "lon":-100.005092552999,
      "province":"MB"
   },
   {
      "display_name":"Lee River",
      "lat":50.290603061,
      "lon":-95.8629059029999,
      "province":"MB"
   },
   {
      "display_name":"Lena",
      "lat":49.0711,
      "lon":-99.6616999999999,
      "province":"MB"
   },
   {
      "display_name":"Lenore",
      "lat":49.9582999,
      "lon":-100.751699899999,
      "province":"MB"
   },
   {
      "display_name":"Lenswood",
      "lat":52.3206,
      "lon":-100.951899899999,
      "province":"MB"
   },
   {
      "display_name":"Lester Beach",
      "lat":50.5857999,
      "lon":-96.5755999989999,
      "province":"MB"
   },
   {
      "display_name":"Letellier",
      "lat":49.1358,
      "lon":-97.3030999989999,
      "province":"MB"
   },
   {
      "display_name":"Libau",
      "lat":50.2689,
      "lon":-96.7191998999999,
      "province":"MB"
   },
   {
      "display_name":"Linden",
      "lat":49.665,
      "lon":-96.8749999999999,
      "province":"MB"
   },
   {
      "display_name":"Little Black River",
      "lat":50.829926405,
      "lon":-96.3115474179999,
      "province":"MB"
   },
   {
      "display_name":"Little Grand Rapids",
      "lat":52.0361,
      "lon":-95.4610999989999,
      "province":"MB"
   },
   {
      "display_name":"Little Limestone Lake Provincial Park",
      "lat":53.76667,
      "lon":-99.33361,
      "province":"MB"
   },
   {
      "display_name":"Little Saskatchewan",
      "lat":51.6801658,
      "lon":-98.5694536529999,
      "province":"MB"
   },
   {
      "display_name":"Lockport",
      "lat":50.0830999,
      "lon":-96.9443999999999,
      "province":"MB"
   },
   {
      "display_name":"Lockport Provincial Park",
      "lat":50.085833,
      "lon":-96.936389,
      "province":"MB"
   },
   {
      "display_name":"Long Plain",
      "lat":49.8431,
      "lon":-98.4749998999999,
      "province":"MB"
   },
   {
      "display_name":"Loon Straits",
      "lat":51.526666727,
      "lon":-96.5792396009999,
      "province":"MB"
   },
   {
      "display_name":"Lorette",
      "lat":49.7391999,
      "lon":-96.8716998999999,
      "province":"MB"
   },
   {
      "display_name":"Lowe Farm",
      "lat":49.3546999,
      "lon":-97.5888999989999,
      "province":"MB"
   },
   {
      "display_name":"Lundar",
      "lat":50.695522631,
      "lon":-98.0358335579999,
      "province":"MB"
   },
   {
      "display_name":"Lundar Beach",
      "lat":50.7299999,
      "lon":-98.2835998989999,
      "province":"MB"
   },
   {
      "display_name":"Lundar Beach Provincial Park",
      "lat":50.7241669999999,
      "lon":-98.272778,
      "province":"MB"
   },
   {
      "display_name":"Lyleton",
      "lat":49.0578,
      "lon":-101.177799999999,
      "province":"MB"
   },
   {
      "display_name":"Lynn Lake",
      "lat":56.8516999,
      "lon":-101.046699999999,
      "province":"MB"
   },
   {
      "display_name":"Macdonald (35-12-8-W)",
      "lat":50.059562653,
      "lon":-98.4649381539999,
      "province":"MB"
   },
   {
      "display_name":"MacGregor",
      "lat":49.9660999,
      "lon":-98.7785999989999,
      "province":"MB"
   },
   {
      "display_name":"Mafeking",
      "lat":52.6836,
      "lon":-101.109999999999,
      "province":"MB"
   },
   {
      "display_name":"Makaroff",
      "lat":51.3507999,
      "lon":-101.509199999999,
      "province":"MB"
   },
   {
      "display_name":"Makinak",
      "lat":50.979828319,
      "lon":-99.6618974419999,
      "province":"MB"
   },
   {
      "display_name":"Mallard",
      "lat":51.9530999,
      "lon":-99.5588999999999,
      "province":"MB"
   },
   {
      "display_name":"Malonton",
      "lat":50.5747,
      "lon":-97.2153000009999,
      "province":"MB"
   },
   {
      "display_name":"Manigotagan",
      "lat":51.111085844,
      "lon":-96.3024863029999,
      "province":"MB"
   },
   {
      "display_name":"Manigotagan River Provincial Park",
      "lat":51.01389,
      "lon":-96.04417,
      "province":"MB"
   },
   {
      "display_name":"Manipogo Provincial Park",
      "lat":51.516667,
      "lon":-99.549722,
      "province":"MB"
   },
   {
      "display_name":"Manitou",
      "lat":49.2406,
      "lon":-98.5366999009999,
      "province":"MB"
   },
   {
      "display_name":"Marchand",
      "lat":49.4443999,
      "lon":-96.3860999999999,
      "province":"MB"
   },
   {
      "display_name":"Marchand Provincial Park",
      "lat":49.4325,
      "lon":-96.274722,
      "province":"MB"
   },
   {
      "display_name":"Margaret",
      "lat":49.4056,
      "lon":-99.8557998999999,
      "province":"MB"
   },
   {
      "display_name":"Margaret Bruce Provincial Park",
      "lat":50.818056,
      "lon":-98.8025,
      "province":"MB"
   },
   {
      "display_name":"Mariapolis",
      "lat":49.3624999,
      "lon":-98.9888998999999,
      "province":"MB"
   },
   {
      "display_name":"Matawak",
      "lat":54.583056,
      "lon":-93.400556,
      "province":"MB"
   },
   {
      "display_name":"Matheson Island",
      "lat":51.7410999,
      "lon":-96.9221999999999,
      "province":"MB"
   },
   {
      "display_name":"Matlock",
      "lat":50.4339,
      "lon":-96.9638999999999,
      "province":"MB"
   },
   {
      "display_name":"Mayfeld",
      "lat":50.1183,
      "lon":-98.9993998999999,
      "province":"MB"
   },
   {
      "display_name":"McAuley",
      "lat":50.2622,
      "lon":-101.388599899999,
      "province":"MB"
   },
   {
      "display_name":"McCreary",
      "lat":50.7731,
      "lon":-99.4921999999999,
      "province":"MB"
   },
   {
      "display_name":"McTavish",
      "lat":49.4588999,
      "lon":-97.3688998999999,
      "province":"MB"
   },
   {
      "display_name":"Meadow Portage",
      "lat":51.6680999,
      "lon":-99.6071999999999,
      "province":"MB"
   },
   {
      "display_name":"Medora",
      "lat":49.255988314,
      "lon":-100.696058354999,
      "province":"MB"
   },
   {
      "display_name":"Meleb",
      "lat":50.7286,
      "lon":-97.2166998999999,
      "province":"MB"
   },
   {
      "display_name":"Melita",
      "lat":49.274409754,
      "lon":-100.987223960999,
      "province":"MB"
   },
   {
      "display_name":"Menzie",
      "lat":50.5314,
      "lon":-100.490299998999,
      "province":"MB"
   },
   {
      "display_name":"Miami",
      "lat":49.3710999,
      "lon":-98.2438998999999,
      "province":"MB"
   },
   {
      "display_name":"Middlebro",
      "lat":49.020452512,
      "lon":-95.4389649759999,
      "province":"MB"
   },
   {
      "display_name":"Millwood",
      "lat":50.6958,
      "lon":-101.407799999999,
      "province":"MB"
   },
   {
      "display_name":"Milner Ridge",
      "lat":50.1716999,
      "lon":-96.2385999989999,
      "province":"MB"
   },
   {
      "display_name":"Miniota",
      "lat":50.142910145,
      "lon":-101.035233438999,
      "province":"MB"
   },
   {
      "display_name":"Minitonas",
      "lat":52.0860999,
      "lon":-101.039199898999,
      "province":"MB"
   },
   {
      "display_name":"Minnedosa",
      "lat":50.2452999,
      "lon":-99.8427998999999,
      "province":"MB"
   },
   {
      "display_name":"Minto (19-5-19-W)",
      "lat":49.4075,
      "lon":-100.021099899999,
      "province":"MB"
   },
   {
      "display_name":"Mitchell",
      "lat":49.5342,
      "lon":-96.7618999999999,
      "province":"MB"
   },
   {
      "display_name":"Molson",
      "lat":50.0244,
      "lon":-96.3077999009999,
      "province":"MB"
   },
   {
      "display_name":"Moore Park",
      "lat":50.0663999,
      "lon":-99.7793999009999,
      "province":"MB"
   },
   {
      "display_name":"Moose Lake",
      "lat":53.694567848,
      "lon":-100.383689642999,
      "province":"MB"
   },
   {
      "display_name":"Moose Lake Provincial Park",
      "lat":49.211667,
      "lon":-95.316111,
      "province":"MB"
   },
   {
      "display_name":"Moosehorn",
      "lat":51.2913999,
      "lon":-98.4227998999999,
      "province":"MB"
   },
   {
      "display_name":"Moostissoostikwan",
      "lat":53.852209775,
      "lon":-101.335105790999,
      "province":"MB"
   },
   {
      "display_name":"Morden",
      "lat":49.1919,
      "lon":-98.1005999999999,
      "province":"MB"
   },
   {
      "display_name":"Morris",
      "lat":49.355,
      "lon":-97.3649998989999,
      "province":"MB"
   },
   {
      "display_name":"Morweena",
      "lat":50.995,
      "lon":-97.4088998999999,
      "province":"MB"
   },
   {
      "display_name":"Mulvihill",
      "lat":50.9666999,
      "lon":-98.1796999999999,
      "province":"MB"
   },
   {
      "display_name":"Myrtle",
      "lat":49.3533,
      "lon":-97.8366999009999,
      "province":"MB"
   },
   {
      "display_name":"Napinka",
      "lat":49.3225,
      "lon":-100.841099899999,
      "province":"MB"
   },
   {
      "display_name":"Narcisse",
      "lat":50.6833,
      "lon":-97.5296999989999,
      "province":"MB"
   },
   {
      "display_name":"Neelin",
      "lat":49.2294,
      "lon":-99.3478000009999,
      "province":"MB"
   },
   {
      "display_name":"Neepawa",
      "lat":50.2288999,
      "lon":-99.4655999999999,
      "province":"MB"
   },
   {
      "display_name":"Nelson House",
      "lat":55.7832999,
      "lon":-98.8882999009999,
      "province":"MB"
   },
   {
      "display_name":"Nesbitt",
      "lat":49.6014,
      "lon":-99.8627998999999,
      "province":"MB"
   },
   {
      "display_name":"Neso Lake Provincial Park",
      "lat":54.6572219999999,
      "lon":-101.54694,
      "province":"MB"
   },
   {
      "display_name":"Netley",
      "lat":50.3582999,
      "lon":-96.9571999999999,
      "province":"MB"
   },
   {
      "display_name":"Netley Creek Provincial Park",
      "lat":50.288056,
      "lon":-96.863889,
      "province":"MB"
   },
   {
      "display_name":"Neubergthal",
      "lat":49.0746999,
      "lon":-97.4810998999999,
      "province":"MB"
   },
   {
      "display_name":"Neuenberg",
      "lat":49.089444,
      "lon":-97.907778,
      "province":"MB"
   },
   {
      "display_name":"New Bothwell",
      "lat":49.5905999,
      "lon":-96.8902998999999,
      "province":"MB"
   },
   {
      "display_name":"Newdale",
      "lat":50.3516999,
      "lon":-100.203299999999,
      "province":"MB"
   },
   {
      "display_name":"Newton",
      "lat":49.9274999,
      "lon":-98.0780998989999,
      "province":"MB"
   },
   {
      "display_name":"Ninette",
      "lat":49.401194925,
      "lon":-99.6312653559999,
      "province":"MB"
   },
   {
      "display_name":"Ninga",
      "lat":49.2275,
      "lon":-99.8894000009999,
      "province":"MB"
   },
   {
      "display_name":"Niverville",
      "lat":49.6056,
      "lon":-97.0416998999999,
      "province":"MB"
   },
   {
      "display_name":"Nopiming Provincial Park",
      "lat":50.633889,
      "lon":-95.327222,
      "province":"MB"
   },
   {
      "display_name":"Norris Lake Provincial Park",
      "lat":50.482222,
      "lon":-97.417222,
      "province":"MB"
   },
   {
      "display_name":"North Steeprock Lake Provincial Park",
      "lat":52.599444,
      "lon":-101.34972,
      "province":"MB"
   },
   {
      "display_name":"Norway House",
      "lat":53.980405324,
      "lon":-97.8272974949999,
      "province":"MB"
   },
   {
      "display_name":"Notre-Dame-de-Lourdes",
      "lat":49.5331,
      "lon":-98.5577999999999,
      "province":"MB"
   },
   {
      "display_name":"Nueltin Lake Provincial Park",
      "lat":59.6324999999999,
      "lon":-99.57833,
      "province":"MB"
   },
   {
      "display_name":"Numaykoos Lake Provincial Park",
      "lat":57.8652779999999,
      "lon":-95.963333,
      "province":"MB"
   },
   {
      "display_name":"Nutimik Lake",
      "lat":50.1474999,
      "lon":-95.6913998989999,
      "province":"MB"
   },
   {
      "display_name":"Oak Bluff",
      "lat":49.7735999,
      "lon":-97.3213999999999,
      "province":"MB"
   },
   {
      "display_name":"Oak Lake",
      "lat":49.769287362,
      "lon":-100.634017612999,
      "province":"MB"
   },
   {
      "display_name":"Oak Lake Beach",
      "lat":49.6807999,
      "lon":-100.712799899999,
      "province":"MB"
   },
   {
      "display_name":"Oak Lake Provincial Park",
      "lat":49.6811103999999,
      "lon":-100.7098962,
      "province":"MB"
   },
   {
      "display_name":"Oak Lake Reserve",
      "lat":49.6208,
      "lon":-100.941699900999,
      "province":"MB"
   },
   {
      "display_name":"Oak Point",
      "lat":50.5060999,
      "lon":-98.0291999999999,
      "province":"MB"
   },
   {
      "display_name":"Oak River",
      "lat":50.1357999,
      "lon":-100.429999900999,
      "province":"MB"
   },
   {
      "display_name":"Oakbank",
      "lat":49.938349668,
      "lon":-96.8427180639999,
      "province":"MB"
   },
   {
      "display_name":"Oakburn",
      "lat":50.5653,
      "lon":-100.578899998999,
      "province":"MB"
   },
   {
      "display_name":"Oakland (14-13-7-W)",
      "lat":50.1075,
      "lon":-98.3188999999999,
      "province":"MB"
   },
   {
      "display_name":"Oakner",
      "lat":50.09,
      "lon":-100.588899999999,
      "province":"MB"
   },
   {
      "display_name":"Oakville",
      "lat":49.9293999,
      "lon":-98.0038999999999,
      "province":"MB"
   },
   {
      "display_name":"Ochre Beach",
      "lat":51.119470549,
      "lon":-99.8026115899999,
      "province":"MB"
   },
   {
      "display_name":"Ochre River",
      "lat":51.0621999,
      "lon":-99.7799998999999,
      "province":"MB"
   },
   {
      "display_name":"Okno",
      "lat":51.0532999,
      "lon":-97.2025000009999,
      "province":"MB"
   },
   {
      "display_name":"Omineeseenowenik",
      "lat":54.149722,
      "lon":-93.500278,
      "province":"MB"
   },
   {
      "display_name":"Onanole",
      "lat":50.623894825,
      "lon":-99.9682715129999,
      "province":"MB"
   },
   {
      "display_name":"Osborne",
      "lat":49.5418999,
      "lon":-97.3688999009999,
      "province":"MB"
   },
   {
      "display_name":"Osborne Lake",
      "lat":54.9608,
      "lon":-99.7308000009999,
      "province":"MB"
   },
   {
      "display_name":"Osterwick",
      "lat":49.0883,
      "lon":-97.9955999989999,
      "province":"MB"
   },
   {
      "display_name":"Otter Falls",
      "lat":50.143556789,
      "lon":-95.8080761549999,
      "province":"MB"
   },
   {
      "display_name":"Otter Lake",
      "lat":50.485107217,
      "lon":-99.8458511829999,
      "province":"MB"
   },
   {
      "display_name":"Otterburne",
      "lat":49.4972,
      "lon":-97.0516999999999,
      "province":"MB"
   },
   {
      "display_name":"Overflowing River Provincial Park",
      "lat":53.139722,
      "lon":-101.0875,
      "province":"MB"
   },
   {
      "display_name":"Oxford House",
      "lat":54.953373992,
      "lon":-95.2508181649999,
      "province":"MB"
   },
   {
      "display_name":"Paint Lake",
      "lat":55.481162206,
      "lon":-98.0164185989999,
      "province":"MB"
   },
   {
      "display_name":"Paint Lake Provincial Park",
      "lat":55.495833,
      "lon":-97.988889,
      "province":"MB"
   },
   {
      "display_name":"Pakitahokansik",
      "lat":54.807778,
      "lon":-95.464444,
      "province":"MB"
   },
   {
      "display_name":"Paradise Village",
      "lat":49.669404838,
      "lon":-96.5766598349999,
      "province":"MB"
   },
   {
      "display_name":"Parkdale",
      "lat":50.039652729,
      "lon":-97.0293024579999,
      "province":"MB"
   },
   {
      "display_name":"Patricia Beach Provincial Park",
      "lat":50.4269439999999,
      "lon":-96.606111,
      "province":"MB"
   },
   {
      "display_name":"Pauingassi",
      "lat":52.158389125,
      "lon":-95.3816867709999,
      "province":"MB"
   },
   {
      "display_name":"Pelican Point Beach",
      "lat":49.378418368,
      "lon":-99.6198612099999,
      "province":"MB"
   },
   {
      "display_name":"Pelican Rapids",
      "lat":52.742790208,
      "lon":-100.699610782999,
      "province":"MB"
   },
   {
      "display_name":"Pembina Valley Provincial Park",
      "lat":49.0133299999999,
      "lon":-98.27056,
      "province":"MB"
   },
   {
      "display_name":"Petersfield",
      "lat":50.3044,
      "lon":-96.9685999999999,
      "province":"MB"
   },
   {
      "display_name":"Pierson",
      "lat":49.1799999,
      "lon":-101.262499899999,
      "province":"MB"
   },
   {
      "display_name":"Pikwitonei",
      "lat":55.5878,
      "lon":-97.1555998999999,
      "province":"MB"
   },
   {
      "display_name":"Pilot Mound",
      "lat":49.2013999,
      "lon":-98.8938998989999,
      "province":"MB"
   },
   {
      "display_name":"Pinawa",
      "lat":50.1489,
      "lon":-95.8805999989999,
      "province":"MB"
   },
   {
      "display_name":"Pinawa Bay",
      "lat":50.31985517,
      "lon":-95.7945167709999,
      "province":"MB"
   },
   {
      "display_name":"Pinawa Dam Provincial Park",
      "lat":50.215833,
      "lon":-95.928611,
      "province":"MB"
   },
   {
      "display_name":"Pinawa Provincial Park",
      "lat":50.1416668999999,
      "lon":-96.048333,
      "province":"MB"
   },
   {
      "display_name":"Pine Dock",
      "lat":51.6416999,
      "lon":-96.8055999999999,
      "province":"MB"
   },
   {
      "display_name":"Pine River",
      "lat":51.7842,
      "lon":-100.530599899999,
      "province":"MB"
   },
   {
      "display_name":"Piney",
      "lat":49.0753,
      "lon":-95.9782998999999,
      "province":"MB"
   },
   {
      "display_name":"Pipestone",
      "lat":49.5577999,
      "lon":-100.945599900999,
      "province":"MB"
   },
   {
      "display_name":"Piponshewanik",
      "lat":54.101944,
      "lon":-93.475278,
      "province":"MB"
   },
   {
      "display_name":"Pisew Falls Provincial Park",
      "lat":55.197778,
      "lon":-98.396667,
      "province":"MB"
   },
   {
      "display_name":"Plum Coulee",
      "lat":49.1911,
      "lon":-97.7605998999999,
      "province":"MB"
   },
   {
      "display_name":"Plumas",
      "lat":50.3847,
      "lon":-99.0863998989999,
      "province":"MB"
   },
   {
      "display_name":"Pointe du Bois",
      "lat":50.295842556,
      "lon":-95.5520358469999,
      "province":"MB"
   },
   {
      "display_name":"Poplar Bay",
      "lat":50.372725968,
      "lon":-95.7957682759999,
      "province":"MB"
   },
   {
      "display_name":"Poplar Bay Provincial Park",
      "lat":50.375,
      "lon":-95.781944,
      "province":"MB"
   },
   {
      "display_name":"Poplar Point",
      "lat":50.0568999,
      "lon":-97.9766998999999,
      "province":"MB"
   },
   {
      "display_name":"Poplar River",
      "lat":52.9944,
      "lon":-97.2777999999999,
      "province":"MB"
   },
   {
      "display_name":"Poplarfield",
      "lat":50.8908,
      "lon":-97.6068999999999,
      "province":"MB"
   },
   {
      "display_name":"Portage la Prairie",
      "lat":49.9727999,
      "lon":-98.2918999999999,
      "province":"MB"
   },
   {
      "display_name":"Portage Spillway Provincial Park",
      "lat":49.948889,
      "lon":-98.328889,
      "province":"MB"
   },
   {
      "display_name":"Powell",
      "lat":52.8283,
      "lon":-101.396699899999,
      "province":"MB"
   },
   {
      "display_name":"Powerview-Pine Falls",
      "lat":50.564770909,
      "lon":-96.2039142169999,
      "province":"MB"
   },
   {
      "display_name":"Pratt",
      "lat":49.8046999,
      "lon":-98.9127999999999,
      "province":"MB"
   },
   {
      "display_name":"Prawda",
      "lat":49.6508,
      "lon":-95.7935998999999,
      "province":"MB"
   },
   {
      "display_name":"Primrose Provincial Park",
      "lat":52.3977779999999,
      "lon":-101.12111,
      "province":"MB"
   },
   {
      "display_name":"Princess Harbour",
      "lat":51.862978204,
      "lon":-96.8751897399999,
      "province":"MB"
   },
   {
      "display_name":"Pukatawagan",
      "lat":55.743304652,
      "lon":-101.296112885999,
      "province":"MB"
   },
   {
      "display_name":"Rainbow Beach Provincial Park",
      "lat":51.1288889999999,
      "lon":-99.813611,
      "province":"MB"
   },
   {
      "display_name":"Ralls Island",
      "lat":53.8285999,
      "lon":-101.094399999999,
      "province":"MB"
   },
   {
      "display_name":"Randolph",
      "lat":49.5468999,
      "lon":-96.8288999999999,
      "province":"MB"
   },
   {
      "display_name":"Rapid City",
      "lat":50.1208,
      "lon":-100.035799899999,
      "province":"MB"
   },
   {
      "display_name":"Rathwell",
      "lat":49.6469,
      "lon":-98.5463998999999,
      "province":"MB"
   },
   {
      "display_name":"Red Deer Lake",
      "lat":52.888458261,
      "lon":-101.468585198999,
      "province":"MB"
   },
   {
      "display_name":"Red Deer River Provincial Park",
      "lat":52.8911109999999,
      "lon":-101.02556,
      "province":"MB"
   },
   {
      "display_name":"Red Rock Lake",
      "lat":49.9869,
      "lon":-95.5193998999999,
      "province":"MB"
   },
   {
      "display_name":"Red Rose",
      "lat":51.466267467,
      "lon":-97.5315720469999,
      "province":"MB"
   },
   {
      "display_name":"Reeder",
      "lat":50.1068999,
      "lon":-101.148099998999,
      "province":"MB"
   },
   {
      "display_name":"Regent",
      "lat":49.3408,
      "lon":-100.311899899999,
      "province":"MB"
   },
   {
      "display_name":"Reinland",
      "lat":49.0416999,
      "lon":-97.8713998999999,
      "province":"MB"
   },
   {
      "display_name":"Rennie",
      "lat":49.8528,
      "lon":-95.5527999999999,
      "province":"MB"
   },
   {
      "display_name":"Renwer",
      "lat":52.098364486,
      "lon":-100.816695623999,
      "province":"MB"
   },
   {
      "display_name":"Reston",
      "lat":49.5574999,
      "lon":-101.093299900999,
      "province":"MB"
   },
   {
      "display_name":"Reykjavik",
      "lat":51.1985999,
      "lon":-98.9024999989999,
      "province":"MB"
   },
   {
      "display_name":"Richer",
      "lat":49.6575,
      "lon":-96.4568999999999,
      "province":"MB"
   },
   {
      "display_name":"Ridgeville",
      "lat":49.0657999,
      "lon":-97.0118999989999,
      "province":"MB"
   },
   {
      "display_name":"Riding Mountain",
      "lat":50.5318999,
      "lon":-99.4661000009999,
      "province":"MB"
   },
   {
      "display_name":"Riding Mountain National Park of Canada",
      "lat":50.8833329999999,
      "lon":-100.25,
      "province":"MB"
   },
   {
      "display_name":"River Hills",
      "lat":50.0760999,
      "lon":-96.0268999999999,
      "province":"MB"
   },
   {
      "display_name":"River Road Provincial Park",
      "lat":50.0555559999999,
      "lon":-96.987222,
      "province":"MB"
   },
   {
      "display_name":"Rivers",
      "lat":50.0307999,
      "lon":-100.239399899999,
      "province":"MB"
   },
   {
      "display_name":"Rivers Provincial Park",
      "lat":50.0399999999999,
      "lon":-100.195,
      "province":"MB"
   },
   {
      "display_name":"Riverside (20,29-5-1-E)",
      "lat":49.4092,
      "lon":-97.4174999009999,
      "province":"MB"
   },
   {
      "display_name":"Riverton",
      "lat":50.996635518,
      "lon":-97.0009849989999,
      "province":"MB"
   },
   {
      "display_name":"Roblin (26-28-W)",
      "lat":51.23,
      "lon":-101.355599999999,
      "province":"MB"
   },
   {
      "display_name":"Rock Ridge",
      "lat":51.917211729,
      "lon":-99.5799231389999,
      "province":"MB"
   },
   {
      "display_name":"Rocky Lake Provincial Park",
      "lat":54.1752779999999,
      "lon":-101.39167,
      "province":"MB"
   },
   {
      "display_name":"Roland",
      "lat":49.3663999,
      "lon":-97.9399999009999,
      "province":"MB"
   },
   {
      "display_name":"Rolling River",
      "lat":50.455120449,
      "lon":-99.9956534239999,
      "province":"MB"
   },
   {
      "display_name":"Rorketon",
      "lat":51.3893999,
      "lon":-99.5885998999999,
      "province":"MB"
   },
   {
      "display_name":"Roseau River",
      "lat":49.1842,
      "lon":-96.8255999009999,
      "province":"MB"
   },
   {
      "display_name":"Rosebank",
      "lat":49.3706,
      "lon":-98.1132999999999,
      "province":"MB"
   },
   {
      "display_name":"Roseisle",
      "lat":49.5,
      "lon":-98.3442000009999,
      "province":"MB"
   },
   {
      "display_name":"Roseland",
      "lat":49.7980999,
      "lon":-100.075599899999,
      "province":"MB"
   },
   {
      "display_name":"Rosenfeld",
      "lat":49.1991999,
      "lon":-97.5488998999999,
      "province":"MB"
   },
   {
      "display_name":"Rosengart",
      "lat":49.0192,
      "lon":-97.8605999009999,
      "province":"MB"
   },
   {
      "display_name":"Rosenort",
      "lat":49.4586,
      "lon":-97.4341999989999,
      "province":"MB"
   },
   {
      "display_name":"Rosetown",
      "lat":49.0455999,
      "lon":-97.7452999989999,
      "province":"MB"
   },
   {
      "display_name":"Ross",
      "lat":49.7605999,
      "lon":-96.4330998999999,
      "province":"MB"
   },
   {
      "display_name":"Rossburn",
      "lat":50.6691999,
      "lon":-100.811099899999,
      "province":"MB"
   },
   {
      "display_name":"Rossendale",
      "lat":49.8267,
      "lon":-98.6193999999999,
      "province":"MB"
   },
   {
      "display_name":"Rossville",
      "lat":53.998357279,
      "lon":-97.7766318389999,
      "province":"MB"
   },
   {
      "display_name":"Russell",
      "lat":50.7808,
      "lon":-101.283899999999,
      "province":"MB"
   },
   {
      "display_name":"Salt Point",
      "lat":51.7530999,
      "lon":-99.8124998999999,
      "province":"MB"
   },
   {
      "display_name":"San Clara",
      "lat":51.4933,
      "lon":-101.428299899999,
      "province":"MB"
   },
   {
      "display_name":"Sand Lakes Provincial Park",
      "lat":57.8422219999999,
      "lon":-98.53,
      "province":"MB"
   },
   {
      "display_name":"Sandilands",
      "lat":49.328543484,
      "lon":-96.2981229739999,
      "province":"MB"
   },
   {
      "display_name":"Sandy Bay",
      "lat":50.55,
      "lon":-98.6472000009999,
      "province":"MB"
   },
   {
      "display_name":"Sandy Hook",
      "lat":50.5446999,
      "lon":-96.9852999999999,
      "province":"MB"
   },
   {
      "display_name":"Sandy Hook Golf Course",
      "lat":50.5289,
      "lon":-96.9932998999999,
      "province":"MB"
   },
   {
      "display_name":"Sandy Lake",
      "lat":50.524959586,
      "lon":-100.181182980999,
      "province":"MB"
   },
   {
      "display_name":"Sanford",
      "lat":49.6825,
      "lon":-97.4441999999999,
      "province":"MB"
   },
   {
      "display_name":"Sarto",
      "lat":49.3997,
      "lon":-96.7436000009999,
      "province":"MB"
   },
   {
      "display_name":"Sasagiu Rapids Provincial Park",
      "lat":55.1486109999999,
      "lon":-98.4525,
      "province":"MB"
   },
   {
      "display_name":"Scarth",
      "lat":49.7302999,
      "lon":-100.949699999999,
      "province":"MB"
   },
   {
      "display_name":"Schanzenfeld",
      "lat":49.132867844,
      "lon":-97.9394618529999,
      "province":"MB"
   },
   {
      "display_name":"Schist Lake",
      "lat":54.661172111,
      "lon":-101.766364394999,
      "province":"MB"
   },
   {
      "display_name":"Schoenwiese",
      "lat":49.0360999,
      "lon":-97.8216999999999,
      "province":"MB"
   },
   {
      "display_name":"Seddons Corner",
      "lat":50.0619,
      "lon":-96.2907999989999,
      "province":"MB"
   },
   {
      "display_name":"Selkirk",
      "lat":50.1435999,
      "lon":-96.8838999989999,
      "province":"MB"
   },
   {
      "display_name":"Seton Provincial Park",
      "lat":49.9025,
      "lon":-99.203611,
      "province":"MB"
   },
   {
      "display_name":"Seven Sisters Falls",
      "lat":50.1057999,
      "lon":-96.0156000009999,
      "province":"MB"
   },
   {
      "display_name":"Seymourville",
      "lat":51.184417701,
      "lon":-96.3278786579999,
      "province":"MB"
   },
   {
      "display_name":"Shamattawa",
      "lat":55.865994263,
      "lon":-92.0998539609999,
      "province":"MB"
   },
   {
      "display_name":"Shellmouth",
      "lat":50.9346999,
      "lon":-101.479199998999,
      "province":"MB"
   },
   {
      "display_name":"Sherridon",
      "lat":55.124213649,
      "lon":-101.109649701999,
      "province":"MB"
   },
   {
      "display_name":"Shevlin",
      "lat":51.1938999,
      "lon":-101.208299899999,
      "province":"MB"
   },
   {
      "display_name":"Shilo",
      "lat":49.806303083,
      "lon":-99.6468230249999,
      "province":"MB"
   },
   {
      "display_name":"Shoal Lake",
      "lat":50.4378,
      "lon":-100.591099899999,
      "province":"MB"
   },
   {
      "display_name":"Shoal River",
      "lat":52.753163117,
      "lon":-100.679453293999,
      "province":"MB"
   },
   {
      "display_name":"Sidney",
      "lat":49.9,
      "lon":-99.0788999999999,
      "province":"MB"
   },
   {
      "display_name":"Sifton (24-27-20-W)",
      "lat":51.3603,
      "lon":-100.142499999999,
      "province":"MB"
   },
   {
      "display_name":"Silver",
      "lat":50.8457999,
      "lon":-97.2174998999999,
      "province":"MB"
   },
   {
      "display_name":"Silver Falls",
      "lat":50.515,
      "lon":-96.0988998989999,
      "province":"MB"
   },
   {
      "display_name":"Silver Harbour",
      "lat":50.8106,
      "lon":-96.9674998999999,
      "province":"MB"
   },
   {
      "display_name":"Silverton",
      "lat":50.7669,
      "lon":-101.159199898999,
      "province":"MB"
   },
   {
      "display_name":"Sinclair",
      "lat":49.5691999,
      "lon":-101.287799998999,
      "province":"MB"
   },
   {
      "display_name":"Sioux Valley",
      "lat":49.861427766,
      "lon":-100.487230140999,
      "province":"MB"
   },
   {
      "display_name":"Snow Lake",
      "lat":54.875399683,
      "lon":-100.018349806999,
      "province":"MB"
   },
   {
      "display_name":"Snowflake",
      "lat":49.0474999,
      "lon":-98.6591999999999,
      "province":"MB"
   },
   {
      "display_name":"Solsgirth",
      "lat":50.4903,
      "lon":-100.913899898999,
      "province":"MB"
   },
   {
      "display_name":"Somerset",
      "lat":49.410861383,
      "lon":-98.6593003589999,
      "province":"MB"
   },
   {
      "display_name":"Sommerfeld",
      "lat":49.0719,
      "lon":-97.4482998999999,
      "province":"MB"
   },
   {
      "display_name":"Souris",
      "lat":49.6171999,
      "lon":-100.260299998999,
      "province":"MB"
   },
   {
      "display_name":"South Atikaki Provincial Park",
      "lat":51.04944,
      "lon":-95.33611,
      "province":"MB"
   },
   {
      "display_name":"South Beach (31-10-15-E)",
      "lat":49.8830999,
      "lon":-95.5372000009999,
      "province":"MB"
   },
   {
      "display_name":"South Headingley",
      "lat":49.85830253,
      "lon":-97.4157367599999,
      "province":"MB"
   },
   {
      "display_name":"South Indian Lake",
      "lat":56.782571197,
      "lon":-98.9146876179999,
      "province":"MB"
   },
   {
      "display_name":"South Junction",
      "lat":49.0406,
      "lon":-95.7655999999999,
      "province":"MB"
   },
   {
      "display_name":"Southport",
      "lat":49.9180999,
      "lon":-98.2735999999999,
      "province":"MB"
   },
   {
      "display_name":"Spence Lake",
      "lat":51.5827999,
      "lon":-99.5757998999999,
      "province":"MB"
   },
   {
      "display_name":"Sperling",
      "lat":49.5081,
      "lon":-97.7046999999999,
      "province":"MB"
   },
   {
      "display_name":"Split Lake",
      "lat":56.257627426,
      "lon":-96.1342754079999,
      "province":"MB"
   },
   {
      "display_name":"Sprague",
      "lat":49.0352999,
      "lon":-95.6391998999999,
      "province":"MB"
   },
   {
      "display_name":"Springstein",
      "lat":49.8049999,
      "lon":-97.4993998999999,
      "province":"MB"
   },
   {
      "display_name":"Springwater Provincial Park",
      "lat":51.8583329999999,
      "lon":-100.58861,
      "province":"MB"
   },
   {
      "display_name":"Spruce Bay Heights",
      "lat":50.7911,
      "lon":-96.9810999999999,
      "province":"MB"
   },
   {
      "display_name":"Spruce Woods Provincial Park",
      "lat":49.7094439999999,
      "lon":-99.097222,
      "province":"MB"
   },
   {
      "display_name":"Sprucewoods",
      "lat":49.8205999,
      "lon":-99.6516999999999,
      "province":"MB"
   },
   {
      "display_name":"St. Adolphe",
      "lat":49.672944438,
      "lon":-97.1112656529999,
      "province":"MB"
   },
   {
      "display_name":"St. Alphonse",
      "lat":49.4353,
      "lon":-99.0030999999999,
      "province":"MB"
   },
   {
      "display_name":"St. Ambroise",
      "lat":50.2572,
      "lon":-98.0360999999999,
      "province":"MB"
   },
   {
      "display_name":"St. Ambroise Beach Provincial Park",
      "lat":50.275833,
      "lon":-98.074167,
      "province":"MB"
   },
   {
      "display_name":"St. Andrews",
      "lat":50.0713999,
      "lon":-96.9832999999999,
      "province":"MB"
   },
   {
      "display_name":"St. Boniface",
      "lat":49.879856183,
      "lon":-97.0889212459999,
      "province":"MB"
   },
   {
      "display_name":"St. Claude",
      "lat":49.6586,
      "lon":-98.3416998999999,
      "province":"MB"
   },
   {
      "display_name":"St. Eustache",
      "lat":49.9753,
      "lon":-97.7799999999999,
      "province":"MB"
   },
   {
      "display_name":"St. François Xavier",
      "lat":49.9127999,
      "lon":-97.5417000009999,
      "province":"MB"
   },
   {
      "display_name":"St. Jean Baptiste",
      "lat":49.265550559,
      "lon":-97.3417519949999,
      "province":"MB"
   },
   {
      "display_name":"St. Joseph",
      "lat":49.1335999,
      "lon":-97.3905998999999,
      "province":"MB"
   },
   {
      "display_name":"St. Labre",
      "lat":49.3328,
      "lon":-96.0352998999999,
      "province":"MB"
   },
   {
      "display_name":"St. Laurent",
      "lat":50.4128,
      "lon":-97.9407998999999,
      "province":"MB"
   },
   {
      "display_name":"St. Leon",
      "lat":49.3636,
      "lon":-98.5893999999999,
      "province":"MB"
   },
   {
      "display_name":"St. Malo",
      "lat":49.3172,
      "lon":-96.9488998999999,
      "province":"MB"
   },
   {
      "display_name":"St. Malo Provincial Park",
      "lat":49.319722,
      "lon":-96.928333,
      "province":"MB"
   },
   {
      "display_name":"St. Marks",
      "lat":50.1968999,
      "lon":-98.0571999999999,
      "province":"MB"
   },
   {
      "display_name":"St. Martin",
      "lat":51.7191999,
      "lon":-98.6868999999999,
      "province":"MB"
   },
   {
      "display_name":"St. Martin Junction",
      "lat":51.7113999,
      "lon":-98.7349999999999,
      "province":"MB"
   },
   {
      "display_name":"St. Norbert Provincial Park",
      "lat":49.7547219999999,
      "lon":-97.142222,
      "province":"MB"
   },
   {
      "display_name":"St. Ouens",
      "lat":50.0502999,
      "lon":-96.4516998999999,
      "province":"MB"
   },
   {
      "display_name":"St. Theresa Point",
      "lat":53.826044087,
      "lon":-94.8522109009999,
      "province":"MB"
   },
   {
      "display_name":"Starbuck",
      "lat":49.7722,
      "lon":-97.6171998989999,
      "province":"MB"
   },
   {
      "display_name":"Ste. Agathe",
      "lat":49.5660999,
      "lon":-97.1832998999999,
      "province":"MB"
   },
   {
      "display_name":"Ste. Amélie",
      "lat":50.9844,
      "lon":-99.3827998999999,
      "province":"MB"
   },
   {
      "display_name":"Ste. Anne",
      "lat":49.6697218,
      "lon":-96.6494437999999,
      "province":"MB"
   },
   {
      "display_name":"Ste. Rita",
      "lat":49.8799999,
      "lon":-96.2955999999999,
      "province":"MB"
   },
   {
      "display_name":"Ste. Rose du Lac",
      "lat":51.059444,
      "lon":-99.523333,
      "province":"MB"
   },
   {
      "display_name":"Stead",
      "lat":50.4288999,
      "lon":-96.4464000009999,
      "province":"MB"
   },
   {
      "display_name":"Steep Rock",
      "lat":51.4425,
      "lon":-98.7996999999999,
      "province":"MB"
   },
   {
      "display_name":"Ste-Geneviève",
      "lat":49.7436,
      "lon":-96.5241998999999,
      "province":"MB"
   },
   {
      "display_name":"Steinbach",
      "lat":49.5258,
      "lon":-96.6838999999999,
      "province":"MB"
   },
   {
      "display_name":"Stephenfield Provincial Park",
      "lat":49.5211109999999,
      "lon":-98.295833,
      "province":"MB"
   },
   {
      "display_name":"St-Georges",
      "lat":50.5393999,
      "lon":-96.1488999999999,
      "province":"MB"
   },
   {
      "display_name":"St-Lazare",
      "lat":50.4488999,
      "lon":-101.304199899999,
      "province":"MB"
   },
   {
      "display_name":"Stockton",
      "lat":49.5893999,
      "lon":-99.4530999999999,
      "province":"MB"
   },
   {
      "display_name":"Stonewall",
      "lat":50.1344,
      "lon":-97.3260999989999,
      "province":"MB"
   },
   {
      "display_name":"Stony Mountain",
      "lat":50.0864,
      "lon":-97.2188999999999,
      "province":"MB"
   },
   {
      "display_name":"St-Pierre-Jolys",
      "lat":49.4403,
      "lon":-96.9843998999999,
      "province":"MB"
   },
   {
      "display_name":"Strathclair",
      "lat":50.4046999,
      "lon":-100.396699999999,
      "province":"MB"
   },
   {
      "display_name":"Stuartburn",
      "lat":49.1335999,
      "lon":-96.7630999989999,
      "province":"MB"
   },
   {
      "display_name":"Sundown",
      "lat":49.1035999,
      "lon":-96.2666999999999,
      "province":"MB"
   },
   {
      "display_name":"Swan Lake",
      "lat":49.4116999,
      "lon":-98.7913999989999,
      "province":"MB"
   },
   {
      "display_name":"Swan Lake Reserve",
      "lat":49.3874999,
      "lon":-98.8846999999999,
      "province":"MB"
   },
   {
      "display_name":"Swan River",
      "lat":52.109436575,
      "lon":-101.263119456999,
      "province":"MB"
   },
   {
      "display_name":"Swan River Provincial Park",
      "lat":52.1225,
      "lon":-101.25222,
      "province":"MB"
   },
   {
      "display_name":"Tadoule Lake",
      "lat":58.717381204,
      "lon":-98.4826547259999,
      "province":"MB"
   },
   {
      "display_name":"Tenby",
      "lat":50.4997,
      "lon":-99.1274999989999,
      "province":"MB"
   },
   {
      "display_name":"Teulon",
      "lat":50.3858,
      "lon":-97.2611000009999,
      "province":"MB"
   },
   {
      "display_name":"The Forks National Historic Site of Canada",
      "lat":49.888889,
      "lon":-97.129167,
      "province":"MB"
   },
   {
      "display_name":"The Narrows",
      "lat":51.077474563,
      "lon":-98.7654518099999,
      "province":"MB"
   },
   {
      "display_name":"The Pas",
      "lat":53.815137183,
      "lon":-101.245091653999,
      "province":"MB"
   },
   {
      "display_name":"Thicket Portage",
      "lat":55.322094974,
      "lon":-97.6827142009999,
      "province":"MB"
   },
   {
      "display_name":"Thompson",
      "lat":55.7433,
      "lon":-97.8552999989999,
      "province":"MB"
   },
   {
      "display_name":"Thornhill",
      "lat":49.2002999,
      "lon":-98.2316998999999,
      "province":"MB"
   },
   {
      "display_name":"Tilston",
      "lat":49.3936,
      "lon":-101.312799899999,
      "province":"MB"
   },
   {
      "display_name":"Tolstoi",
      "lat":49.0743999,
      "lon":-96.8110999999999,
      "province":"MB"
   },
   {
      "display_name":"Toutes Aides",
      "lat":51.485,
      "lon":-99.5316999009999,
      "province":"MB"
   },
   {
      "display_name":"Transcona",
      "lat":49.903734705,
      "lon":-96.9852681419999,
      "province":"MB"
   },
   {
      "display_name":"Treesbank",
      "lat":49.6361,
      "lon":-99.6093998999999,
      "province":"MB"
   },
   {
      "display_name":"Treherne",
      "lat":49.6294,
      "lon":-98.6977999999999,
      "province":"MB"
   },
   {
      "display_name":"Turtle Mountain Provincial Park",
      "lat":49.05,
      "lon":-100.25028,
      "province":"MB"
   },
   {
      "display_name":"Twin Lakes Provincial Park",
      "lat":54.6572219999999,
      "lon":-101.47722,
      "province":"MB"
   },
   {
      "display_name":"Tyndall",
      "lat":50.083674381,
      "lon":-96.6619726859999,
      "province":"MB"
   },
   {
      "display_name":"Umpherville",
      "lat":53.834592095,
      "lon":-101.221740290999,
      "province":"MB"
   },
   {
      "display_name":"Valley River",
      "lat":51.2480999,
      "lon":-100.143099899999,
      "province":"MB"
   },
   {
      "display_name":"Valley River Reserve",
      "lat":51.229340906,
      "lon":-100.966685513999,
      "province":"MB"
   },
   {
      "display_name":"Vassar",
      "lat":49.0977999,
      "lon":-95.8313998999999,
      "province":"MB"
   },
   {
      "display_name":"Victoria Beach",
      "lat":50.706511946,
      "lon":-96.5597765629999,
      "province":"MB"
   },
   {
      "display_name":"Virden",
      "lat":49.8507999,
      "lon":-100.931700000999,
      "province":"MB"
   },
   {
      "display_name":"Vista",
      "lat":50.6203,
      "lon":-100.717799899999,
      "province":"MB"
   },
   {
      "display_name":"Vita",
      "lat":49.1339,
      "lon":-96.5614000009999,
      "province":"MB"
   },
   {
      "display_name":"Vivian",
      "lat":49.8846999,
      "lon":-96.4574999009999,
      "province":"MB"
   },
   {
      "display_name":"Vogar",
      "lat":50.9518999,
      "lon":-98.6449998989999,
      "province":"MB"
   },
   {
      "display_name":"Wabowden",
      "lat":54.899776464,
      "lon":-98.6297267629999,
      "province":"MB"
   },
   {
      "display_name":"Wallace Lake Provincial Park",
      "lat":51.002778,
      "lon":-95.355556,
      "province":"MB"
   },
   {
      "display_name":"Wanasing Beach",
      "lat":50.6999999,
      "lon":-96.5268998999999,
      "province":"MB"
   },
   {
      "display_name":"Wanless",
      "lat":54.172568393,
      "lon":-101.367407903999,
      "province":"MB"
   },
   {
      "display_name":"Wapusk National Park of Canada",
      "lat":57.773889,
      "lon":-93.371389,
      "province":"MB"
   },
   {
      "display_name":"Warren",
      "lat":50.1317,
      "lon":-97.5466998999999,
      "province":"MB"
   },
   {
      "display_name":"Wasagamack",
      "lat":53.9082999,
      "lon":-94.9457998999999,
      "province":"MB"
   },
   {
      "display_name":"Wasagaming",
      "lat":50.6582999,
      "lon":-99.9686000009999,
      "province":"MB"
   },
   {
      "display_name":"Washow Bay",
      "lat":51.1267,
      "lon":-96.9902998989999,
      "province":"MB"
   },
   {
      "display_name":"Waskada",
      "lat":49.0966999,
      "lon":-100.801899999999,
      "province":"MB"
   },
   {
      "display_name":"Watchorn Provincial Park",
      "lat":51.278333,
      "lon":-98.561667,
      "province":"MB"
   },
   {
      "display_name":"Waterhen",
      "lat":51.829693895,
      "lon":-99.5501973259999,
      "province":"MB"
   },
   {
      "display_name":"Waterhen Reserve",
      "lat":51.9721999,
      "lon":-99.5971998999999,
      "province":"MB"
   },
   {
      "display_name":"Wawanesa",
      "lat":49.5949999,
      "lon":-99.6838999999999,
      "province":"MB"
   },
   {
      "display_name":"Waywayseecappo",
      "lat":50.7181,
      "lon":-100.881099999999,
      "province":"MB"
   },
   {
      "display_name":"Weesakachak",
      "lat":53.7438889999999,
      "lon":-93.792222,
      "province":"MB"
   },
   {
      "display_name":"Wekusko Falls Provincial Park",
      "lat":54.959722,
      "lon":-99.971944,
      "province":"MB"
   },
   {
      "display_name":"Wellwood",
      "lat":50.0397,
      "lon":-99.3321999999999,
      "province":"MB"
   },
   {
      "display_name":"Wendigo Beach",
      "lat":50.350470628,
      "lon":-95.9088411749999,
      "province":"MB"
   },
   {
      "display_name":"West Hawk Lake",
      "lat":49.7417,
      "lon":-95.2027998999999,
      "province":"MB"
   },
   {
      "display_name":"West St. Paul",
      "lat":49.999444,
      "lon":-97.162222,
      "province":"MB"
   },
   {
      "display_name":"Westbourne",
      "lat":50.1297,
      "lon":-98.5810998999999,
      "province":"MB"
   },
   {
      "display_name":"Westray",
      "lat":53.5969,
      "lon":-101.403899999999,
      "province":"MB"
   },
   {
      "display_name":"Wetikoweskwattam",
      "lat":54.5416669999999,
      "lon":-96.062778,
      "province":"MB"
   },
   {
      "display_name":"Wheatland",
      "lat":50.0167,
      "lon":-100.295599898999,
      "province":"MB"
   },
   {
      "display_name":"White Lake",
      "lat":50.0294,
      "lon":-95.5135998999999,
      "province":"MB"
   },
   {
      "display_name":"Whitefish Lake Provincial Park",
      "lat":52.336389,
      "lon":-101.58278,
      "province":"MB"
   },
   {
      "display_name":"Whitemouth",
      "lat":49.9542,
      "lon":-95.9752998989999,
      "province":"MB"
   },
   {
      "display_name":"Whitemouth Falls Provincial Park",
      "lat":50.110556,
      "lon":-96.019444,
      "province":"MB"
   },
   {
      "display_name":"Whiteshell Provincial Park",
      "lat":50.016667,
      "lon":-95.483333,
      "province":"MB"
   },
   {
      "display_name":"William Lake Provincial Park",
      "lat":49.0597219999999,
      "lon":-99.973889,
      "province":"MB"
   },
   {
      "display_name":"Winkler",
      "lat":49.1816999,
      "lon":-97.9403000009999,
      "province":"MB"
   },
   {
      "display_name":"Winnipeg",
      "lat":49.894771315,
      "lon":-97.1346288719999,
      "province":"MB"
   },
   {
      "display_name":"Winnipeg Beach",
      "lat":50.503796533,
      "lon":-96.9748993819999,
      "province":"MB"
   },
   {
      "display_name":"Winnipeg Beach Provincial Park",
      "lat":50.500278,
      "lon":-96.969722,
      "province":"MB"
   },
   {
      "display_name":"Winnipegosis",
      "lat":51.6485999,
      "lon":-99.9257999989999,
      "province":"MB"
   },
   {
      "display_name":"Woodlands",
      "lat":50.2072,
      "lon":-97.6599998999999,
      "province":"MB"
   },
   {
      "display_name":"Woodnorth",
      "lat":49.7324999,
      "lon":-101.081099999999,
      "province":"MB"
   },
   {
      "display_name":"Woodridge",
      "lat":49.2839,
      "lon":-96.1477999999999,
      "province":"MB"
   },
   {
      "display_name":"Woodridge Provincial Park",
      "lat":49.289722,
      "lon":-96.1475,
      "province":"MB"
   },
   {
      "display_name":"Woodside",
      "lat":50.1813999,
      "lon":-98.7771998989999,
      "province":"MB"
   },
   {
      "display_name":"Yellow Quill Provincial Park",
      "lat":49.9569439999999,
      "lon":-98.331944,
      "province":"MB"
   },
   {
      "display_name":"York Factory",
      "lat":57.001667,
      "lon":-92.305833,
      "province":"MB"
   },
   {
      "display_name":"York Landing",
      "lat":56.090559401,
      "lon":-96.0999155669999,
      "province":"MB"
   },
   {
      "display_name":"Young Point",
      "lat":53.751195705,
      "lon":-101.248261286999,
      "province":"MB"
   },
   {
      "display_name":"Zed Lake Provincial Park",
      "lat":56.910556,
      "lon":-101.24194,
      "province":"MB"
   }
]