[
   {
      "display_name":"Acadieville",
      "lat":46.73080998,
      "lon":-65.2649846849999,
      "province":"NB"
   },
   {
      "display_name":"Acamac",
      "lat":45.267885406,
      "lon":-66.1556554759999,
      "province":"NB"
   },
   {
      "display_name":"Adamsville",
      "lat":46.396269734,
      "lon":-65.1823453249999,
      "province":"NB"
   },
   {
      "display_name":"Albert Mines",
      "lat":45.87320668,
      "lon":-64.6670959889999,
      "province":"NB"
   },
   {
      "display_name":"Allainville",
      "lat":47.29263998,
      "lon":-65.2662012559999,
      "province":"NB"
   },
   {
      "display_name":"Allardville",
      "lat":47.473174501,
      "lon":-65.4932061579999,
      "province":"NB"
   },
   {
      "display_name":"Allardville East",
      "lat":47.500007076,
      "lon":-65.3888101749999,
      "province":"NB"
   },
   {
      "display_name":"Alma",
      "lat":45.606660692,
      "lon":-64.9404517899999,
      "province":"NB"
   },
   {
      "display_name":"Amostown",
      "lat":46.533520299,
      "lon":-66.2079459589999,
      "province":"NB"
   },
   {
      "display_name":"Anagance",
      "lat":45.866698837,
      "lon":-65.2499989879999,
      "province":"NB"
   },
   {
      "display_name":"Anderson Road",
      "lat":46.866699346,
      "lon":-67.4999998419999,
      "province":"NB"
   },
   {
      "display_name":"Anfield",
      "lat":46.926977193,
      "lon":-67.5143084459999,
      "province":"NB"
   },
   {
      "display_name":"Anse-Bleue",
      "lat":47.823823524,
      "lon":-65.0826271169999,
      "province":"NB"
   },
   {
      "display_name":"Apohaqui",
      "lat":45.698889794,
      "lon":-65.5968163009999,
      "province":"NB"
   },
   {
      "display_name":"Arbuckle",
      "lat":46.900001618,
      "lon":-67.3833010739999,
      "province":"NB"
   },
   {
      "display_name":"Argosy",
      "lat":46.983807519,
      "lon":-67.7134538369999,
      "province":"NB"
   },
   {
      "display_name":"Argyle",
      "lat":46.516700887,
      "lon":-67.3332978919999,
      "province":"NB"
   },
   {
      "display_name":"Armstrong Brook",
      "lat":47.915136132,
      "lon":-65.9666726999999,
      "province":"NB"
   },
   {
      "display_name":"Aroostook",
      "lat":46.805693868,
      "lon":-67.7227215509999,
      "province":"NB"
   },
   {
      "display_name":"Arthurette",
      "lat":46.790624393,
      "lon":-67.4872092259999,
      "province":"NB"
   },
   {
      "display_name":"Astle",
      "lat":46.416698465,
      "lon":-66.4666974379999,
      "province":"NB"
   },
   {
      "display_name":"Atholville",
      "lat":47.989758058,
      "lon":-66.7154146249999,
      "province":"NB"
   },
   {
      "display_name":"Back Bay",
      "lat":45.053332286,
      "lon":-66.8781732589999,
      "province":"NB"
   },
   {
      "display_name":"Baie Verte",
      "lat":46.018391005,
      "lon":-64.1007160779999,
      "province":"NB"
   },
   {
      "display_name":"Baie Verte Road",
      "lat":45.990994502,
      "lon":-64.1429516729999,
      "province":"NB"
   },
   {
      "display_name":"Baie-Sainte-Anne",
      "lat":47.051973669,
      "lon":-64.9538962599999,
      "province":"NB"
   },
   {
      "display_name":"Bains Corner",
      "lat":45.335211315,
      "lon":-65.6400308469999,
      "province":"NB"
   },
   {
      "display_name":"Bairdsville",
      "lat":46.629757562,
      "lon":-67.7141037029999,
      "province":"NB"
   },
   {
      "display_name":"Baker-Brook",
      "lat":47.301916105,
      "lon":-68.5085841549999,
      "province":"NB"
   },
   {
      "display_name":"Balmoral",
      "lat":47.973236012,
      "lon":-66.4470569139999,
      "province":"NB"
   },
   {
      "display_name":"Barachois",
      "lat":46.228637464,
      "lon":-64.4480260569999,
      "province":"NB"
   },
   {
      "display_name":"Barkers Point",
      "lat":45.951478805,
      "lon":-66.6211286659999,
      "province":"NB"
   },
   {
      "display_name":"Barnaby River",
      "lat":46.88586778,
      "lon":-65.5129554829999,
      "province":"NB"
   },
   {
      "display_name":"Barnesville",
      "lat":45.442198845,
      "lon":-65.7344912079999,
      "province":"NB"
   },
   {
      "display_name":"Barryville",
      "lat":47.15000171,
      "lon":-65.2500005789999,
      "province":"NB"
   },
   {
      "display_name":"Bartibog",
      "lat":47.185686891,
      "lon":-65.4058146069999,
      "province":"NB"
   },
   {
      "display_name":"Bas-Cap-Pelé",
      "lat":46.233733978,
      "lon":-64.2686931489999,
      "province":"NB"
   },
   {
      "display_name":"Bas-Caraquet",
      "lat":47.798024567,
      "lon":-64.8292314649999,
      "province":"NB"
   },
   {
      "display_name":"Bass River (Kent)",
      "lat":46.544547615,
      "lon":-65.1123991079999,
      "province":"NB"
   },
   {
      "display_name":"Bath",
      "lat":46.512233656,
      "lon":-67.5971323279999,
      "province":"NB"
   },
   {
      "display_name":"Bathurst",
      "lat":47.613708493,
      "lon":-65.6494212359999,
      "province":"NB"
   },
   {
      "display_name":"Bathurst Mines",
      "lat":47.416698866,
      "lon":-65.8000039639999,
      "province":"NB"
   },
   {
      "display_name":"Bay du Vin Beach",
      "lat":47.054765026,
      "lon":-65.1345260189999,
      "province":"NB"
   },
   {
      "display_name":"Bay Road",
      "lat":45.21534312,
      "lon":-67.2259795069999,
      "province":"NB"
   },
   {
      "display_name":"Bay View",
      "lat":45.37573628,
      "lon":-65.4990553879999,
      "province":"NB"
   },
   {
      "display_name":"Bayfield",
      "lat":46.136631684,
      "lon":-63.8150949959999,
      "province":"NB"
   },
   {
      "display_name":"Bayside (Charlotte)",
      "lat":45.135681685,
      "lon":-67.1138182189999,
      "province":"NB"
   },
   {
      "display_name":"Bayside (Westmorland)",
      "lat":46.066699492,
      "lon":-64.0166996679999,
      "province":"NB"
   },
   {
      "display_name":"Bayswater",
      "lat":45.351538475,
      "lon":-66.1377789659999,
      "province":"NB"
   },
   {
      "display_name":"Beaver Brook Station",
      "lat":47.133300826,
      "lon":-65.5999982619999,
      "province":"NB"
   },
   {
      "display_name":"Beaver Harbour",
      "lat":45.073742193,
      "lon":-66.7430646569999,
      "province":"NB"
   },
   {
      "display_name":"Bedec",
      "lat":46.683300414,
      "lon":-64.7833035789999,
      "province":"NB"
   },
   {
      "display_name":"Belledune",
      "lat":47.883145676,
      "lon":-65.8138435999999,
      "province":"NB"
   },
   {
      "display_name":"Belledune River",
      "lat":47.906534606,
      "lon":-65.8826236869999,
      "province":"NB"
   },
   {
      "display_name":"Bellefleur",
      "lat":47.116699203,
      "lon":-67.8833009729999,
      "province":"NB"
   },
   {
      "display_name":"Belleisle Creek",
      "lat":45.716701276,
      "lon":-65.7499994369999,
      "province":"NB"
   },
   {
      "display_name":"Belleville",
      "lat":46.200000922,
      "lon":-67.6999976359999,
      "province":"NB"
   },
   {
      "display_name":"Ben Lomond",
      "lat":45.33350751,
      "lon":-65.8891501899999,
      "province":"NB"
   },
   {
      "display_name":"Benjamin River",
      "lat":47.961082525,
      "lon":-66.1714446059999,
      "province":"NB"
   },
   {
      "display_name":"Benoit",
      "lat":47.486416094,
      "lon":-64.9612956999999,
      "province":"NB"
   },
   {
      "display_name":"Benton",
      "lat":45.990076543,
      "lon":-67.6051148429999,
      "province":"NB"
   },
   {
      "display_name":"Beresford",
      "lat":47.708382976,
      "lon":-65.7032682799999,
      "province":"NB"
   },
   {
      "display_name":"Berry Mills",
      "lat":46.109033781,
      "lon":-64.9386537639999,
      "province":"NB"
   },
   {
      "display_name":"Bertrand",
      "lat":47.754234557,
      "lon":-65.0723025199999,
      "province":"NB"
   },
   {
      "display_name":"Berwick",
      "lat":45.778848396,
      "lon":-65.5920262399999,
      "province":"NB"
   },
   {
      "display_name":"Bethel",
      "lat":45.158904483,
      "lon":-66.9160181869999,
      "province":"NB"
   },
   {
      "display_name":"Big Cove (Kent)",
      "lat":46.590064186,
      "lon":-64.9921337049999,
      "province":"NB"
   },
   {
      "display_name":"Big Hole",
      "lat":47.039843109,
      "lon":-65.8285219939999,
      "province":"NB"
   },
   {
      "display_name":"Big River",
      "lat":47.578664261,
      "lon":-65.6667458339999,
      "province":"NB"
   },
   {
      "display_name":"Black River (Northumberland)",
      "lat":46.967938813,
      "lon":-65.3255131649999,
      "province":"NB"
   },
   {
      "display_name":"Black River Bridge",
      "lat":47.011518498,
      "lon":-65.2553019799999,
      "province":"NB"
   },
   {
      "display_name":"Black Rock",
      "lat":47.749999808,
      "lon":-65.2332985039999,
      "province":"NB"
   },
   {
      "display_name":"Blacks Harbour",
      "lat":45.060845064,
      "lon":-66.7947232519999,
      "province":"NB"
   },
   {
      "display_name":"Blackville",
      "lat":46.73210434,
      "lon":-65.8296952899999,
      "province":"NB"
   },
   {
      "display_name":"Blair Athol",
      "lat":47.938846348,
      "lon":-66.5718103719999,
      "province":"NB"
   },
   {
      "display_name":"Blissfield",
      "lat":46.585945529,
      "lon":-66.0567392619999,
      "province":"NB"
   },
   {
      "display_name":"Bloomfield (Kings)",
      "lat":45.577058463,
      "lon":-65.7528195649999,
      "province":"NB"
   },
   {
      "display_name":"Bloomfield Ridge (York)",
      "lat":46.483299799,
      "lon":-66.4833005559999,
      "province":"NB"
   },
   {
      "display_name":"Blue Mountain Bend",
      "lat":47.099998607,
      "lon":-67.2667011989999,
      "province":"NB"
   },
   {
      "display_name":"Bocabec Cove",
      "lat":45.166698361,
      "lon":-67.0167003269999,
      "province":"NB"
   },
   {
      "display_name":"Boiestown",
      "lat":46.455464781,
      "lon":-66.4149897629999,
      "province":"NB"
   },
   {
      "display_name":"Boishébert",
      "lat":47.56764702,
      "lon":-64.9927455599999,
      "province":"NB"
   },
   {
      "display_name":"Bonny River",
      "lat":45.201754063,
      "lon":-66.8569311269999,
      "province":"NB"
   },
   {
      "display_name":"Bouctouche",
      "lat":46.473330189,
      "lon":-64.7220529599999,
      "province":"NB"
   },
   {
      "display_name":"Boundary",
      "lat":47.371320757,
      "lon":-68.7237672839999,
      "province":"NB"
   },
   {
      "display_name":"Boundary Creek",
      "lat":46.054824223,
      "lon":-64.9823829239999,
      "province":"NB"
   },
   {
      "display_name":"Bourgeois",
      "lat":46.311916231,
      "lon":-64.5235979939999,
      "province":"NB"
   },
   {
      "display_name":"Brantville",
      "lat":47.372594629,
      "lon":-64.9681981499999,
      "province":"NB"
   },
   {
      "display_name":"Briggs Corner (Queens)",
      "lat":46.209467514,
      "lon":-65.8973288019999,
      "province":"NB"
   },
   {
      "display_name":"Brockway",
      "lat":45.533298992,
      "lon":-67.1167003639999,
      "province":"NB"
   },
   {
      "display_name":"Browns Flat",
      "lat":45.468250771,
      "lon":-66.1337371969999,
      "province":"NB"
   },
   {
      "display_name":"Buctouche-Sud",
      "lat":46.46389649,
      "lon":-64.7119638779999,
      "province":"NB"
   },
   {
      "display_name":"Burgess Settlement",
      "lat":47.086629949,
      "lon":-67.5685810129999,
      "province":"NB"
   },
   {
      "display_name":"Burnt Church",
      "lat":47.202544589,
      "lon":-65.1271698839999,
      "province":"NB"
   },
   {
      "display_name":"Burtts Corner",
      "lat":46.060538505,
      "lon":-66.8758896659999,
      "province":"NB"
   },
   {
      "display_name":"Butte-D'Or",
      "lat":47.543526647,
      "lon":-65.2061757949999,
      "province":"NB"
   },
   {
      "display_name":"Cains Point",
      "lat":47.341248657,
      "lon":-65.1046561559999,
      "province":"NB"
   },
   {
      "display_name":"Caissie Cape",
      "lat":46.340631483,
      "lon":-64.5377242389999,
      "province":"NB"
   },
   {
      "display_name":"Cambridge-Narrows",
      "lat":45.830707956,
      "lon":-65.9557599069999,
      "province":"NB"
   },
   {
      "display_name":"Campbellton",
      "lat":47.998587918,
      "lon":-66.6685800829999,
      "province":"NB"
   },
   {
      "display_name":"Canaan Forks",
      "lat":46.04999898,
      "lon":-65.5500024559999,
      "province":"NB"
   },
   {
      "display_name":"Canobie",
      "lat":47.684976588,
      "lon":-65.3642070109999,
      "province":"NB"
   },
   {
      "display_name":"Canterbury",
      "lat":45.892287152,
      "lon":-67.4609110519999,
      "province":"NB"
   },
   {
      "display_name":"Cap-Bateau",
      "lat":47.814545932,
      "lon":-64.5377047059999,
      "province":"NB"
   },
   {
      "display_name":"Cap-de-Cocagne",
      "lat":46.351759994,
      "lon":-64.5559783779999,
      "province":"NB"
   },
   {
      "display_name":"Cape Spear",
      "lat":46.086365241,
      "lon":-63.8093569479999,
      "province":"NB"
   },
   {
      "display_name":"Cape Station",
      "lat":45.807568949,
      "lon":-64.6065517829999,
      "province":"NB"
   },
   {
      "display_name":"Cape Tormentine",
      "lat":46.12610157,
      "lon":-63.7949618529999,
      "province":"NB"
   },
   {
      "display_name":"Cap-Lumière",
      "lat":46.658844923,
      "lon":-64.7190384169999,
      "province":"NB"
   },
   {
      "display_name":"Cap-Pelé",
      "lat":46.213282721,
      "lon":-64.2737584299999,
      "province":"NB"
   },
   {
      "display_name":"Caraquet",
      "lat":47.787082188,
      "lon":-64.9555181569999,
      "province":"NB"
   },
   {
      "display_name":"Cardigan",
      "lat":46.150001219,
      "lon":-66.7833008589999,
      "province":"NB"
   },
   {
      "display_name":"Caron Brook",
      "lat":47.288141896,
      "lon":-68.5838583879999,
      "province":"NB"
   },
   {
      "display_name":"Carrolls Crossing",
      "lat":46.51994253,
      "lon":-66.2401281919999,
      "province":"NB"
   },
   {
      "display_name":"Carron Point",
      "lat":47.648218849,
      "lon":-65.6020427209999,
      "province":"NB"
   },
   {
      "display_name":"Carters Point",
      "lat":45.39105679,
      "lon":-66.1846992409999,
      "province":"NB"
   },
   {
      "display_name":"Castalia",
      "lat":44.732070537,
      "lon":-66.7573368169999,
      "province":"NB"
   },
   {
      "display_name":"Castalia Provincial Park",
      "lat":44.724914,
      "lon":-66.750561,
      "province":"NB"
   },
   {
      "display_name":"Central Blissville",
      "lat":45.631288537,
      "lon":-66.5786970939999,
      "province":"NB"
   },
   {
      "display_name":"Centre-Saint-Simon",
      "lat":47.736226683,
      "lon":-64.8405246449999,
      "province":"NB"
   },
   {
      "display_name":"Centreville (Carleton)",
      "lat":46.431450641,
      "lon":-67.7115102099999,
      "province":"NB"
   },
   {
      "display_name":"Chamcook",
      "lat":45.131389897,
      "lon":-67.0695966779999,
      "province":"NB"
   },
   {
      "display_name":"Chance Harbour",
      "lat":45.120471457,
      "lon":-66.3573019669999,
      "province":"NB"
   },
   {
      "display_name":"Chapel Grove",
      "lat":45.381268792,
      "lon":-66.0849680939999,
      "province":"NB"
   },
   {
      "display_name":"Chapman Corner",
      "lat":46.220575843,
      "lon":-64.5664004439999,
      "province":"NB"
   },
   {
      "display_name":"Charlo",
      "lat":47.990967277,
      "lon":-66.3065633959999,
      "province":"NB"
   },
   {
      "display_name":"Chatham",
      "lat":47.029592507,
      "lon":-65.4637383409999,
      "province":"NB"
   },
   {
      "display_name":"Chatham Head",
      "lat":46.998983341,
      "lon":-65.5461981959999,
      "province":"NB"
   },
   {
      "display_name":"Chiasson",
      "lat":47.735547346,
      "lon":-64.6359230489999,
      "province":"NB"
   },
   {
      "display_name":"Chipman",
      "lat":46.175356743,
      "lon":-65.8748567049999,
      "province":"NB"
   },
   {
      "display_name":"Clair",
      "lat":47.25367789,
      "lon":-68.6062337229999,
      "province":"NB"
   },
   {
      "display_name":"Clairville",
      "lat":46.383300919,
      "lon":-65.0999986489999,
      "province":"NB"
   },
   {
      "display_name":"Clarendon",
      "lat":45.478762092,
      "lon":-66.4177710399999,
      "province":"NB"
   },
   {
      "display_name":"Clifton",
      "lat":47.727108253,
      "lon":-65.3922655529999,
      "province":"NB"
   },
   {
      "display_name":"Cloverdale",
      "lat":46.30034151,
      "lon":-67.3590920259999,
      "province":"NB"
   },
   {
      "display_name":"Coburn",
      "lat":45.67585003,
      "lon":-67.0586736099999,
      "province":"NB"
   },
   {
      "display_name":"Cocagne",
      "lat":46.32993984,
      "lon":-64.6129453599999,
      "province":"NB"
   },
   {
      "display_name":"Codys",
      "lat":45.883300706,
      "lon":-65.8167034069999,
      "province":"NB"
   },
   {
      "display_name":"Coldstream",
      "lat":46.342847587,
      "lon":-67.4681671749999,
      "province":"NB"
   },
   {
      "display_name":"Coles Island (Queens)",
      "lat":45.919083955,
      "lon":-65.7882324559999,
      "province":"NB"
   },
   {
      "display_name":"College Bridge",
      "lat":45.979747916,
      "lon":-64.5459353429999,
      "province":"NB"
   },
   {
      "display_name":"Colpitts",
      "lat":45.23127439,
      "lon":-66.1645059589999,
      "province":"NB"
   },
   {
      "display_name":"Comeau Ridge",
      "lat":47.149929408,
      "lon":-67.6904582739999,
      "province":"NB"
   },
   {
      "display_name":"Connors",
      "lat":47.209887095,
      "lon":-68.8260721479999,
      "province":"NB"
   },
   {
      "display_name":"Cookville",
      "lat":46.040740217,
      "lon":-64.3333226209999,
      "province":"NB"
   },
   {
      "display_name":"Cormierville",
      "lat":46.404193977,
      "lon":-64.6238567079999,
      "province":"NB"
   },
   {
      "display_name":"Cornhill",
      "lat":45.910614983,
      "lon":-65.3429797349999,
      "province":"NB"
   },
   {
      "display_name":"Costigan",
      "lat":46.898663981,
      "lon":-67.7508909589999,
      "province":"NB"
   },
   {
      "display_name":"Coteau Road",
      "lat":47.832234074,
      "lon":-64.5625899309999,
      "province":"NB"
   },
   {
      "display_name":"Côte-d'Or",
      "lat":46.347623452,
      "lon":-64.6152858569999,
      "province":"NB"
   },
   {
      "display_name":"Côte-Sainte-Anne",
      "lat":46.581315237,
      "lon":-64.7276233839999,
      "province":"NB"
   },
   {
      "display_name":"Coughlan",
      "lat":46.770530701,
      "lon":-65.7581809449999,
      "province":"NB"
   },
   {
      "display_name":"Covedell",
      "lat":47.315322137,
      "lon":-65.0152058589999,
      "province":"NB"
   },
   {
      "display_name":"Crockets Corner",
      "lat":45.790889607,
      "lon":-65.3535862579999,
      "province":"NB"
   },
   {
      "display_name":"Cross Creek",
      "lat":46.309864644,
      "lon":-66.7175480889999,
      "province":"NB"
   },
   {
      "display_name":"Cross Roads (Gloucester)",
      "lat":47.640514922,
      "lon":-65.6856534009999,
      "province":"NB"
   },
   {
      "display_name":"Culligan",
      "lat":47.91252137,
      "lon":-65.9314424739999,
      "province":"NB"
   },
   {
      "display_name":"Cumberland Bay",
      "lat":46.040215037,
      "lon":-65.8656856909999,
      "province":"NB"
   },
   {
      "display_name":"Dalhousie",
      "lat":48.062698876,
      "lon":-66.3715242769999,
      "province":"NB"
   },
   {
      "display_name":"Dalhousie Junction",
      "lat":48.037145138,
      "lon":-66.4996839759999,
      "province":"NB"
   },
   {
      "display_name":"Darlington",
      "lat":48.049999196,
      "lon":-66.3833006919999,
      "province":"NB"
   },
   {
      "display_name":"Daulnay",
      "lat":47.414704373,
      "lon":-65.4590023899999,
      "province":"NB"
   },
   {
      "display_name":"Davidson Lake",
      "lat":45.93330043,
      "lon":-67.1333022729999,
      "province":"NB"
   },
   {
      "display_name":"Davis Mill (Madawaska)",
      "lat":47.347037102,
      "lon":-68.1391374429999,
      "province":"NB"
   },
   {
      "display_name":"Dawson Settlement",
      "lat":45.946842519,
      "lon":-64.7614529059999,
      "province":"NB"
   },
   {
      "display_name":"Dawsonville",
      "lat":47.932936183,
      "lon":-66.8927641139999,
      "province":"NB"
   },
   {
      "display_name":"de la République Provincial Park",
      "lat":47.4428269999999,
      "lon":-68.395279,
      "province":"NB"
   },
   {
      "display_name":"Debec",
      "lat":46.073167773,
      "lon":-67.6893824129999,
      "province":"NB"
   },
   {
      "display_name":"Deersdale",
      "lat":46.490827798,
      "lon":-67.0387555429999,
      "province":"NB"
   },
   {
      "display_name":"Derby",
      "lat":46.88860132,
      "lon":-65.6550141899999,
      "province":"NB"
   },
   {
      "display_name":"Deuxième-Sault",
      "lat":47.466480471,
      "lon":-68.2372668019999,
      "province":"NB"
   },
   {
      "display_name":"Devereaux",
      "lat":47.825564819,
      "lon":-65.7383573299999,
      "province":"NB"
   },
   {
      "display_name":"Dieppe",
      "lat":46.097806244,
      "lon":-64.7497488379999,
      "province":"NB"
   },
   {
      "display_name":"Digdeguash",
      "lat":45.183300034,
      "lon":-66.9666973299999,
      "province":"NB"
   },
   {
      "display_name":"Dipper Harbour West",
      "lat":45.091591012,
      "lon":-66.4291475789999,
      "province":"NB"
   },
   {
      "display_name":"Doaktown",
      "lat":46.552684757,
      "lon":-66.1261683269999,
      "province":"NB"
   },
   {
      "display_name":"Donnelly Settlement",
      "lat":45.845804884,
      "lon":-67.0347282969999,
      "province":"NB"
   },
   {
      "display_name":"Dorchester",
      "lat":45.900017379,
      "lon":-64.5161993009999,
      "province":"NB"
   },
   {
      "display_name":"Douglas",
      "lat":45.979114657,
      "lon":-66.7405112459999,
      "province":"NB"
   },
   {
      "display_name":"Douglastown",
      "lat":47.027925833,
      "lon":-65.5015714849999,
      "province":"NB"
   },
   {
      "display_name":"Dover Hill",
      "lat":46.627060283,
      "lon":-67.7530798179999,
      "province":"NB"
   },
   {
      "display_name":"Doyleville",
      "lat":47.903250248,
      "lon":-66.1009232509999,
      "province":"NB"
   },
   {
      "display_name":"Drummond",
      "lat":47.034989828,
      "lon":-67.6833090339999,
      "province":"NB"
   },
   {
      "display_name":"Dufourville",
      "lat":46.278871893,
      "lon":-64.7592196319999,
      "province":"NB"
   },
   {
      "display_name":"Duguayville",
      "lat":47.601824231,
      "lon":-65.0698209779999,
      "province":"NB"
   },
   {
      "display_name":"Dundee",
      "lat":48.002617534,
      "lon":-66.4841980559999,
      "province":"NB"
   },
   {
      "display_name":"Dupuis Corner",
      "lat":46.22182761,
      "lon":-64.3508530269999,
      "province":"NB"
   },
   {
      "display_name":"Durham Bridge",
      "lat":46.122274816,
      "lon":-66.6040026519999,
      "province":"NB"
   },
   {
      "display_name":"Durham Centre",
      "lat":47.918582805,
      "lon":-66.0319309389999,
      "province":"NB"
   },
   {
      "display_name":"East Riverside-Kinghurst",
      "lat":45.376168694,
      "lon":-66.0045953049999,
      "province":"NB"
   },
   {
      "display_name":"Edmundston",
      "lat":47.363867338,
      "lon":-68.3355729549999,
      "province":"NB"
   },
   {
      "display_name":"Edmundston-Est",
      "lat":47.376786559,
      "lon":-68.3231362839999,
      "province":"NB"
   },
   {
      "display_name":"Eel Ground",
      "lat":46.967312459,
      "lon":-65.6250974379999,
      "province":"NB"
   },
   {
      "display_name":"Eel River Crossing",
      "lat":48.015877852,
      "lon":-66.4230280989999,
      "province":"NB"
   },
   {
      "display_name":"Eel River Lake",
      "lat":45.835804879,
      "lon":-67.6481381009999,
      "province":"NB"
   },
   {
      "display_name":"Elgin",
      "lat":45.795764025,
      "lon":-65.1144891779999,
      "province":"NB"
   },
   {
      "display_name":"Ennemond",
      "lat":47.394723689,
      "lon":-68.4437184639999,
      "province":"NB"
   },
   {
      "display_name":"Enniskillen",
      "lat":45.544226874,
      "lon":-66.4953272919999,
      "province":"NB"
   },
   {
      "display_name":"Erbs Cove",
      "lat":45.59279387,
      "lon":-65.9148591169999,
      "province":"NB"
   },
   {
      "display_name":"Escuminac",
      "lat":47.075700263,
      "lon":-64.9121637049999,
      "province":"NB"
   },
   {
      "display_name":"Évangéline",
      "lat":47.692536349,
      "lon":-64.8468559639999,
      "province":"NB"
   },
   {
      "display_name":"Exmoor",
      "lat":46.983298737,
      "lon":-65.8332966089999,
      "province":"NB"
   },
   {
      "display_name":"Fairfield (Saint John)",
      "lat":45.337626726,
      "lon":-65.6859989019999,
      "province":"NB"
   },
   {
      "display_name":"Fairhaven",
      "lat":44.971773395,
      "lon":-67.0040890279999,
      "province":"NB"
   },
   {
      "display_name":"Fairisle",
      "lat":47.2818668,
      "lon":-65.1231436949999,
      "province":"NB"
   },
   {
      "display_name":"Fairvale",
      "lat":45.396909149,
      "lon":-65.9773220999999,
      "province":"NB"
   },
   {
      "display_name":"Five Fingers",
      "lat":47.512949319,
      "lon":-67.3588495979999,
      "province":"NB"
   },
   {
      "display_name":"Five Points",
      "lat":46.021966922,
      "lon":-65.0171299809999,
      "province":"NB"
   },
   {
      "display_name":"Flatlands",
      "lat":47.990214264,
      "lon":-66.8709201499999,
      "province":"NB"
   },
   {
      "display_name":"Florenceville-Bristol",
      "lat":46.452132,
      "lon":-67.6064419999999,
      "province":"NB"
   },
   {
      "display_name":"Forest City",
      "lat":45.667513949,
      "lon":-67.7271704629999,
      "province":"NB"
   },
   {
      "display_name":"Forest Corner",
      "lat":47.058067566,
      "lon":-65.4191719699999,
      "province":"NB"
   },
   {
      "display_name":"Forest Hills",
      "lat":45.311963305,
      "lon":-66.0059442579999,
      "province":"NB"
   },
   {
      "display_name":"Fosterville",
      "lat":45.799818471,
      "lon":-67.7648765479999,
      "province":"NB"
   },
   {
      "display_name":"Four Falls",
      "lat":46.825986714,
      "lon":-67.7407047009999,
      "province":"NB"
   },
   {
      "display_name":"Four Roads",
      "lat":47.610495048,
      "lon":-64.8420378809999,
      "province":"NB"
   },
   {
      "display_name":"Fredericton",
      "lat":45.955390956,
      "lon":-66.6455855959999,
      "province":"NB"
   },
   {
      "display_name":"Fredericton Junction",
      "lat":45.657986623,
      "lon":-66.6066656509999,
      "province":"NB"
   },
   {
      "display_name":"French Village (York)",
      "lat":45.953506233,
      "lon":-66.8547233809999,
      "province":"NB"
   },
   {
      "display_name":"Fundy National Park of Canada",
      "lat":45.616667,
      "lon":-65.033333,
      "province":"NB"
   },
   {
      "display_name":"Fundy Trail Provincial Park",
      "lat":45.4081999999999,
      "lon":-65.4289,
      "province":"NB"
   },
   {
      "display_name":"Gagetown",
      "lat":45.781005948,
      "lon":-66.1499847339999,
      "province":"NB"
   },
   {
      "display_name":"Gardner Creek",
      "lat":45.266701112,
      "lon":-65.7333005829999,
      "province":"NB"
   },
   {
      "display_name":"Garnett Settlement",
      "lat":45.305270749,
      "lon":-65.8482704729999,
      "province":"NB"
   },
   {
      "display_name":"Gaspereau Forks",
      "lat":46.237803248,
      "lon":-65.8565597909999,
      "province":"NB"
   },
   {
      "display_name":"Gautreau Village",
      "lat":45.967959193,
      "lon":-64.6459481079999,
      "province":"NB"
   },
   {
      "display_name":"Gaythorne",
      "lat":47.362737286,
      "lon":-65.0716837799999,
      "province":"NB"
   },
   {
      "display_name":"Geary",
      "lat":45.758100519,
      "lon":-66.4757572059999,
      "province":"NB"
   },
   {
      "display_name":"Gilmans Corner",
      "lat":45.210371893,
      "lon":-67.1454807259999,
      "province":"NB"
   },
   {
      "display_name":"Glassville",
      "lat":46.481220989,
      "lon":-67.4236582189999,
      "province":"NB"
   },
   {
      "display_name":"Glen Levit",
      "lat":47.961054959,
      "lon":-66.8505210409999,
      "province":"NB"
   },
   {
      "display_name":"Glencoe (Restigouche)",
      "lat":47.954297218,
      "lon":-66.8038317659999,
      "province":"NB"
   },
   {
      "display_name":"Gondola Point",
      "lat":45.43739204,
      "lon":-65.9939953289999,
      "province":"NB"
   },
   {
      "display_name":"Gooseberry Cove",
      "lat":45.146273228,
      "lon":-66.2597583069999,
      "province":"NB"
   },
   {
      "display_name":"Gordonsville",
      "lat":46.476806338,
      "lon":-67.5045644739999,
      "province":"NB"
   },
   {
      "display_name":"Grafton",
      "lat":46.163433023,
      "lon":-67.5644402129999,
      "province":"NB"
   },
   {
      "display_name":"Grand Bay",
      "lat":45.308594534,
      "lon":-66.2021920029999,
      "province":"NB"
   },
   {
      "display_name":"Grand Falls",
      "lat":47.042603006,
      "lon":-67.7470632749999,
      "province":"NB"
   },
   {
      "display_name":"Grand Falls Portage",
      "lat":47.014153817,
      "lon":-67.7577536589999,
      "province":"NB"
   },
   {
      "display_name":"Grand Falls Station",
      "lat":47.064261774,
      "lon":-67.7431409809999,
      "province":"NB"
   },
   {
      "display_name":"Grand Harbour",
      "lat":44.688041012,
      "lon":-66.7677107639999,
      "province":"NB"
   },
   {
      "display_name":"Grand Lake Road",
      "lat":46.519608282,
      "lon":-66.0942223589999,
      "province":"NB"
   },
   {
      "display_name":"Grand Manan",
      "lat":44.698056,
      "lon":-66.822222,
      "province":"NB"
   },
   {
      "display_name":"Grande-Aldouane",
      "lat":46.711213024,
      "lon":-64.9315698449999,
      "province":"NB"
   },
   {
      "display_name":"Grande-Anse",
      "lat":47.812770719,
      "lon":-65.1779133629999,
      "province":"NB"
   },
   {
      "display_name":"Grande-Digue",
      "lat":46.296116915,
      "lon":-64.5703989389999,
      "province":"NB"
   },
   {
      "display_name":"Grande-Plaine",
      "lat":47.988853165,
      "lon":-64.5312082109999,
      "province":"NB"
   },
   {
      "display_name":"Greenhill",
      "lat":46.065268833,
      "lon":-67.0289320259999,
      "province":"NB"
   },
   {
      "display_name":"Halls Corner",
      "lat":46.574458088,
      "lon":-67.6159356279999,
      "province":"NB"
   },
   {
      "display_name":"Hampton",
      "lat":45.524494084,
      "lon":-65.8197275379999,
      "province":"NB"
   },
   {
      "display_name":"Haneytown",
      "lat":45.795595884,
      "lon":-66.4753255499999,
      "province":"NB"
   },
   {
      "display_name":"Hanwell",
      "lat":45.879590809,
      "lon":-66.7835827359999,
      "province":"NB"
   },
   {
      "display_name":"Harcourt",
      "lat":46.47071208,
      "lon":-65.2442007029999,
      "province":"NB"
   },
   {
      "display_name":"Hardwicke",
      "lat":47.075109066,
      "lon":-65.0172992929999,
      "province":"NB"
   },
   {
      "display_name":"Hardwood Ridge",
      "lat":46.15000218,
      "lon":-66.0333037969999,
      "province":"NB"
   },
   {
      "display_name":"Harrisville",
      "lat":46.117743573,
      "lon":-64.7196094709999,
      "province":"NB"
   },
   {
      "display_name":"Harten Corner",
      "lat":46.150001749,
      "lon":-67.4167027029999,
      "province":"NB"
   },
   {
      "display_name":"Hartfield",
      "lat":46.025538391,
      "lon":-67.3206647909999,
      "province":"NB"
   },
   {
      "display_name":"Hartland",
      "lat":46.300839663,
      "lon":-67.5234383149999,
      "province":"NB"
   },
   {
      "display_name":"Harvey (Albert)",
      "lat":45.725659272,
      "lon":-64.7088054679999,
      "province":"NB"
   },
   {
      "display_name":"Harvey (York)",
      "lat":45.729241142,
      "lon":-67.0042379929999,
      "province":"NB"
   },
   {
      "display_name":"Hatfield Point",
      "lat":45.652706608,
      "lon":-65.8584621589999,
      "province":"NB"
   },
   {
      "display_name":"Haut-Caraquet",
      "lat":47.763991257,
      "lon":-65.0502702989999,
      "province":"NB"
   },
   {
      "display_name":"Haute-Aboujagane",
      "lat":46.148056911,
      "lon":-64.4004496179999,
      "province":"NB"
   },
   {
      "display_name":"Haut-Sainte-Rose",
      "lat":47.622914197,
      "lon":-64.9908824919999,
      "province":"NB"
   },
   {
      "display_name":"Haut-Saint-Simon",
      "lat":47.728085212,
      "lon":-64.8255782769999,
      "province":"NB"
   },
   {
      "display_name":"Haut-Shippegan",
      "lat":47.744663036,
      "lon":-64.7550469519999,
      "province":"NB"
   },
   {
      "display_name":"Havelock",
      "lat":45.995438106,
      "lon":-65.3135153899999,
      "province":"NB"
   },
   {
      "display_name":"Hawkshaw",
      "lat":45.974342591,
      "lon":-67.2339295549999,
      "province":"NB"
   },
   {
      "display_name":"Hazeldean",
      "lat":46.950000738,
      "lon":-67.5333018399999,
      "province":"NB"
   },
   {
      "display_name":"Hazen",
      "lat":47.493335,
      "lon":-67.4264446609999,
      "province":"NB"
   },
   {
      "display_name":"Head of Millstream",
      "lat":45.888383296,
      "lon":-65.5226722059999,
      "province":"NB"
   },
   {
      "display_name":"Hennigar Corner",
      "lat":47.053354562,
      "lon":-67.7179298159999,
      "province":"NB"
   },
   {
      "display_name":"Herring Cove Provincial Park",
      "lat":44.866667,
      "lon":-66.933333,
      "province":"NB"
   },
   {
      "display_name":"Hildegarde",
      "lat":46.118059415,
      "lon":-64.8502213999999,
      "province":"NB"
   },
   {
      "display_name":"Hillandale (Victoria)",
      "lat":46.71004806,
      "lon":-67.7273136079999,
      "province":"NB"
   },
   {
      "display_name":"Hillhurst",
      "lat":45.414508345,
      "lon":-65.9949385479999,
      "province":"NB"
   },
   {
      "display_name":"Hillsborough",
      "lat":45.923492573,
      "lon":-64.6478306419999,
      "province":"NB"
   },
   {
      "display_name":"Hillside (Victoria)",
      "lat":46.762933589,
      "lon":-67.5514131219999,
      "province":"NB"
   },
   {
      "display_name":"Holmesville",
      "lat":46.574490689,
      "lon":-67.6042717059999,
      "province":"NB"
   },
   {
      "display_name":"Holtville",
      "lat":46.516700229,
      "lon":-66.4832978199999,
      "province":"NB"
   },
   {
      "display_name":"Honeydale",
      "lat":45.36278489,
      "lon":-67.2091393029999,
      "province":"NB"
   },
   {
      "display_name":"Hopewell Cape",
      "lat":45.849998453,
      "lon":-64.5832972729999,
      "province":"NB"
   },
   {
      "display_name":"Hopewell Hill",
      "lat":45.766700857,
      "lon":-64.6832961699999,
      "province":"NB"
   },
   {
      "display_name":"Howard",
      "lat":46.666698104,
      "lon":-65.7833009779999,
      "province":"NB"
   },
   {
      "display_name":"Hoyt",
      "lat":45.585102231,
      "lon":-66.5567328519999,
      "province":"NB"
   },
   {
      "display_name":"Humphrey Corner",
      "lat":46.185097585,
      "lon":-65.9859259789999,
      "province":"NB"
   },
   {
      "display_name":"Hurley Corner",
      "lat":45.749999695,
      "lon":-66.9167013509999,
      "province":"NB"
   },
   {
      "display_name":"Indian Village",
      "lat":46.109720671,
      "lon":-67.5735150369999,
      "province":"NB"
   },
   {
      "display_name":"Inkerman",
      "lat":47.668489899,
      "lon":-64.8237558189999,
      "province":"NB"
   },
   {
      "display_name":"Inkerman Ferry",
      "lat":47.681417786,
      "lon":-64.8137293429999,
      "province":"NB"
   },
   {
      "display_name":"Inman",
      "lat":46.683944595,
      "lon":-67.7187452689999,
      "province":"NB"
   },
   {
      "display_name":"Irishtown",
      "lat":46.188714191,
      "lon":-64.7941996079999,
      "province":"NB"
   },
   {
      "display_name":"Iroquois",
      "lat":47.368816578,
      "lon":-68.2764450469999,
      "province":"NB"
   },
   {
      "display_name":"Jacksonville",
      "lat":46.189497458,
      "lon":-67.6132738689999,
      "province":"NB"
   },
   {
      "display_name":"Jacquet River",
      "lat":47.914644907,
      "lon":-66.0072814999999,
      "province":"NB"
   },
   {
      "display_name":"Jalbert",
      "lat":47.402716294,
      "lon":-68.2381240689999,
      "province":"NB"
   },
   {
      "display_name":"Janeville",
      "lat":47.686525095,
      "lon":-65.4491148389999,
      "province":"NB"
   },
   {
      "display_name":"Jardineville",
      "lat":46.654660541,
      "lon":-64.8537958389999,
      "province":"NB"
   },
   {
      "display_name":"Jeanne-Mance",
      "lat":47.349375037,
      "lon":-65.4314668799999,
      "province":"NB"
   },
   {
      "display_name":"Jeffries Corner",
      "lat":45.627063549,
      "lon":-65.4933353419999,
      "province":"NB"
   },
   {
      "display_name":"Jemseg",
      "lat":45.831464419,
      "lon":-66.1136982279999,
      "province":"NB"
   },
   {
      "display_name":"Jolicure",
      "lat":45.944170999,
      "lon":-64.2157473949999,
      "province":"NB"
   },
   {
      "display_name":"Juniper",
      "lat":46.551685221,
      "lon":-67.2239209649999,
      "province":"NB"
   },
   {
      "display_name":"Justasons Corner",
      "lat":45.100281461,
      "lon":-66.7615979689999,
      "province":"NB"
   },
   {
      "display_name":"Kedgwick",
      "lat":47.644874086,
      "lon":-67.3423262689999,
      "province":"NB"
   },
   {
      "display_name":"Kedgwick River",
      "lat":47.659538398,
      "lon":-67.4767992199999,
      "province":"NB"
   },
   {
      "display_name":"Keenan Siding",
      "lat":46.700001132,
      "lon":-65.8000039809999,
      "province":"NB"
   },
   {
      "display_name":"Keswick",
      "lat":45.996857354,
      "lon":-66.8287924099999,
      "province":"NB"
   },
   {
      "display_name":"Keswick Ridge",
      "lat":45.997597023,
      "lon":-66.8887104279999,
      "province":"NB"
   },
   {
      "display_name":"Kilburn",
      "lat":46.63805325,
      "lon":-67.7042618109999,
      "province":"NB"
   },
   {
      "display_name":"Killams Mills",
      "lat":46.019943891,
      "lon":-65.2296478859999,
      "province":"NB"
   },
   {
      "display_name":"Kincardine",
      "lat":46.638992825,
      "lon":-67.6544999379999,
      "province":"NB"
   },
   {
      "display_name":"Kingsclear",
      "lat":45.886691843,
      "lon":-66.9031386229999,
      "province":"NB"
   },
   {
      "display_name":"Kingston",
      "lat":45.499517621,
      "lon":-65.9838431929999,
      "province":"NB"
   },
   {
      "display_name":"Kirkland",
      "lat":45.966701439,
      "lon":-67.7166972799999,
      "province":"NB"
   },
   {
      "display_name":"Knoxford",
      "lat":46.494077124,
      "lon":-67.7372177959999,
      "province":"NB"
   },
   {
      "display_name":"Kouchibouguac",
      "lat":46.792136426,
      "lon":-65.0533634379999,
      "province":"NB"
   },
   {
      "display_name":"Kouchibouguac National Park of Canada",
      "lat":46.8583329999999,
      "lon":-64.975,
      "province":"NB"
   },
   {
      "display_name":"La Hêtrière",
      "lat":46.011092523,
      "lon":-64.5991809389999,
      "province":"NB"
   },
   {
      "display_name":"Lac Baker",
      "lat":47.333427242,
      "lon":-68.6406523499999,
      "province":"NB"
   },
   {
      "display_name":"Lagacéville",
      "lat":47.229897131,
      "lon":-65.1780025969999,
      "province":"NB"
   },
   {
      "display_name":"Lakeburn",
      "lat":46.10278979,
      "lon":-64.6787329149999,
      "province":"NB"
   },
   {
      "display_name":"Lakeside",
      "lat":45.515662915,
      "lon":-65.8369838189999,
      "province":"NB"
   },
   {
      "display_name":"Lakeville (Carleton)",
      "lat":46.33736323,
      "lon":-67.6859776399999,
      "province":"NB"
   },
   {
      "display_name":"Lakeville (Westmorland)",
      "lat":46.148859608,
      "lon":-64.6754280229999,
      "province":"NB"
   },
   {
      "display_name":"Lakeville Corner",
      "lat":45.906774809,
      "lon":-66.2544869529999,
      "province":"NB"
   },
   {
      "display_name":"Lakewood Heights",
      "lat":45.3110582,
      "lon":-65.9763290329999,
      "province":"NB"
   },
   {
      "display_name":"Lambertville",
      "lat":45.008870615,
      "lon":-66.9440091379999,
      "province":"NB"
   },
   {
      "display_name":"Lamèque",
      "lat":47.795666582,
      "lon":-64.6441337519999,
      "province":"NB"
   },
   {
      "display_name":"Landry",
      "lat":47.667128236,
      "lon":-64.9504907439999,
      "province":"NB"
   },
   {
      "display_name":"Lansdowne",
      "lat":46.385181224,
      "lon":-67.5177030709999,
      "province":"NB"
   },
   {
      "display_name":"LaPlante",
      "lat":47.768903818,
      "lon":-65.7758108159999,
      "province":"NB"
   },
   {
      "display_name":"Lavillette",
      "lat":47.262717699,
      "lon":-65.3256347469999,
      "province":"NB"
   },
   {
      "display_name":"Lawrence Station",
      "lat":45.424670603,
      "lon":-67.1746442909999,
      "province":"NB"
   },
   {
      "display_name":"Le Bouthillier",
      "lat":47.79656544,
      "lon":-64.9006791639999,
      "province":"NB"
   },
   {
      "display_name":"Le Goulet",
      "lat":47.704351261,
      "lon":-64.7111911159999,
      "province":"NB"
   },
   {
      "display_name":"LeBlanc",
      "lat":46.173280344,
      "lon":-64.2735223939999,
      "province":"NB"
   },
   {
      "display_name":"Leech",
      "lat":47.453366253,
      "lon":-64.9807657019999,
      "province":"NB"
   },
   {
      "display_name":"Légerville",
      "lat":46.309489094,
      "lon":-65.0003784199999,
      "province":"NB"
   },
   {
      "display_name":"Leonardville",
      "lat":44.975599712,
      "lon":-66.9560136269999,
      "province":"NB"
   },
   {
      "display_name":"Lepreau",
      "lat":45.168292237,
      "lon":-66.4798196209999,
      "province":"NB"
   },
   {
      "display_name":"Lepreau Falls Provincial Park",
      "lat":45.1683649999999,
      "lon":-66.460234,
      "province":"NB"
   },
   {
      "display_name":"Les Rapides",
      "lat":47.266701031,
      "lon":-68.5999990219999,
      "province":"NB"
   },
   {
      "display_name":"Letang",
      "lat":45.083301069,
      "lon":-66.8499968529999,
      "province":"NB"
   },
   {
      "display_name":"Levesque Settlement",
      "lat":47.13623874,
      "lon":-67.7384535459999,
      "province":"NB"
   },
   {
      "display_name":"Licford",
      "lat":46.783298397,
      "lon":-67.4999996199999,
      "province":"NB"
   },
   {
      "display_name":"Limekiln",
      "lat":46.266700221,
      "lon":-66.7833009759999,
      "province":"NB"
   },
   {
      "display_name":"Limestone (Victoria)",
      "lat":46.929090421,
      "lon":-67.7047023359999,
      "province":"NB"
   },
   {
      "display_name":"Lincoln",
      "lat":45.905553039,
      "lon":-66.5802124919999,
      "province":"NB"
   },
   {
      "display_name":"Lindys",
      "lat":45.798187511,
      "lon":-65.3141287009999,
      "province":"NB"
   },
   {
      "display_name":"Little Branch",
      "lat":47.004325208,
      "lon":-65.2156726619999,
      "province":"NB"
   },
   {
      "display_name":"Loggieville",
      "lat":47.070351126,
      "lon":-65.3814022839999,
      "province":"NB"
   },
   {
      "display_name":"Long Reach",
      "lat":45.470294678,
      "lon":-66.0888841999999,
      "province":"NB"
   },
   {
      "display_name":"Lorne (Restigouche)",
      "lat":47.873260244,
      "lon":-66.1273920859999,
      "province":"NB"
   },
   {
      "display_name":"Lorneville",
      "lat":45.184760781,
      "lon":-66.1580193789999,
      "province":"NB"
   },
   {
      "display_name":"Losier Settlement",
      "lat":47.563290671,
      "lon":-64.9337354949999,
      "province":"NB"
   },
   {
      "display_name":"Lower Brighton",
      "lat":46.250000223,
      "lon":-67.5000004819999,
      "province":"NB"
   },
   {
      "display_name":"Lower Burton",
      "lat":45.873873078,
      "lon":-66.3750735809999,
      "province":"NB"
   },
   {
      "display_name":"Lower Coverdale",
      "lat":46.031926237,
      "lon":-64.7211089379999,
      "province":"NB"
   },
   {
      "display_name":"Lower Greenfield",
      "lat":46.479846318,
      "lon":-67.6481464869999,
      "province":"NB"
   },
   {
      "display_name":"Lower Jemseg",
      "lat":45.785643208,
      "lon":-66.0938073869999,
      "province":"NB"
   },
   {
      "display_name":"Lower Kintore",
      "lat":46.670948449,
      "lon":-67.6516747509999,
      "province":"NB"
   },
   {
      "display_name":"Lower Neguac",
      "lat":47.267635435,
      "lon":-65.0588357649999,
      "province":"NB"
   },
   {
      "display_name":"Lower Newcastle",
      "lat":47.082238399,
      "lon":-65.3936027089999,
      "province":"NB"
   },
   {
      "display_name":"Lower Portage",
      "lat":46.926261882,
      "lon":-67.7227056259999,
      "province":"NB"
   },
   {
      "display_name":"Lower Prince William",
      "lat":45.88330087,
      "lon":-67.0000003619999,
      "province":"NB"
   },
   {
      "display_name":"Lower Queensbury",
      "lat":45.887226817,
      "lon":-66.9620632579999,
      "province":"NB"
   },
   {
      "display_name":"Lower Ridge",
      "lat":45.962791139,
      "lon":-65.3660107459999,
      "province":"NB"
   },
   {
      "display_name":"Ludlow",
      "lat":46.486978772,
      "lon":-66.3510477339999,
      "province":"NB"
   },
   {
      "display_name":"Lyttleton",
      "lat":46.937770899,
      "lon":-65.9124107829999,
      "province":"NB"
   },
   {
      "display_name":"Maces Bay",
      "lat":45.098090428,
      "lon":-66.4702419809999,
      "province":"NB"
   },
   {
      "display_name":"Mactaquac Provincial Park",
      "lat":45.966667,
      "lon":-66.883333,
      "province":"NB"
   },
   {
      "display_name":"Madran",
      "lat":47.817059485,
      "lon":-65.7724589569999,
      "province":"NB"
   },
   {
      "display_name":"Magaguadavic",
      "lat":45.747627131,
      "lon":-67.1635085419999,
      "province":"NB"
   },
   {
      "display_name":"Magnetic Hill",
      "lat":46.133300274,
      "lon":-64.9000007579999,
      "province":"NB"
   },
   {
      "display_name":"Maisonnette",
      "lat":47.816730226,
      "lon":-65.0131574309999,
      "province":"NB"
   },
   {
      "display_name":"Maliseet",
      "lat":46.765551476,
      "lon":-67.7064090499999,
      "province":"NB"
   },
   {
      "display_name":"Maltampec",
      "lat":47.674932578,
      "lon":-64.9819551249999,
      "province":"NB"
   },
   {
      "display_name":"Manners Sutton",
      "lat":45.691863439,
      "lon":-67.0410388929999,
      "province":"NB"
   },
   {
      "display_name":"Manuels",
      "lat":47.035509478,
      "lon":-64.9861263129999,
      "province":"NB"
   },
   {
      "display_name":"Maple Green",
      "lat":48.026873519,
      "lon":-66.5277364509999,
      "province":"NB"
   },
   {
      "display_name":"Mapleton",
      "lat":45.833301081,
      "lon":-65.0500021429999,
      "province":"NB"
   },
   {
      "display_name":"Maria-de-Kent",
      "lat":46.447558944,
      "lon":-64.7764347049999,
      "province":"NB"
   },
   {
      "display_name":"Martinon",
      "lat":45.289520267,
      "lon":-66.1952811089999,
      "province":"NB"
   },
   {
      "display_name":"Marysville",
      "lat":45.97789546,
      "lon":-66.5877437869999,
      "province":"NB"
   },
   {
      "display_name":"Matthews",
      "lat":46.927146528,
      "lon":-65.9211216569999,
      "province":"NB"
   },
   {
      "display_name":"Maugerville",
      "lat":45.87104655,
      "lon":-66.4525277719999,
      "province":"NB"
   },
   {
      "display_name":"McAdam",
      "lat":45.595429145,
      "lon":-67.3197233529999,
      "province":"NB"
   },
   {
      "display_name":"McDonald Corner",
      "lat":45.786392678,
      "lon":-65.9960081109999,
      "province":"NB"
   },
   {
      "display_name":"McGivney",
      "lat":46.363298277,
      "lon":-66.5635888879999,
      "province":"NB"
   },
   {
      "display_name":"McKeens Corner",
      "lat":45.970411074,
      "lon":-66.8522199779999,
      "province":"NB"
   },
   {
      "display_name":"McKees Mills",
      "lat":46.418184721,
      "lon":-64.7256076819999,
      "province":"NB"
   },
   {
      "display_name":"McKenna",
      "lat":46.214287685,
      "lon":-67.5091612189999,
      "province":"NB"
   },
   {
      "display_name":"McLeod Hill",
      "lat":46.025768032,
      "lon":-66.6814315969999,
      "province":"NB"
   },
   {
      "display_name":"McLeods",
      "lat":48.014821178,
      "lon":-66.5641297459999,
      "province":"NB"
   },
   {
      "display_name":"McNeish",
      "lat":48.057966006,
      "lon":-66.4148012799999,
      "province":"NB"
   },
   {
      "display_name":"Mechanic Settlement",
      "lat":45.727188639,
      "lon":-65.2082875849999,
      "province":"NB"
   },
   {
      "display_name":"Meductic",
      "lat":45.995228687,
      "lon":-67.4872280839999,
      "province":"NB"
   },
   {
      "display_name":"Memramcook",
      "lat":46.005274208,
      "lon":-64.5519066779999,
      "province":"NB"
   },
   {
      "display_name":"Memramcook East",
      "lat":46.013211794,
      "lon":-64.5185560519999,
      "province":"NB"
   },
   {
      "display_name":"Menneval",
      "lat":47.803869268,
      "lon":-67.1806109649999,
      "province":"NB"
   },
   {
      "display_name":"Middle Caraquet",
      "lat":47.800606584,
      "lon":-64.8702752879999,
      "province":"NB"
   },
   {
      "display_name":"Middle Sackville",
      "lat":45.920968891,
      "lon":-64.3641768279999,
      "province":"NB"
   },
   {
      "display_name":"Middle Southampton",
      "lat":45.971549989,
      "lon":-67.3810315289999,
      "province":"NB"
   },
   {
      "display_name":"Middlesex",
      "lat":45.966701348,
      "lon":-65.0167006119999,
      "province":"NB"
   },
   {
      "display_name":"Midgic",
      "lat":45.976232972,
      "lon":-64.2924977139999,
      "province":"NB"
   },
   {
      "display_name":"Midland (Kings)",
      "lat":45.653333478,
      "lon":-65.7865004149999,
      "province":"NB"
   },
   {
      "display_name":"Milford",
      "lat":45.26745079,
      "lon":-66.1045172999999,
      "province":"NB"
   },
   {
      "display_name":"Mill Cove",
      "lat":45.87809243,
      "lon":-66.0046588489999,
      "province":"NB"
   },
   {
      "display_name":"Miller Line Cache",
      "lat":47.366234068,
      "lon":-67.8628353839999,
      "province":"NB"
   },
   {
      "display_name":"Millidgeville",
      "lat":45.298242974,
      "lon":-66.1009194459999,
      "province":"NB"
   },
   {
      "display_name":"Milltown",
      "lat":45.173030241,
      "lon":-67.2989815599999,
      "province":"NB"
   },
   {
      "display_name":"Millville",
      "lat":46.127372382,
      "lon":-67.1928813179999,
      "province":"NB"
   },
   {
      "display_name":"Mineral",
      "lat":46.589387302,
      "lon":-67.5951746669999,
      "province":"NB"
   },
   {
      "display_name":"Minto",
      "lat":46.077222168,
      "lon":-66.0725163999999,
      "province":"NB"
   },
   {
      "display_name":"Miramichi",
      "lat":47.0041669999999,
      "lon":-65.466667,
      "province":"NB"
   },
   {
      "display_name":"Miscou Centre",
      "lat":47.940478856,
      "lon":-64.5680063159999,
      "province":"NB"
   },
   {
      "display_name":"Miscou Harbour",
      "lat":47.90000187,
      "lon":-64.5832987979999,
      "province":"NB"
   },
   {
      "display_name":"Miscou Lighthouse",
      "lat":48.008926419,
      "lon":-64.5235156439999,
      "province":"NB"
   },
   {
      "display_name":"Mispec",
      "lat":45.214558412,
      "lon":-65.9457674079999,
      "province":"NB"
   },
   {
      "display_name":"Moncton",
      "lat":46.090711753,
      "lon":-64.7914415729999,
      "province":"NB"
   },
   {
      "display_name":"Moorefield",
      "lat":47.045474345,
      "lon":-65.4777872489999,
      "province":"NB"
   },
   {
      "display_name":"Moores Mills",
      "lat":45.292372103,
      "lon":-67.2788014099999,
      "province":"NB"
   },
   {
      "display_name":"Morais",
      "lat":47.767728923,
      "lon":-64.7982496759999,
      "province":"NB"
   },
   {
      "display_name":"Morrisdale",
      "lat":45.383300759,
      "lon":-66.2166978929999,
      "province":"NB"
   },
   {
      "display_name":"Moulin-Morneault",
      "lat":47.457721029,
      "lon":-68.3581265819999,
      "province":"NB"
   },
   {
      "display_name":"Mount Carleton Provincial Park",
      "lat":47.3833329999999,
      "lon":-66.833333,
      "province":"NB"
   },
   {
      "display_name":"Mount Hope",
      "lat":46.050671053,
      "lon":-66.5056311939999,
      "province":"NB"
   },
   {
      "display_name":"Mountain Brook",
      "lat":47.983957711,
      "lon":-66.3606755259999,
      "province":"NB"
   },
   {
      "display_name":"Murray Beach Provincial Park",
      "lat":46.016667,
      "lon":-63.983333,
      "province":"NB"
   },
   {
      "display_name":"Murray Corner",
      "lat":46.1712792,
      "lon":-63.9633837399999,
      "province":"NB"
   },
   {
      "display_name":"Musquash",
      "lat":45.195920712,
      "lon":-66.3329234899999,
      "province":"NB"
   },
   {
      "display_name":"Nackawic",
      "lat":45.996173947,
      "lon":-67.2408803139999,
      "province":"NB"
   },
   {
      "display_name":"Napadogan",
      "lat":46.41054606,
      "lon":-66.9312777209999,
      "province":"NB"
   },
   {
      "display_name":"Nash Creek",
      "lat":47.920416088,
      "lon":-66.0840396759999,
      "province":"NB"
   },
   {
      "display_name":"Nashwaak Bridge",
      "lat":46.239441866,
      "lon":-66.6075698819999,
      "province":"NB"
   },
   {
      "display_name":"Nashwaak Village",
      "lat":46.094895093,
      "lon":-66.6141100909999,
      "province":"NB"
   },
   {
      "display_name":"Nashwaaksis",
      "lat":45.983688032,
      "lon":-66.6790849719999,
      "province":"NB"
   },
   {
      "display_name":"Nasonworth",
      "lat":45.835325397,
      "lon":-66.6746309779999,
      "province":"NB"
   },
   {
      "display_name":"Nauwigewauk",
      "lat":45.466701173,
      "lon":-65.9000004069999,
      "province":"NB"
   },
   {
      "display_name":"Neguac",
      "lat":47.244838641,
      "lon":-65.0849441709999,
      "province":"NB"
   },
   {
      "display_name":"Nelson-Miramichi",
      "lat":46.979485329,
      "lon":-65.5481305309999,
      "province":"NB"
   },
   {
      "display_name":"Nepisiguit Junction",
      "lat":47.561360404,
      "lon":-65.6693961629999,
      "province":"NB"
   },
   {
      "display_name":"Nerepis",
      "lat":45.393093727,
      "lon":-66.2984885829999,
      "province":"NB"
   },
   {
      "display_name":"New Bandon (Gloucester)",
      "lat":47.757558948,
      "lon":-65.3154228509999,
      "province":"NB"
   },
   {
      "display_name":"New Bandon (Northumberland)",
      "lat":46.496936789,
      "lon":-66.2779544989999,
      "province":"NB"
   },
   {
      "display_name":"New Denmark",
      "lat":46.993357645,
      "lon":-67.5940718329999,
      "province":"NB"
   },
   {
      "display_name":"New Jersey",
      "lat":47.202962841,
      "lon":-65.1976499009999,
      "province":"NB"
   },
   {
      "display_name":"New Line Road",
      "lat":45.668928131,
      "lon":-65.4912415469999,
      "province":"NB"
   },
   {
      "display_name":"New Maryland",
      "lat":45.89694307,
      "lon":-66.6823411579999,
      "province":"NB"
   },
   {
      "display_name":"New River Beach",
      "lat":45.136649183,
      "lon":-66.5290079309999,
      "province":"NB"
   },
   {
      "display_name":"New River Beach Provincial Park",
      "lat":45.1278059999999,
      "lon":-66.524714,
      "province":"NB"
   },
   {
      "display_name":"New Zion",
      "lat":46.05550606,
      "lon":-66.1002798009999,
      "province":"NB"
   },
   {
      "display_name":"Newcastle",
      "lat":47.000698212,
      "lon":-65.5705435449999,
      "province":"NB"
   },
   {
      "display_name":"Newcastle Bridge",
      "lat":46.081033437,
      "lon":-66.0504395219999,
      "province":"NB"
   },
   {
      "display_name":"Newtown",
      "lat":45.83330112,
      "lon":-65.4499962559999,
      "province":"NB"
   },
   {
      "display_name":"Nicholas Denys",
      "lat":47.697344826,
      "lon":-65.8852373889999,
      "province":"NB"
   },
   {
      "display_name":"Nictau",
      "lat":47.233299149,
      "lon":-67.1500010669999,
      "province":"NB"
   },
   {
      "display_name":"Nigadoo",
      "lat":47.740099483,
      "lon":-65.7144564529999,
      "province":"NB"
   },
   {
      "display_name":"Noonan",
      "lat":45.963651054,
      "lon":-66.5262419509999,
      "province":"NB"
   },
   {
      "display_name":"Normandie",
      "lat":46.482003,
      "lon":-64.9842586759999,
      "province":"NB"
   },
   {
      "display_name":"North Head",
      "lat":44.767974644,
      "lon":-66.7667651949999,
      "province":"NB"
   },
   {
      "display_name":"North Minto",
      "lat":46.09999843,
      "lon":-66.0832972859999,
      "province":"NB"
   },
   {
      "display_name":"North Tetagouche",
      "lat":47.635329076,
      "lon":-65.7621225159999,
      "province":"NB"
   },
   {
      "display_name":"North Tilley",
      "lat":46.838109174,
      "lon":-67.6687497979999,
      "province":"NB"
   },
   {
      "display_name":"Norton",
      "lat":45.632158727,
      "lon":-65.7020588899999,
      "province":"NB"
   },
   {
      "display_name":"Notre-Dame",
      "lat":46.313961927,
      "lon":-64.7265227719999,
      "province":"NB"
   },
   {
      "display_name":"Notre-Dame-des-Érables",
      "lat":47.637847623,
      "lon":-65.2428366169999,
      "province":"NB"
   },
   {
      "display_name":"Nowlanville",
      "lat":46.943443424,
      "lon":-65.5167007299999,
      "province":"NB"
   },
   {
      "display_name":"Oak Bay",
      "lat":45.227121411,
      "lon":-67.1924924969999,
      "province":"NB"
   },
   {
      "display_name":"Oak Bay Provincial Park",
      "lat":45.226705,
      "lon":-67.189731,
      "province":"NB"
   },
   {
      "display_name":"Oak Hill",
      "lat":45.333301535,
      "lon":-67.3332974249999,
      "province":"NB"
   },
   {
      "display_name":"Oak Point (Kings)",
      "lat":45.517370012,
      "lon":-66.0852460619999,
      "province":"NB"
   },
   {
      "display_name":"Oak Point (Northumberland)",
      "lat":47.123690462,
      "lon":-65.2696685109999,
      "province":"NB"
   },
   {
      "display_name":"Odell",
      "lat":46.817075547,
      "lon":-67.4296443339999,
      "province":"NB"
   },
   {
      "display_name":"O'Donnells",
      "lat":46.516701069,
      "lon":-66.2667014709999,
      "province":"NB"
   },
   {
      "display_name":"Old Ridge",
      "lat":45.24905463,
      "lon":-67.2854988659999,
      "province":"NB"
   },
   {
      "display_name":"Orange Hill",
      "lat":45.361660515,
      "lon":-65.5289694119999,
      "province":"NB"
   },
   {
      "display_name":"Oromocto",
      "lat":45.845062693,
      "lon":-66.4886200419999,
      "province":"NB"
   },
   {
      "display_name":"Oromocto West",
      "lat":45.833301198,
      "lon":-66.5166997209999,
      "province":"NB"
   },
   {
      "display_name":"Oxbow",
      "lat":47.014744305,
      "lon":-67.2954470399999,
      "province":"NB"
   },
   {
      "display_name":"Paquetville",
      "lat":47.668447257,
      "lon":-65.1067959399999,
      "province":"NB"
   },
   {
      "display_name":"Parker Ridge",
      "lat":46.453771249,
      "lon":-66.5248549899999,
      "province":"NB"
   },
   {
      "display_name":"Parkindale",
      "lat":45.866699552,
      "lon":-64.9832999309999,
      "province":"NB"
   },
   {
      "display_name":"Parlee Beach Provincial Park",
      "lat":46.2403549999999,
      "lon":-64.509858,
      "province":"NB"
   },
   {
      "display_name":"Patrieville",
      "lat":47.48342853,
      "lon":-68.4124745479999,
      "province":"NB"
   },
   {
      "display_name":"Patterson",
      "lat":45.549999564,
      "lon":-66.5333028629999,
      "province":"NB"
   },
   {
      "display_name":"Peel",
      "lat":46.351035465,
      "lon":-67.5532546799999,
      "province":"NB"
   },
   {
      "display_name":"Pelletiers Mill",
      "lat":47.233223848,
      "lon":-68.7604229739999,
      "province":"NB"
   },
   {
      "display_name":"Pemberton Ridge",
      "lat":45.716701484,
      "lon":-67.7500000399999,
      "province":"NB"
   },
   {
      "display_name":"Pennfield Corner",
      "lat":45.113173668,
      "lon":-66.7421595359999,
      "province":"NB"
   },
   {
      "display_name":"Pennfield Ridge",
      "lat":45.115676506,
      "lon":-66.7025754309999,
      "province":"NB"
   },
   {
      "display_name":"Penniac",
      "lat":46.037435971,
      "lon":-66.5682058949999,
      "province":"NB"
   },
   {
      "display_name":"Penobsquis",
      "lat":45.775035791,
      "lon":-65.3821929979999,
      "province":"NB"
   },
   {
      "display_name":"Perry Point",
      "lat":45.482479177,
      "lon":-65.9515284029999,
      "province":"NB"
   },
   {
      "display_name":"Perth-Andover",
      "lat":46.746055127,
      "lon":-67.7017723499999,
      "province":"NB"
   },
   {
      "display_name":"Peters River",
      "lat":47.679918153,
      "lon":-65.6919653159999,
      "province":"NB"
   },
   {
      "display_name":"Petit-Cap",
      "lat":46.189400406,
      "lon":-64.1646055419999,
      "province":"NB"
   },
   {
      "display_name":"Petitcodiac",
      "lat":45.932548544,
      "lon":-65.1704422559999,
      "province":"NB"
   },
   {
      "display_name":"Petite-Aldouane",
      "lat":46.70831897,
      "lon":-64.8916963009999,
      "province":"NB"
   },
   {
      "display_name":"Petite-Rivière-de-l'Ile",
      "lat":47.869289503,
      "lon":-64.6439262149999,
      "province":"NB"
   },
   {
      "display_name":"Petit-Rocher",
      "lat":47.784413576,
      "lon":-65.7183575949999,
      "province":"NB"
   },
   {
      "display_name":"Petit-Rocher-Nord",
      "lat":47.804128538,
      "lon":-65.7316498749999,
      "province":"NB"
   },
   {
      "display_name":"Petit-Rocher-Sud",
      "lat":47.761190476,
      "lon":-65.7136173309999,
      "province":"NB"
   },
   {
      "display_name":"Petit-Shippagan",
      "lat":47.876966773,
      "lon":-64.5946605909999,
      "province":"NB"
   },
   {
      "display_name":"Pigeon Hill",
      "lat":47.847614124,
      "lon":-64.5130540589999,
      "province":"NB"
   },
   {
      "display_name":"Plaster Rock",
      "lat":46.913164767,
      "lon":-67.3970776029999,
      "province":"NB"
   },
   {
      "display_name":"Pocologan",
      "lat":45.124274736,
      "lon":-66.5885096329999,
      "province":"NB"
   },
   {
      "display_name":"Point de Bute",
      "lat":45.899292579,
      "lon":-64.2426857829999,
      "province":"NB"
   },
   {
      "display_name":"Point Gardiner",
      "lat":47.070744952,
      "lon":-65.1012276049999,
      "province":"NB"
   },
   {
      "display_name":"Point La Nim",
      "lat":48.05370964,
      "lon":-66.4560980759999,
      "province":"NB"
   },
   {
      "display_name":"Pointe-Canot",
      "lat":47.83516221,
      "lon":-64.6947350549999,
      "province":"NB"
   },
   {
      "display_name":"Pointe-du-Chêne",
      "lat":46.237555497,
      "lon":-64.5173538049999,
      "province":"NB"
   },
   {
      "display_name":"Pointe-Sapin",
      "lat":46.966768985,
      "lon":-64.8326532099999,
      "province":"NB"
   },
   {
      "display_name":"Pointe-Verte",
      "lat":47.855804305,
      "lon":-65.7666931439999,
      "province":"NB"
   },
   {
      "display_name":"Pokemouche",
      "lat":47.671969429,
      "lon":-64.8837983449999,
      "province":"NB"
   },
   {
      "display_name":"Pokeshaw",
      "lat":47.786842716,
      "lon":-65.2554655279999,
      "province":"NB"
   },
   {
      "display_name":"Pokesudie",
      "lat":47.800657735,
      "lon":-64.7676560659999,
      "province":"NB"
   },
   {
      "display_name":"Pomeroy",
      "lat":45.389506119,
      "lon":-66.9172472509999,
      "province":"NB"
   },
   {
      "display_name":"Pontgravé",
      "lat":47.414671631,
      "lon":-64.9563860669999,
      "province":"NB"
   },
   {
      "display_name":"Pont-Lafrance",
      "lat":47.442252526,
      "lon":-64.9745360899999,
      "province":"NB"
   },
   {
      "display_name":"Pont-Landry",
      "lat":47.575141262,
      "lon":-64.9554857149999,
      "province":"NB"
   },
   {
      "display_name":"Port Elgin",
      "lat":46.050003353,
      "lon":-64.0862848159999,
      "province":"NB"
   },
   {
      "display_name":"Portage-du-Lac",
      "lat":47.316700106,
      "lon":-68.5999991459999,
      "province":"NB"
   },
   {
      "display_name":"Powers Creek",
      "lat":47.083301481,
      "lon":-67.8167030929999,
      "province":"NB"
   },
   {
      "display_name":"Priceville",
      "lat":46.513589506,
      "lon":-66.2854860059999,
      "province":"NB"
   },
   {
      "display_name":"Prime",
      "lat":47.282489642,
      "lon":-68.0984000919999,
      "province":"NB"
   },
   {
      "display_name":"Primrose",
      "lat":45.423132119,
      "lon":-65.7540360269999,
      "province":"NB"
   },
   {
      "display_name":"Prince of Wales",
      "lat":45.205074052,
      "lon":-66.2737449669999,
      "province":"NB"
   },
   {
      "display_name":"Princess Park",
      "lat":45.952011613,
      "lon":-66.0729817329999,
      "province":"NB"
   },
   {
      "display_name":"Public Landing",
      "lat":45.407300501,
      "lon":-66.1953875699999,
      "province":"NB"
   },
   {
      "display_name":"Quaker Brook",
      "lat":46.759925862,
      "lon":-67.6300269159999,
      "province":"NB"
   },
   {
      "display_name":"Quarryville",
      "lat":46.834623957,
      "lon":-65.7805145499999,
      "province":"NB"
   },
   {
      "display_name":"Quispamsis",
      "lat":45.448254028,
      "lon":-65.9401398629999,
      "province":"NB"
   },
   {
      "display_name":"Rang-des-Bossé",
      "lat":47.471090098,
      "lon":-68.3234227909999,
      "province":"NB"
   },
   {
      "display_name":"Rang-Double-Nord",
      "lat":47.650001365,
      "lon":-67.3833004409999,
      "province":"NB"
   },
   {
      "display_name":"Rang-Douze-Nord",
      "lat":47.551210178,
      "lon":-67.3915907489999,
      "province":"NB"
   },
   {
      "display_name":"Rang-Douze-Sud",
      "lat":47.485070263,
      "lon":-67.3928771799999,
      "province":"NB"
   },
   {
      "display_name":"Red Head",
      "lat":45.246041915,
      "lon":-65.9975809669999,
      "province":"NB"
   },
   {
      "display_name":"Renforth",
      "lat":45.357649399,
      "lon":-66.0103733439999,
      "province":"NB"
   },
   {
      "display_name":"Renous",
      "lat":46.815461391,
      "lon":-65.7971971869999,
      "province":"NB"
   },
   {
      "display_name":"Rexton",
      "lat":46.640146164,
      "lon":-64.8642638399999,
      "province":"NB"
   },
   {
      "display_name":"Riceville (Madawaska)",
      "lat":47.346183099,
      "lon":-68.4588428369999,
      "province":"NB"
   },
   {
      "display_name":"Richibucto",
      "lat":46.682455093,
      "lon":-64.8677153959999,
      "province":"NB"
   },
   {
      "display_name":"Richibucto-Village",
      "lat":46.656112245,
      "lon":-64.7595325609999,
      "province":"NB"
   },
   {
      "display_name":"Richmond Corner",
      "lat":46.145156484,
      "lon":-67.7067353779999,
      "province":"NB"
   },
   {
      "display_name":"Riley Brook",
      "lat":47.174492322,
      "lon":-67.2107900659999,
      "province":"NB"
   },
   {
      "display_name":"Ripples",
      "lat":45.996034903,
      "lon":-66.2147320009999,
      "province":"NB"
   },
   {
      "display_name":"River Glade",
      "lat":45.988000215,
      "lon":-65.1171754619999,
      "province":"NB"
   },
   {
      "display_name":"Riverside-Albert",
      "lat":45.748809354,
      "lon":-64.7317685219999,
      "province":"NB"
   },
   {
      "display_name":"Riverview",
      "lat":46.05816145,
      "lon":-64.8118551599999,
      "province":"NB"
   },
   {
      "display_name":"Rivière-du-Portage",
      "lat":47.421026552,
      "lon":-64.9348988619999,
      "province":"NB"
   },
   {
      "display_name":"Rivière-Verte",
      "lat":47.320355774,
      "lon":-68.1454238999999,
      "province":"NB"
   },
   {
      "display_name":"Robertville",
      "lat":47.695401552,
      "lon":-65.7727072699999,
      "province":"NB"
   },
   {
      "display_name":"Robichaud",
      "lat":46.22010395,
      "lon":-64.3813970149999,
      "province":"NB"
   },
   {
      "display_name":"Robinsonville",
      "lat":47.869074656,
      "lon":-66.9504024339999,
      "province":"NB"
   },
   {
      "display_name":"Rockport",
      "lat":45.733299033,
      "lon":-64.4999989539999,
      "province":"NB"
   },
   {
      "display_name":"Rogersville",
      "lat":46.73519787,
      "lon":-65.4279101609999,
      "province":"NB"
   },
   {
      "display_name":"Rollingdam",
      "lat":45.314320855,
      "lon":-67.0830576549999,
      "province":"NB"
   },
   {
      "display_name":"Rosevale",
      "lat":45.849998145,
      "lon":-64.8499977639999,
      "province":"NB"
   },
   {
      "display_name":"Rothesay",
      "lat":45.390143196,
      "lon":-65.9965792769999,
      "province":"NB"
   },
   {
      "display_name":"Rothwell",
      "lat":46.070199035,
      "lon":-66.0588450929999,
      "province":"NB"
   },
   {
      "display_name":"Rough Waters",
      "lat":47.590440721,
      "lon":-65.6414258509999,
      "province":"NB"
   },
   {
      "display_name":"Rusagonis",
      "lat":45.801999661,
      "lon":-66.6211562939999,
      "province":"NB"
   },
   {
      "display_name":"Russelltown",
      "lat":46.536692341,
      "lon":-66.1843276199999,
      "province":"NB"
   },
   {
      "display_name":"Sackville",
      "lat":45.895001141,
      "lon":-64.3647684139999,
      "province":"NB"
   },
   {
      "display_name":"Saint Andrews",
      "lat":45.076450394,
      "lon":-67.0505731579999,
      "province":"NB"
   },
   {
      "display_name":"Saint Croix Provincial Park",
      "lat":45.4833329999999,
      "lon":-67.5,
      "province":"NB"
   },
   {
      "display_name":"Saint John",
      "lat":45.276499907,
      "lon":-66.0781406899999,
      "province":"NB"
   },
   {
      "display_name":"Saint John East",
      "lat":45.283298358,
      "lon":-66.0333021779999,
      "province":"NB"
   },
   {
      "display_name":"Saint John West",
      "lat":45.257046041,
      "lon":-66.0725871389999,
      "province":"NB"
   },
   {
      "display_name":"Saint-André",
      "lat":47.098839908,
      "lon":-67.7612897409999,
      "province":"NB"
   },
   {
      "display_name":"Saint-Anselme",
      "lat":46.06340003,
      "lon":-64.7122662169999,
      "province":"NB"
   },
   {
      "display_name":"Saint-Antoine",
      "lat":46.364209453,
      "lon":-64.7530875999999,
      "province":"NB"
   },
   {
      "display_name":"Saint-Arthur",
      "lat":47.889850485,
      "lon":-66.7567350939999,
      "province":"NB"
   },
   {
      "display_name":"Saint-Basile",
      "lat":47.355399283,
      "lon":-68.2232846969999,
      "province":"NB"
   },
   {
      "display_name":"Saint-Charles",
      "lat":46.664204126,
      "lon":-64.9779610739999,
      "province":"NB"
   },
   {
      "display_name":"Sainte-Anne (Gloucester)",
      "lat":47.627970984,
      "lon":-65.7224785609999,
      "province":"NB"
   },
   {
      "display_name":"Sainte-Anne-de-Kent",
      "lat":46.553631957,
      "lon":-64.7756101439999,
      "province":"NB"
   },
   {
      "display_name":"Sainte-Anne-de-Madawaska",
      "lat":47.249438418,
      "lon":-68.0230918559999,
      "province":"NB"
   },
   {
      "display_name":"Sainte-Anne-du-Bocage",
      "lat":47.767958387,
      "lon":-65.0118345929999,
      "province":"NB"
   },
   {
      "display_name":"Sainte-Cécile",
      "lat":47.854387661,
      "lon":-64.6673812429999,
      "province":"NB"
   },
   {
      "display_name":"Saint-Édouard-de-Kent",
      "lat":46.543349423,
      "lon":-64.7118596059999,
      "province":"NB"
   },
   {
      "display_name":"Sainte-Marie-de-Kent",
      "lat":46.415996687,
      "lon":-64.8266218299999,
      "province":"NB"
   },
   {
      "display_name":"Sainte-Marie-Saint-Raphaël",
      "lat":47.797889898,
      "lon":-64.5654507869999,
      "province":"NB"
   },
   {
      "display_name":"Sainte-Marie-sur-Mer",
      "lat":47.777315234,
      "lon":-64.5783393679999,
      "province":"NB"
   },
   {
      "display_name":"Sainte-Rose-Gloucester",
      "lat":47.618373779,
      "lon":-64.9335821749999,
      "province":"NB"
   },
   {
      "display_name":"Saint-François de Madawaska",
      "lat":47.244859168,
      "lon":-68.6978111979999,
      "province":"NB"
   },
   {
      "display_name":"Saint-Ignace",
      "lat":46.697859908,
      "lon":-65.0795946149999,
      "province":"NB"
   },
   {
      "display_name":"Saint-Isidore",
      "lat":47.555934327,
      "lon":-65.0408530429999,
      "province":"NB"
   },
   {
      "display_name":"Saint-Jacques",
      "lat":47.433378418,
      "lon":-68.3882023039999,
      "province":"NB"
   },
   {
      "display_name":"Saint-Jean-Baptiste-de-Restigouche",
      "lat":47.76557875,
      "lon":-67.2128445789999,
      "province":"NB"
   },
   {
      "display_name":"Saint-Joseph (Westmorland)",
      "lat":45.976210822,
      "lon":-64.5641740119999,
      "province":"NB"
   },
   {
      "display_name":"Saint-Joseph-de-Madawaska",
      "lat":47.4558599,
      "lon":-68.3151799999999,
      "province":"NB"
   },
   {
      "display_name":"Saint-Laurent",
      "lat":47.724479013,
      "lon":-65.7746851269999,
      "province":"NB"
   },
   {
      "display_name":"Saint-Léolin",
      "lat":47.770016314,
      "lon":-65.1668350689999,
      "province":"NB"
   },
   {
      "display_name":"Saint-Léonard",
      "lat":47.164175922,
      "lon":-67.9248457999999,
      "province":"NB"
   },
   {
      "display_name":"Saint-Léonard-Parent",
      "lat":47.145825395,
      "lon":-67.9035521909999,
      "province":"NB"
   },
   {
      "display_name":"Saint-Louis de Kent",
      "lat":46.737518913,
      "lon":-64.9728783379999,
      "province":"NB"
   },
   {
      "display_name":"Saint-Martin-de-Restigouche",
      "lat":47.57105495,
      "lon":-67.3349746749999,
      "province":"NB"
   },
   {
      "display_name":"Saint-Maure",
      "lat":47.947639129,
      "lon":-66.4683899159999,
      "province":"NB"
   },
   {
      "display_name":"Saint-Paul",
      "lat":46.328195918,
      "lon":-65.0163839169999,
      "province":"NB"
   },
   {
      "display_name":"Saint-Philippe",
      "lat":46.215112223,
      "lon":-64.6925045199999,
      "province":"NB"
   },
   {
      "display_name":"Saint-Pierre-de-Kent",
      "lat":46.513185033,
      "lon":-64.7568082849999,
      "province":"NB"
   },
   {
      "display_name":"Saint-Pons",
      "lat":47.474714388,
      "lon":-64.9614933609999,
      "province":"NB"
   },
   {
      "display_name":"Saint-Quentin (Restigouche)",
      "lat":47.508626153,
      "lon":-67.3902688019999,
      "province":"NB"
   },
   {
      "display_name":"Saint-Sauveur",
      "lat":47.525640354,
      "lon":-65.2876236509999,
      "province":"NB"
   },
   {
      "display_name":"Saint-Thomas-de-Kent",
      "lat":46.443213637,
      "lon":-64.6444112579999,
      "province":"NB"
   },
   {
      "display_name":"Saint-Wilfred",
      "lat":47.257969273,
      "lon":-65.2244240039999,
      "province":"NB"
   },
   {
      "display_name":"Salisbury",
      "lat":46.027238241,
      "lon":-65.0420338709999,
      "province":"NB"
   },
   {
      "display_name":"Salmon Beach",
      "lat":47.662252487,
      "lon":-65.5326724479999,
      "province":"NB"
   },
   {
      "display_name":"Salmon River",
      "lat":45.415764662,
      "lon":-65.4084890469999,
      "province":"NB"
   },
   {
      "display_name":"Salmonhurst Corner",
      "lat":46.978080978,
      "lon":-67.6293357579999,
      "province":"NB"
   },
   {
      "display_name":"Salt Springs",
      "lat":45.547999008,
      "lon":-65.6474596459999,
      "province":"NB"
   },
   {
      "display_name":"Sand Point",
      "lat":45.344894182,
      "lon":-66.1943366809999,
      "province":"NB"
   },
   {
      "display_name":"Sandyville",
      "lat":45.991544284,
      "lon":-66.5847754319999,
      "province":"NB"
   },
   {
      "display_name":"Saumarez",
      "lat":47.499901162,
      "lon":-64.9401495679999,
      "province":"NB"
   },
   {
      "display_name":"Savoy Landing",
      "lat":47.752076296,
      "lon":-64.6860809329999,
      "province":"NB"
   },
   {
      "display_name":"Scotch Lake",
      "lat":45.958989597,
      "lon":-66.9739051319999,
      "province":"NB"
   },
   {
      "display_name":"Scotch Ridge",
      "lat":45.282986555,
      "lon":-67.3976895879999,
      "province":"NB"
   },
   {
      "display_name":"Scotch Settlement (York)",
      "lat":45.983299166,
      "lon":-66.9332954459999,
      "province":"NB"
   },
   {
      "display_name":"Scoudouc",
      "lat":46.163156384,
      "lon":-64.5626829339999,
      "province":"NB"
   },
   {
      "display_name":"Sea Side",
      "lat":47.951095353,
      "lon":-66.1319308589999,
      "province":"NB"
   },
   {
      "display_name":"Seal Cove",
      "lat":44.653111893,
      "lon":-66.8427307049999,
      "province":"NB"
   },
   {
      "display_name":"Selwood",
      "lat":47.982663468,
      "lon":-66.4046746459999,
      "province":"NB"
   },
   {
      "display_name":"Shediac",
      "lat":46.219449516,
      "lon":-64.5385905019999,
      "province":"NB"
   },
   {
      "display_name":"Shediac Bridge",
      "lat":46.273503742,
      "lon":-64.5854571259999,
      "province":"NB"
   },
   {
      "display_name":"Shediac Cape",
      "lat":46.242353484,
      "lon":-64.5689776389999,
      "province":"NB"
   },
   {
      "display_name":"Sheila",
      "lat":47.483299682,
      "lon":-64.9167031909999,
      "province":"NB"
   },
   {
      "display_name":"Shemogue",
      "lat":46.156813713,
      "lon":-64.1807567149999,
      "province":"NB"
   },
   {
      "display_name":"Shinnickburn",
      "lat":46.549998945,
      "lon":-65.8332965739999,
      "province":"NB"
   },
   {
      "display_name":"Shippagan",
      "lat":47.740637843,
      "lon":-64.7124569479999,
      "province":"NB"
   },
   {
      "display_name":"Siegas",
      "lat":47.216743266,
      "lon":-67.9817235769999,
      "province":"NB"
   },
   {
      "display_name":"Siegas Lake Settlement",
      "lat":47.311807722,
      "lon":-67.9145324159999,
      "province":"NB"
   },
   {
      "display_name":"Sillikers",
      "lat":46.942647142,
      "lon":-65.8747934239999,
      "province":"NB"
   },
   {
      "display_name":"Silverwood",
      "lat":45.963095846,
      "lon":-66.7663746469999,
      "province":"NB"
   },
   {
      "display_name":"Simpson Corner",
      "lat":45.229393132,
      "lon":-67.1746711689999,
      "province":"NB"
   },
   {
      "display_name":"Sirois",
      "lat":47.283298256,
      "lon":-67.9999996999999,
      "province":"NB"
   },
   {
      "display_name":"Sisson Brook",
      "lat":46.982525908,
      "lon":-67.3757454309999,
      "province":"NB"
   },
   {
      "display_name":"Six Roads",
      "lat":47.622314437,
      "lon":-64.8718682039999,
      "province":"NB"
   },
   {
      "display_name":"Smiths Creek",
      "lat":45.775902719,
      "lon":-65.4804579389999,
      "province":"NB"
   },
   {
      "display_name":"Somerville",
      "lat":46.290837226,
      "lon":-67.5345709009999,
      "province":"NB"
   },
   {
      "display_name":"South Branch (Kent)",
      "lat":46.536292932,
      "lon":-64.9097420659999,
      "province":"NB"
   },
   {
      "display_name":"South Branch (Kings)",
      "lat":45.748170046,
      "lon":-65.2896955219999,
      "province":"NB"
   },
   {
      "display_name":"South River",
      "lat":47.650001356,
      "lon":-64.8666990649999,
      "province":"NB"
   },
   {
      "display_name":"South Tetagouche",
      "lat":47.602022628,
      "lon":-65.8402169739999,
      "province":"NB"
   },
   {
      "display_name":"Southfield",
      "lat":45.595091192,
      "lon":-65.6233503709999,
      "province":"NB"
   },
   {
      "display_name":"Springfield (Kings)",
      "lat":45.675734096,
      "lon":-65.8141096499999,
      "province":"NB"
   },
   {
      "display_name":"Springhill (York)",
      "lat":45.963863034,
      "lon":-66.7239909109999,
      "province":"NB"
   },
   {
      "display_name":"St. Croix",
      "lat":45.563110322,
      "lon":-67.4222544779999,
      "province":"NB"
   },
   {
      "display_name":"St. George",
      "lat":45.130084947,
      "lon":-66.8248157749999,
      "province":"NB"
   },
   {
      "display_name":"St. Hilaire",
      "lat":47.289774615,
      "lon":-68.4066803209999,
      "province":"NB"
   },
   {
      "display_name":"St. Margarets",
      "lat":46.906144356,
      "lon":-65.1966134549999,
      "province":"NB"
   },
   {
      "display_name":"St. Martins",
      "lat":45.348447777,
      "lon":-65.5552004079999,
      "province":"NB"
   },
   {
      "display_name":"St. Mary",
      "lat":47.606702311,
      "lon":-65.6316259589999,
      "province":"NB"
   },
   {
      "display_name":"St. Stephen",
      "lat":45.19894656,
      "lon":-67.2799746459999,
      "province":"NB"
   },
   {
      "display_name":"Stanley",
      "lat":46.284904939,
      "lon":-66.7339308039999,
      "province":"NB"
   },
   {
      "display_name":"Stickney",
      "lat":46.383300775,
      "lon":-67.5667032519999,
      "province":"NB"
   },
   {
      "display_name":"Stonehaven",
      "lat":47.749028815,
      "lon":-65.3565651589999,
      "province":"NB"
   },
   {
      "display_name":"Stoneycroft",
      "lat":45.414889992,
      "lon":-65.9557188889999,
      "province":"NB"
   },
   {
      "display_name":"Storeytown",
      "lat":46.566699785,
      "lon":-66.1500005809999,
      "province":"NB"
   },
   {
      "display_name":"Strathadam",
      "lat":46.966701898,
      "lon":-65.6667030679999,
      "province":"NB"
   },
   {
      "display_name":"Sugarloaf Provincial Park",
      "lat":47.966667,
      "lon":-66.666667,
      "province":"NB"
   },
   {
      "display_name":"Summerfield (Carleton)",
      "lat":46.527722716,
      "lon":-67.6874119999999,
      "province":"NB"
   },
   {
      "display_name":"Sunny Corner",
      "lat":46.948462543,
      "lon":-65.8116940549999,
      "province":"NB"
   },
   {
      "display_name":"Sussex",
      "lat":45.723597846,
      "lon":-65.5164121859999,
      "province":"NB"
   },
   {
      "display_name":"Sussex Corner",
      "lat":45.709161692,
      "lon":-65.4769513259999,
      "province":"NB"
   },
   {
      "display_name":"Tabusintac",
      "lat":47.327108644,
      "lon":-65.0112317799999,
      "province":"NB"
   },
   {
      "display_name":"Tay Creek",
      "lat":46.236992777,
      "lon":-66.8150509539999,
      "province":"NB"
   },
   {
      "display_name":"Taymouth",
      "lat":46.183128006,
      "lon":-66.6076135109999,
      "province":"NB"
   },
   {
      "display_name":"Temperance Vale",
      "lat":46.061470536,
      "lon":-67.2465927599999,
      "province":"NB"
   },
   {
      "display_name":"The Anchorage Provincial Park",
      "lat":44.664591,
      "lon":-66.80657,
      "province":"NB"
   },
   {
      "display_name":"The Cedars",
      "lat":45.477374798,
      "lon":-66.0778308409999,
      "province":"NB"
   },
   {
      "display_name":"The Glades",
      "lat":45.948523931,
      "lon":-65.0765775419999,
      "province":"NB"
   },
   {
      "display_name":"The Ledge",
      "lat":45.174878664,
      "lon":-67.2040664089999,
      "province":"NB"
   },
   {
      "display_name":"The Lots",
      "lat":46.683300132,
      "lon":-65.8499988649999,
      "province":"NB"
   },
   {
      "display_name":"The Rocks Provincial Park",
      "lat":45.833333,
      "lon":-64.566667,
      "province":"NB"
   },
   {
      "display_name":"The Willows",
      "lat":47.116570966,
      "lon":-65.2810186229999,
      "province":"NB"
   },
   {
      "display_name":"Thériault",
      "lat":47.731031885,
      "lon":-65.0571584109999,
      "province":"NB"
   },
   {
      "display_name":"Thibault",
      "lat":47.612805812,
      "lon":-67.3478501249999,
      "province":"NB"
   },
   {
      "display_name":"Tide Head",
      "lat":47.983663145,
      "lon":-66.7715905589999,
      "province":"NB"
   },
   {
      "display_name":"Titusville",
      "lat":45.4832989,
      "lon":-65.7499994839999,
      "province":"NB"
   },
   {
      "display_name":"Tracadie",
      "lat":47.513979304,
      "lon":-64.9145789739999,
      "province":"NB"
   },
   {
      "display_name":"Tracey Mills",
      "lat":46.438988519,
      "lon":-67.7462414639999,
      "province":"NB"
   },
   {
      "display_name":"Tracy",
      "lat":45.677608019,
      "lon":-66.6836890119999,
      "province":"NB"
   },
   {
      "display_name":"Tremblay",
      "lat":47.750000655,
      "lon":-65.7500013489999,
      "province":"NB"
   },
   {
      "display_name":"Trois-Ruisseaux",
      "lat":46.208650895,
      "lon":-64.2083644229999,
      "province":"NB"
   },
   {
      "display_name":"Trout Brook",
      "lat":47.114873803,
      "lon":-65.7835095939999,
      "province":"NB"
   },
   {
      "display_name":"Turtle Creek",
      "lat":45.9645609,
      "lon":-64.8874763979999,
      "province":"NB"
   },
   {
      "display_name":"Two Brooks",
      "lat":47.070951919,
      "lon":-67.2992927909999,
      "province":"NB"
   },
   {
      "display_name":"Tynemouth Creek",
      "lat":45.304948947,
      "lon":-65.6557223679999,
      "province":"NB"
   },
   {
      "display_name":"Upham",
      "lat":45.487969651,
      "lon":-65.6689335919999,
      "province":"NB"
   },
   {
      "display_name":"Upper Blackville",
      "lat":46.633132415,
      "lon":-65.8728713789999,
      "province":"NB"
   },
   {
      "display_name":"Upper Charlo",
      "lat":48.002439192,
      "lon":-66.3486975069999,
      "province":"NB"
   },
   {
      "display_name":"Upper Gagetown",
      "lat":45.836308312,
      "lon":-66.2318122109999,
      "province":"NB"
   },
   {
      "display_name":"Upper Hainesville",
      "lat":46.090917556,
      "lon":-67.1353896749999,
      "province":"NB"
   },
   {
      "display_name":"Upper Kent",
      "lat":46.567642461,
      "lon":-67.7092272459999,
      "province":"NB"
   },
   {
      "display_name":"Upper Little Ridge",
      "lat":45.259298112,
      "lon":-67.4413577539999,
      "province":"NB"
   },
   {
      "display_name":"Upper Loch Lomond",
      "lat":45.385873347,
      "lon":-65.8198628019999,
      "province":"NB"
   },
   {
      "display_name":"Upper Mills (Charlotte)",
      "lat":45.138284128,
      "lon":-67.3265993339999,
      "province":"NB"
   },
   {
      "display_name":"Upper Napan",
      "lat":47.00214371,
      "lon":-65.4255166919999,
      "province":"NB"
   },
   {
      "display_name":"Upper Pokemouche",
      "lat":47.68747732,
      "lon":-64.8757239509999,
      "province":"NB"
   },
   {
      "display_name":"Upper Queensbury",
      "lat":45.993061821,
      "lon":-67.1934519399999,
      "province":"NB"
   },
   {
      "display_name":"Upper Sackville",
      "lat":45.944877747,
      "lon":-64.3446204999999,
      "province":"NB"
   },
   {
      "display_name":"Upper Sheila",
      "lat":47.463419623,
      "lon":-64.9482813209999,
      "province":"NB"
   },
   {
      "display_name":"Upper Stoneridge",
      "lat":46.095548844,
      "lon":-66.9565792099999,
      "province":"NB"
   },
   {
      "display_name":"Upper Tracy",
      "lat":45.667136428,
      "lon":-66.7239556359999,
      "province":"NB"
   },
   {
      "display_name":"Upsalquitch",
      "lat":47.813924673,
      "lon":-66.8792834709999,
      "province":"NB"
   },
   {
      "display_name":"Utopia",
      "lat":45.149685571,
      "lon":-66.7713101279999,
      "province":"NB"
   },
   {
      "display_name":"Val Comeau Provincial Park",
      "lat":47.4733219999999,
      "lon":-64.872332,
      "province":"NB"
   },
   {
      "display_name":"Val Oakes",
      "lat":47.221428728,
      "lon":-68.7871194429999,
      "province":"NB"
   },
   {
      "display_name":"Val-d'Amour",
      "lat":47.953831105,
      "lon":-66.6816556639999,
      "province":"NB"
   },
   {
      "display_name":"Val-Doucet",
      "lat":47.615311246,
      "lon":-65.2027975879999,
      "province":"NB"
   },
   {
      "display_name":"Val-Lambert",
      "lat":47.383300738,
      "lon":-68.5333022649999,
      "province":"NB"
   },
   {
      "display_name":"Val-Melanson",
      "lat":47.908399005,
      "lon":-66.7845946669999,
      "province":"NB"
   },
   {
      "display_name":"Verret",
      "lat":47.349998286,
      "lon":-68.3833008689999,
      "province":"NB"
   },
   {
      "display_name":"Victoria Beach",
      "lat":45.434606197,
      "lon":-66.1762133619999,
      "province":"NB"
   },
   {
      "display_name":"Victoria Corner",
      "lat":46.270682698,
      "lon":-67.5140522209999,
      "province":"NB"
   },
   {
      "display_name":"Violette Settlement",
      "lat":47.176846734,
      "lon":-67.8155936909999,
      "province":"NB"
   },
   {
      "display_name":"Waasis",
      "lat":45.827389907,
      "lon":-66.5793356109999,
      "province":"NB"
   },
   {
      "display_name":"Wapske",
      "lat":46.881584467,
      "lon":-67.3779029419999,
      "province":"NB"
   },
   {
      "display_name":"Waterside",
      "lat":45.628604976,
      "lon":-64.8328538169999,
      "province":"NB"
   },
   {
      "display_name":"Waterville (Carleton)",
      "lat":46.264243334,
      "lon":-67.5807586949999,
      "province":"NB"
   },
   {
      "display_name":"Wayerton",
      "lat":47.133300592,
      "lon":-65.8332965839999,
      "province":"NB"
   },
   {
      "display_name":"Weaver Siding",
      "lat":46.616699095,
      "lon":-65.9666977369999,
      "province":"NB"
   },
   {
      "display_name":"Weldon",
      "lat":45.950318878,
      "lon":-64.6757906169999,
      "province":"NB"
   },
   {
      "display_name":"Wells",
      "lat":45.386053744,
      "lon":-65.9327649139999,
      "province":"NB"
   },
   {
      "display_name":"Welsford",
      "lat":45.456666847,
      "lon":-66.3421746089999,
      "province":"NB"
   },
   {
      "display_name":"Welshpool",
      "lat":44.883300524,
      "lon":-66.9499959479999,
      "province":"NB"
   },
   {
      "display_name":"West Branch",
      "lat":46.536390206,
      "lon":-64.9587652509999,
      "province":"NB"
   },
   {
      "display_name":"West Sackville",
      "lat":45.873807407,
      "lon":-64.3833898509999,
      "province":"NB"
   },
   {
      "display_name":"Westfield",
      "lat":45.357264689,
      "lon":-66.2454307329999,
      "province":"NB"
   },
   {
      "display_name":"White Head",
      "lat":44.635470512,
      "lon":-66.7121220939999,
      "province":"NB"
   },
   {
      "display_name":"Whites Brook",
      "lat":47.683048412,
      "lon":-67.2712691259999,
      "province":"NB"
   },
   {
      "display_name":"Whitney",
      "lat":46.966701339,
      "lon":-65.7332988199999,
      "province":"NB"
   },
   {
      "display_name":"Williamsburg",
      "lat":46.331685585,
      "lon":-66.7702920379999,
      "province":"NB"
   },
   {
      "display_name":"Willow Grove",
      "lat":45.334543931,
      "lon":-65.8182852719999,
      "province":"NB"
   },
   {
      "display_name":"Wilson Point",
      "lat":47.933300134,
      "lon":-64.4833002679999,
      "province":"NB"
   },
   {
      "display_name":"Wilsons Beach",
      "lat":44.932875261,
      "lon":-66.9321374419999,
      "province":"NB"
   },
   {
      "display_name":"Windsor",
      "lat":46.396145648,
      "lon":-67.4087010169999,
      "province":"NB"
   },
   {
      "display_name":"Wirral",
      "lat":45.513797587,
      "lon":-66.4912505889999,
      "province":"NB"
   },
   {
      "display_name":"Wood Point",
      "lat":45.839794436,
      "lon":-64.3791234179999,
      "province":"NB"
   },
   {
      "display_name":"Woodside (Sunbury)",
      "lat":45.754472898,
      "lon":-66.5042072899999,
      "province":"NB"
   },
   {
      "display_name":"Woodstock",
      "lat":46.156683048,
      "lon":-67.5820629989999,
      "province":"NB"
   },
   {
      "display_name":"Woodville",
      "lat":47.101928286,
      "lon":-67.7100848219999,
      "province":"NB"
   },
   {
      "display_name":"Woodwards Cove",
      "lat":44.703607262,
      "lon":-66.7439214809999,
      "province":"NB"
   },
   {
      "display_name":"Yoho",
      "lat":45.786488244,
      "lon":-66.8661484249999,
      "province":"NB"
   },
   {
      "display_name":"Youghall",
      "lat":47.659558961,
      "lon":-65.6458712779999,
      "province":"NB"
   },
   {
      "display_name":"Zealand",
      "lat":46.051434703,
      "lon":-66.9376618199999,
      "province":"NB"
   }
]