[
   {
      "display_name":"Aklavik",
      "lat":68.221841796,
      "lon":-135.009153112999,
      "province":"NT"
   },
   {
      "display_name":"Aulavik National Park of Canada",
      "lat":73.700544,
      "lon":-119.919525999999,
      "province":"NT"
   },
   {
      "display_name":"Behchokǫ̀",
      "lat":62.8273,
      "lon":-116.0582,
      "province":"NT"
   },
   {
      "display_name":"Blackstone Territorial Park",
      "lat":61.085833,
      "lon":-122.89,
      "province":"NT"
   },
   {
      "display_name":"Cape Parry",
      "lat":70.182059719,
      "lon":-124.752615416999,
      "province":"NT"
   },
   {
      "display_name":"Colville Lake",
      "lat":67.0334632,
      "lon":-126.118719298999,
      "province":"NT"
   },
   {
      "display_name":"Délįnę",
      "lat":65.1890234,
      "lon":-123.422573498999,
      "province":"NT"
   },
   {
      "display_name":"Dettah",
      "lat":62.4112,
      "lon":-114.3084,
      "province":"NT"
   },
   {
      "display_name":"Discovery",
      "lat":63.190516134,
      "lon":-113.889907771999,
      "province":"NT"
   },
   {
      "display_name":"Edzo",
      "lat":62.777882506,
      "lon":-116.035250370999,
      "province":"NT"
   },
   {
      "display_name":"Enterprise",
      "lat":60.557106468,
      "lon":-116.145071156999,
      "province":"NT"
   },
   {
      "display_name":"Fort Good Hope",
      "lat":66.2569863,
      "lon":-128.635381598999,
      "province":"NT"
   },
   {
      "display_name":"Fort Liard",
      "lat":60.234881407,
      "lon":-123.471601337999,
      "province":"NT"
   },
   {
      "display_name":"Fort McPherson",
      "lat":67.440056208,
      "lon":-134.861079719999,
      "province":"NT"
   },
   {
      "display_name":"Fort Providence",
      "lat":61.353528949,
      "lon":-117.651207291999,
      "province":"NT"
   },
   {
      "display_name":"Fort Resolution",
      "lat":61.1709878,
      "lon":-113.672052699999,
      "province":"NT"
   },
   {
      "display_name":"Fort Simpson",
      "lat":61.8625967,
      "lon":-121.350103999999,
      "province":"NT"
   },
   {
      "display_name":"Fort Smith",
      "lat":60.009105114,
      "lon":-111.882764300999,
      "province":"NT"
   },
   {
      "display_name":"Fred Henne Territorial Park",
      "lat":62.47,
      "lon":-114.42,
      "province":"NT"
   },
   {
      "display_name":"Gamètì",
      "lat":64.111626856,
      "lon":-117.357200904999,
      "province":"NT"
   },
   {
      "display_name":"Gwich'in Territorial Park",
      "lat":68.134444,
      "lon":-133.590833,
      "province":"NT"
   },
   {
      "display_name":"Hay River",
      "lat":60.814770116,
      "lon":-115.783227236999,
      "province":"NT"
   },
   {
      "display_name":"Hidden Lake Territorial Park",
      "lat":62.542222,
      "lon":-113.659167,
      "province":"NT"
   },
   {
      "display_name":"Inuvik",
      "lat":68.359653999,
      "lon":-133.724782099999,
      "province":"NT"
   },
   {
      "display_name":"Jean Marie River",
      "lat":61.523708799,
      "lon":-120.626460399999,
      "province":"NT"
   },
   {
      "display_name":"Kakisa",
      "lat":60.936826968,
      "lon":-117.414474077999,
      "province":"NT"
   },
   {
      "display_name":"Łutselk'e",
      "lat":62.405955306,
      "lon":-110.730915158999,
      "province":"NT"
   },
   {
      "display_name":"Mould Bay",
      "lat":76.234396065,
      "lon":-119.335914248999,
      "province":"NT"
   },
   {
      "display_name":"Nááts'ihch'oh National Park Reserve of Canada",
      "lat":62.25,
      "lon":-128.25,
      "province":"NT"
   },
   {
      "display_name":"Nahanni Butte",
      "lat":61.0334115,
      "lon":-123.384876700999,
      "province":"NT"
   },
   {
      "display_name":"Nahanni National Park Reserve of Canada",
      "lat":61.5999533,
      "lon":-125.6850094,
      "province":"NT"
   },
   {
      "display_name":"Norman Wells",
      "lat":65.2819998,
      "lon":-126.831017600999,
      "province":"NT"
   },
   {
      "display_name":"Paulatuk",
      "lat":69.3502511,
      "lon":-124.069000600999,
      "province":"NT"
   },
   {
      "display_name":"Pine Point",
      "lat":60.833472,
      "lon":-114.467930099999,
      "province":"NT"
   },
   {
      "display_name":"Rae",
      "lat":62.829743111,
      "lon":-116.051616523999,
      "province":"NT"
   },
   {
      "display_name":"Reliance",
      "lat":62.709798905,
      "lon":-109.156911518999,
      "province":"NT"
   },
   {
      "display_name":"Sachs Harbour",
      "lat":71.985637939,
      "lon":-125.247198800999,
      "province":"NT"
   },
   {
      "display_name":"Sambaa K'e",
      "lat":60.443402993,
      "lon":-121.241913026999,
      "province":"NT"
   },
   {
      "display_name":"Tsiigehtchic",
      "lat":67.442955699,
      "lon":-133.741283999999,
      "province":"NT"
   },
   {
      "display_name":"Tuktoyaktuk",
      "lat":69.443901446,
      "lon":-133.025115434999,
      "province":"NT"
   },
   {
      "display_name":"Tuktut Nogait National Park of Canada",
      "lat":69.2502827,
      "lon":-122.0022079,
      "province":"NT"
   },
   {
      "display_name":"Tulita",
      "lat":64.9017661,
      "lon":-125.569549999999,
      "province":"NT"
   },
   {
      "display_name":"Tungsten",
      "lat":61.966782775,
      "lon":-128.225428466999,
      "province":"NT"
   },
   {
      "display_name":"Twin Falls Territorial Park",
      "lat":60.52,
      "lon":-116.22,
      "province":"NT"
   },
   {
      "display_name":"Ulukhaktok",
      "lat":70.731530248,
      "lon":-117.776099781999,
      "province":"NT"
   },
   {
      "display_name":"Wekweètì",
      "lat":64.19087714,
      "lon":-114.184243911999,
      "province":"NT"
   },
   {
      "display_name":"Whatį̀",
      "lat":63.1438888,
      "lon":-117.272777298999,
      "province":"NT"
   },
   {
      "display_name":"Wrigley",
      "lat":63.228971983,
      "lon":-123.464765117999,
      "province":"NT"
   },
   {
      "display_name":"Yellowknife",
      "lat":62.453584863,
      "lon":-114.369110620999,
      "province":"NT"
   }
]