[
   {
      "display_name":"Alert",
      "lat":82.496510209,
      "lon":-62.3718748689999,
      "province":"NU"
   },
   {
      "display_name":"Arctic Bay",
      "lat":73.03736572,
      "lon":-85.1524210879999,
      "province":"NU"
   },
   {
      "display_name":"Arviat",
      "lat":61.1083,
      "lon":-94.0582998989999,
      "province":"NU"
   },
   {
      "display_name":"Auyuittuq National Park of Canada",
      "lat":67.5,
      "lon":-65.9999999,
      "province":"NU"
   },
   {
      "display_name":"Baker Lake",
      "lat":64.3194,
      "lon":-96.0207998989999,
      "province":"NU"
   },
   {
      "display_name":"Bathurst Inlet",
      "lat":66.838465783,
      "lon":-108.025072661999,
      "province":"NU"
   },
   {
      "display_name":"Cambridge Bay",
      "lat":69.115098072,
      "lon":-105.051260064999,
      "province":"NU"
   },
   {
      "display_name":"Chesterfield Inlet",
      "lat":63.345585343,
      "lon":-90.7055316109999,
      "province":"NU"
   },
   {
      "display_name":"Clyde River",
      "lat":70.473493669,
      "lon":-68.5913265139999,
      "province":"NU"
   },
   {
      "display_name":"Coral Harbour",
      "lat":64.13623405,
      "lon":-83.1686140989999,
      "province":"NU"
   },
   {
      "display_name":"Ennadai",
      "lat":61.1333329999999,
      "lon":-100.88333,
      "province":"NU"
   },
   {
      "display_name":"Eureka",
      "lat":79.992449767,
      "lon":-85.8862728199999,
      "province":"NU"
   },
   {
      "display_name":"Fort Ross",
      "lat":72.008089078,
      "lon":-94.2311778539999,
      "province":"NU"
   },
   {
      "display_name":"Gjoa Haven",
      "lat":68.625264043,
      "lon":-95.8708898229999,
      "province":"NU"
   },
   {
      "display_name":"Grise Fiord",
      "lat":76.416960263,
      "lon":-82.8935251619999,
      "province":"NU"
   },
   {
      "display_name":"Igloolik",
      "lat":69.37716426,
      "lon":-81.8007379829999,
      "province":"NU"
   },
   {
      "display_name":"Iqaluit",
      "lat":63.75,
      "lon":-68.5166998999999,
      "province":"NU"
   },
   {
      "display_name":"Isachsen",
      "lat":78.7832999,
      "lon":-103.499999898999,
      "province":"NU"
   },
   {
      "display_name":"Kekerten Territorial Park",
      "lat":65.704722,
      "lon":-65.808055,
      "province":"NU"
   },
   {
      "display_name":"Kimmirut",
      "lat":62.8466999,
      "lon":-69.8718998989999,
      "province":"NU"
   },
   {
      "display_name":"Kinngait",
      "lat":64.2333,
      "lon":-76.5417,
      "province":"NU"
   },
   {
      "display_name":"Kugaaruk",
      "lat":68.5347,
      "lon":-89.8249999009999,
      "province":"NU"
   },
   {
      "display_name":"Kugluktuk",
      "lat":67.825619694,
      "lon":-115.102047043999,
      "province":"NU"
   },
   {
      "display_name":"Lupin",
      "lat":65.769021354,
      "lon":-111.214911923999,
      "province":"NU"
   },
   {
      "display_name":"Meliadine Esker Territorial Park",
      "lat":62.9163888999999,
      "lon":-92.2141667,
      "province":"NU"
   },
   {
      "display_name":"Nanisivik",
      "lat":73.034195669,
      "lon":-84.5356685639999,
      "province":"NU"
   },
   {
      "display_name":"Naujaat",
      "lat":66.524886665,
      "lon":-86.2351080839999,
      "province":"NU"
   },
   {
      "display_name":"Pangnirtung",
      "lat":66.139872282,
      "lon":-65.7056735189999,
      "province":"NU"
   },
   {
      "display_name":"Pitsutinu Tugavik Territorial Park",
      "lat":66.1519443999999,
      "lon":-65.6911111,
      "province":"NU"
   },
   {
      "display_name":"Polaris",
      "lat":75.38904891,
      "lon":-96.9251518289999,
      "province":"NU"
   },
   {
      "display_name":"Pond Inlet",
      "lat":72.697923057,
      "lon":-77.9620463489999,
      "province":"NU"
   },
   {
      "display_name":"Qaummaarviit Territorial Park",
      "lat":63.7299999999999,
      "lon":-68.69,
      "province":"NU"
   },
   {
      "display_name":"Qikiqtarjuaq",
      "lat":67.5586364,
      "lon":-64.0235562999999,
      "province":"NU"
   },
   {
      "display_name":"Rankin Inlet",
      "lat":62.8166999,
      "lon":-92.0832999999999,
      "province":"NU"
   },
   {
      "display_name":"Resolute",
      "lat":74.6958,
      "lon":-94.8291998999999,
      "province":"NU"
   },
   {
      "display_name":"Sanikiluaq",
      "lat":56.544243831,
      "lon":-79.2235371739999,
      "province":"NU"
   },
   {
      "display_name":"Sanirajak",
      "lat":68.7903,
      "lon":-81.2375,
      "province":"NU"
   },
   {
      "display_name":"Sirmilik National Park of Canada",
      "lat":72.833333,
      "lon":-80.583333,
      "province":"NU"
   },
   {
      "display_name":"Sylvia Grinnell Territorial Park",
      "lat":63.7486111,
      "lon":-68.5638889,
      "province":"NU"
   },
   {
      "display_name":"Taloyoak",
      "lat":69.53788614,
      "lon":-93.5307769259999,
      "province":"NU"
   },
   {
      "display_name":"Ukkusiksalik National Park of Canada",
      "lat":65.4986,
      "lon":-88.8953,
      "province":"NU"
   },
   {
      "display_name":"Umingmaktok",
      "lat":67.702351424,
      "lon":-107.921602541999,
      "province":"NU"
   },
   {
      "display_name":"Whale Cove",
      "lat":62.174293,
      "lon":-92.5794336479999,
      "province":"NU"
   }
]