[
   {
      "display_name":"Abney",
      "lat":45.994543845,
      "lon":-62.5690433489999,
      "province":"PE"
   },
   {
      "display_name":"Abram-Village",
      "lat":46.4499999999999,
      "lon":-64.083333,
      "province":"PE"
   },
   {
      "display_name":"Albany",
      "lat":46.28475789,
      "lon":-63.6417583929999,
      "province":"PE"
   },
   {
      "display_name":"Alberry Plains",
      "lat":46.211884802,
      "lon":-62.7810743279999,
      "province":"PE"
   },
   {
      "display_name":"Alberton",
      "lat":46.811266938,
      "lon":-64.0639251429999,
      "province":"PE"
   },
   {
      "display_name":"Alliston",
      "lat":46.057392497,
      "lon":-62.6061937549999,
      "province":"PE"
   },
   {
      "display_name":"Alma",
      "lat":46.860958953,
      "lon":-64.1090244959999,
      "province":"PE"
   },
   {
      "display_name":"Anglo Tignish",
      "lat":46.983298917,
      "lon":-63.9999986569999,
      "province":"PE"
   },
   {
      "display_name":"Annandale",
      "lat":46.263711786,
      "lon":-62.4061950799999,
      "province":"PE"
   },
   {
      "display_name":"Appin Road",
      "lat":46.241018634,
      "lon":-63.3958205799999,
      "province":"PE"
   },
   {
      "display_name":"Argyle Provincial Park",
      "lat":46.1666669999999,
      "lon":-63.3833329999999,
      "province":"PE"
   },
   {
      "display_name":"Arlington",
      "lat":46.528616523,
      "lon":-63.9121704119999,
      "province":"PE"
   },
   {
      "display_name":"Auburn",
      "lat":46.295228449,
      "lon":-62.9042675799999,
      "province":"PE"
   },
   {
      "display_name":"Bay Fortune",
      "lat":46.327297462,
      "lon":-62.3692050129999,
      "province":"PE"
   },
   {
      "display_name":"Bayfield",
      "lat":46.474073112,
      "lon":-62.1952147179999,
      "province":"PE"
   },
   {
      "display_name":"Beach Point",
      "lat":46.011659167,
      "lon":-62.4920599139999,
      "province":"PE"
   },
   {
      "display_name":"Bear River",
      "lat":46.391030127,
      "lon":-62.3541852189999,
      "province":"PE"
   },
   {
      "display_name":"Bedeque",
      "lat":46.3367949999999,
      "lon":-63.724678,
      "province":"PE"
   },
   {
      "display_name":"Bedford Corner",
      "lat":46.327226023,
      "lon":-63.0183245429999,
      "province":"PE"
   },
   {
      "display_name":"Belle River",
      "lat":45.98059418,
      "lon":-62.8404127019999,
      "province":"PE"
   },
   {
      "display_name":"Belmont Provincial Park",
      "lat":46.514168,
      "lon":-63.832179,
      "province":"PE"
   },
   {
      "display_name":"Bethel",
      "lat":46.244500951,
      "lon":-62.9698628179999,
      "province":"PE"
   },
   {
      "display_name":"Bideford",
      "lat":46.604740738,
      "lon":-63.9144875869999,
      "province":"PE"
   },
   {
      "display_name":"Birch Hill (Prince)",
      "lat":46.555292236,
      "lon":-63.8724369829999,
      "province":"PE"
   },
   {
      "display_name":"Bloomfield Corner",
      "lat":46.761907072,
      "lon":-64.1788461249999,
      "province":"PE"
   },
   {
      "display_name":"Bloomfield Provincial Park",
      "lat":46.745652,
      "lon":-64.187807,
      "province":"PE"
   },
   {
      "display_name":"Bonshaw",
      "lat":46.192617495,
      "lon":-63.3537065789999,
      "province":"PE"
   },
   {
      "display_name":"Bonshaw Provincial Park",
      "lat":46.197832,
      "lon":-63.350421,
      "province":"PE"
   },
   {
      "display_name":"Borden",
      "lat":46.253572672,
      "lon":-63.6946205589999,
      "province":"PE"
   },
   {
      "display_name":"Bothwell",
      "lat":46.402830041,
      "lon":-62.0824002869999,
      "province":"PE"
   },
   {
      "display_name":"Brackley",
      "lat":46.303824646,
      "lon":-63.1463719539999,
      "province":"PE"
   },
   {
      "display_name":"Brackley Beach",
      "lat":46.420339403,
      "lon":-63.1980288939999,
      "province":"PE"
   },
   {
      "display_name":"Brae",
      "lat":46.661948735,
      "lon":-64.1919321499999,
      "province":"PE"
   },
   {
      "display_name":"Brae Harbour",
      "lat":46.616699614,
      "lon":-64.1832970069999,
      "province":"PE"
   },
   {
      "display_name":"Breadalbane",
      "lat":46.354841528,
      "lon":-63.4981026239999,
      "province":"PE"
   },
   {
      "display_name":"Bridgetown",
      "lat":46.30564134,
      "lon":-62.5279219699999,
      "province":"PE"
   },
   {
      "display_name":"Bristol",
      "lat":46.415185222,
      "lon":-62.7290793989999,
      "province":"PE"
   },
   {
      "display_name":"Brookvale Provincial Park",
      "lat":46.2815699999999,
      "lon":-63.409198,
      "province":"PE"
   },
   {
      "display_name":"Brudenell",
      "lat":46.186189901,
      "lon":-62.6501104889999,
      "province":"PE"
   },
   {
      "display_name":"Brudenell River Provincial Park",
      "lat":46.2098699999999,
      "lon":-62.599113,
      "province":"PE"
   },
   {
      "display_name":"Brush Wharf Provincial Park",
      "lat":46.146013,
      "lon":-62.886104,
      "province":"PE"
   },
   {
      "display_name":"Buffaloland Provincial Park",
      "lat":46.109271,
      "lon":-62.6214789999999,
      "province":"PE"
   },
   {
      "display_name":"Bunbury",
      "lat":46.237954754,
      "lon":-63.0905209609999,
      "province":"PE"
   },
   {
      "display_name":"Cable Head East",
      "lat":46.466826874,
      "lon":-62.5734275259999,
      "province":"PE"
   },
   {
      "display_name":"Cabot Provincial Park",
      "lat":46.5572589999999,
      "lon":-63.694379,
      "province":"PE"
   },
   {
      "display_name":"Caledonia",
      "lat":46.059034556,
      "lon":-62.7091099569999,
      "province":"PE"
   },
   {
      "display_name":"Cambridge",
      "lat":46.073638709,
      "lon":-62.5250766549999,
      "province":"PE"
   },
   {
      "display_name":"Campbells Cove Provincial Park",
      "lat":46.479542,
      "lon":-62.139284,
      "province":"PE"
   },
   {
      "display_name":"Campbellton (Prince)",
      "lat":46.792107398,
      "lon":-64.3030896329999,
      "province":"PE"
   },
   {
      "display_name":"Canoe Cove",
      "lat":46.154133112,
      "lon":-63.2960016529999,
      "province":"PE"
   },
   {
      "display_name":"Cape Traverse",
      "lat":46.243451178,
      "lon":-63.6381304619999,
      "province":"PE"
   },
   {
      "display_name":"Cape Wolfe",
      "lat":46.720676804,
      "lon":-64.3932511409999,
      "province":"PE"
   },
   {
      "display_name":"Cap-Egmont",
      "lat":46.402266712,
      "lon":-64.0895604619999,
      "province":"PE"
   },
   {
      "display_name":"Cardigan",
      "lat":46.236889223,
      "lon":-62.6231149359999,
      "province":"PE"
   },
   {
      "display_name":"Carleton (Prince)",
      "lat":46.256227585,
      "lon":-63.6675864249999,
      "province":"PE"
   },
   {
      "display_name":"Cascumpec",
      "lat":46.752996567,
      "lon":-64.0893608229999,
      "province":"PE"
   },
   {
      "display_name":"Cavendish",
      "lat":46.490164246,
      "lon":-63.3771965449999,
      "province":"PE"
   },
   {
      "display_name":"Cedar Dunes Provincial Park",
      "lat":46.61837,
      "lon":-64.390979,
      "province":"PE"
   },
   {
      "display_name":"Central Bedeque",
      "lat":46.339776,
      "lon":-63.702692,
      "province":"PE"
   },
   {
      "display_name":"Charlottetown",
      "lat":46.242960682,
      "lon":-63.1265186689999,
      "province":"PE"
   },
   {
      "display_name":"Chelton Provincial Park",
      "lat":46.3166669999999,
      "lon":-63.75,
      "province":"PE"
   },
   {
      "display_name":"Chepstow",
      "lat":46.353122786,
      "lon":-62.2145788929999,
      "province":"PE"
   },
   {
      "display_name":"Clyde River",
      "lat":46.222408526,
      "lon":-63.2567855739999,
      "province":"PE"
   },
   {
      "display_name":"Coleman",
      "lat":46.683974267,
      "lon":-64.1732529299999,
      "province":"PE"
   },
   {
      "display_name":"Commercial Cross",
      "lat":46.126604905,
      "lon":-62.6307098789999,
      "province":"PE"
   },
   {
      "display_name":"Conway",
      "lat":46.657809038,
      "lon":-63.9891435449999,
      "province":"PE"
   },
   {
      "display_name":"Cornwall",
      "lat":46.225667631,
      "lon":-63.2247121429999,
      "province":"PE"
   },
   {
      "display_name":"Covehead Road",
      "lat":46.364382888,
      "lon":-63.1168318579999,
      "province":"PE"
   },
   {
      "display_name":"Crapaud",
      "lat":46.240305693,
      "lon":-63.5002298309999,
      "province":"PE"
   },
   {
      "display_name":"Cumberland",
      "lat":46.173966648,
      "lon":-63.1612414779999,
      "province":"PE"
   },
   {
      "display_name":"DeSable",
      "lat":46.198436894,
      "lon":-63.4157641629999,
      "province":"PE"
   },
   {
      "display_name":"Devil's Punchbowl Provincial Park",
      "lat":46.4166669999999,
      "lon":-63.483333,
      "province":"PE"
   },
   {
      "display_name":"Dunblane",
      "lat":46.650267097,
      "lon":-64.3336454629999,
      "province":"PE"
   },
   {
      "display_name":"Dundas",
      "lat":46.31770522,
      "lon":-62.5097586699999,
      "province":"PE"
   },
   {
      "display_name":"Earnscliffe",
      "lat":46.141570431,
      "lon":-62.9511374459999,
      "province":"PE"
   },
   {
      "display_name":"Ebbsfleet",
      "lat":46.880718419,
      "lon":-64.2256407469999,
      "province":"PE"
   },
   {
      "display_name":"Ebenezer",
      "lat":46.353021761,
      "lon":-63.2617243959999,
      "province":"PE"
   },
   {
      "display_name":"Eldon",
      "lat":46.09371964,
      "lon":-62.8876887549999,
      "province":"PE"
   },
   {
      "display_name":"Ellerslie",
      "lat":46.603624146,
      "lon":-63.9428001809999,
      "province":"PE"
   },
   {
      "display_name":"Elliotvale",
      "lat":46.251366835,
      "lon":-62.7729205729999,
      "province":"PE"
   },
   {
      "display_name":"Elmira",
      "lat":46.441237922,
      "lon":-62.0644074909999,
      "province":"PE"
   },
   {
      "display_name":"Elmsdale",
      "lat":46.818985945,
      "lon":-64.1386948199999,
      "province":"PE"
   },
   {
      "display_name":"Emerald",
      "lat":46.360009514,
      "lon":-63.5511639129999,
      "province":"PE"
   },
   {
      "display_name":"Fantasyland Provincial Park",
      "lat":46.022535,
      "lon":-62.561051,
      "province":"PE"
   },
   {
      "display_name":"Farmington",
      "lat":46.385999897,
      "lon":-62.4888530969999,
      "province":"PE"
   },
   {
      "display_name":"Fernwood",
      "lat":46.325413007,
      "lon":-63.8096238649999,
      "province":"PE"
   },
   {
      "display_name":"Fisherman's Haven Provincial Park",
      "lat":46.933333,
      "lon":-63.983333,
      "province":"PE"
   },
   {
      "display_name":"Flat River",
      "lat":46.010100427,
      "lon":-62.8648142669999,
      "province":"PE"
   },
   {
      "display_name":"Fort Augustus",
      "lat":46.32002955,
      "lon":-62.9183532559999,
      "province":"PE"
   },
   {
      "display_name":"Fortune Bridge",
      "lat":46.349797398,
      "lon":-62.3788629359999,
      "province":"PE"
   },
   {
      "display_name":"Fortune Cove",
      "lat":46.757337034,
      "lon":-64.1304785169999,
      "province":"PE"
   },
   {
      "display_name":"Fortune Harbour",
      "lat":46.337377664,
      "lon":-62.3599185409999,
      "province":"PE"
   },
   {
      "display_name":"Foxley River",
      "lat":46.692379271,
      "lon":-64.0103726799999,
      "province":"PE"
   },
   {
      "display_name":"Fredericton",
      "lat":46.360448851,
      "lon":-63.4242334519999,
      "province":"PE"
   },
   {
      "display_name":"Freeland",
      "lat":46.679330305,
      "lon":-63.9666709259999,
      "province":"PE"
   },
   {
      "display_name":"Freetown",
      "lat":46.373801682,
      "lon":-63.6185398619999,
      "province":"PE"
   },
   {
      "display_name":"French River",
      "lat":46.51516256,
      "lon":-63.5238905529999,
      "province":"PE"
   },
   {
      "display_name":"Gaspereaux",
      "lat":46.105535323,
      "lon":-62.4760778289999,
      "province":"PE"
   },
   {
      "display_name":"Georgetown",
      "lat":46.184812175,
      "lon":-62.5340305499999,
      "province":"PE"
   },
   {
      "display_name":"Glenroy",
      "lat":46.360183768,
      "lon":-62.9108410129999,
      "province":"PE"
   },
   {
      "display_name":"Glenwood",
      "lat":46.647589606,
      "lon":-64.3155216969999,
      "province":"PE"
   },
   {
      "display_name":"Goose River",
      "lat":46.455153735,
      "lon":-62.5116927509999,
      "province":"PE"
   },
   {
      "display_name":"Grand Tracadie",
      "lat":46.392506728,
      "lon":-63.0528497979999,
      "province":"PE"
   },
   {
      "display_name":"Granville",
      "lat":46.426563361,
      "lon":-63.4683183339999,
      "province":"PE"
   },
   {
      "display_name":"Green Provincial Park",
      "lat":46.592082,
      "lon":-63.8900929999999,
      "province":"PE"
   },
   {
      "display_name":"Greenfield",
      "lat":46.184756954,
      "lon":-62.7387378499999,
      "province":"PE"
   },
   {
      "display_name":"Greenmount",
      "lat":46.897891871,
      "lon":-64.0425506659999,
      "province":"PE"
   },
   {
      "display_name":"Hampshire",
      "lat":46.288745822,
      "lon":-63.2869250319999,
      "province":"PE"
   },
   {
      "display_name":"Hampton",
      "lat":46.211817172,
      "lon":-63.4608216559999,
      "province":"PE"
   },
   {
      "display_name":"Harrington",
      "lat":46.352792971,
      "lon":-63.1695610679999,
      "province":"PE"
   },
   {
      "display_name":"Hartsville",
      "lat":46.319923647,
      "lon":-63.4010215299999,
      "province":"PE"
   },
   {
      "display_name":"Hazelbrook",
      "lat":46.217287083,
      "lon":-62.9919210439999,
      "province":"PE"
   },
   {
      "display_name":"Higgins Wharf Provincial Park",
      "lat":46.5482049999999,
      "lon":-64.08064,
      "province":"PE"
   },
   {
      "display_name":"High Bank",
      "lat":45.964962941,
      "lon":-62.6227084819999,
      "province":"PE"
   },
   {
      "display_name":"Highfield",
      "lat":46.288145184,
      "lon":-63.1730910699999,
      "province":"PE"
   },
   {
      "display_name":"Hillsborough Park",
      "lat":46.265088326,
      "lon":-63.1144556919999,
      "province":"PE"
   },
   {
      "display_name":"Hunter River",
      "lat":46.356242709,
      "lon":-63.3462777729999,
      "province":"PE"
   },
   {
      "display_name":"Indian River",
      "lat":46.477064126,
      "lon":-63.6849372409999,
      "province":"PE"
   },
   {
      "display_name":"Inverness",
      "lat":46.650730334,
      "lon":-64.0338986209999,
      "province":"PE"
   },
   {
      "display_name":"Iona",
      "lat":46.098350528,
      "lon":-62.8071955019999,
      "province":"PE"
   },
   {
      "display_name":"Jacques Cartier Provincial Park",
      "lat":46.850246,
      "lon":-64.014252,
      "province":"PE"
   },
   {
      "display_name":"Johnstons River",
      "lat":46.269264409,
      "lon":-63.0170263009999,
      "province":"PE"
   },
   {
      "display_name":"Kellys Cross",
      "lat":46.269660463,
      "lon":-63.4474373729999,
      "province":"PE"
   },
   {
      "display_name":"Kensington",
      "lat":46.435089415,
      "lon":-63.6367696739999,
      "province":"PE"
   },
   {
      "display_name":"Keppoch",
      "lat":46.20464827,
      "lon":-63.1063128079999,
      "province":"PE"
   },
   {
      "display_name":"Kilmuir",
      "lat":46.119344894,
      "lon":-62.6660158459999,
      "province":"PE"
   },
   {
      "display_name":"Kingsboro",
      "lat":46.39234378,
      "lon":-62.1112690749999,
      "province":"PE"
   },
   {
      "display_name":"Kingston",
      "lat":46.26303495,
      "lon":-63.2771996159999,
      "province":"PE"
   },
   {
      "display_name":"Kinkora",
      "lat":46.322592334,
      "lon":-63.6042805559999,
      "province":"PE"
   },
   {
      "display_name":"Kinross",
      "lat":46.158564515,
      "lon":-62.8092053799999,
      "province":"PE"
   },
   {
      "display_name":"Knutsford",
      "lat":46.697834507,
      "lon":-64.2834472659999,
      "province":"PE"
   },
   {
      "display_name":"Lennox Island",
      "lat":46.597145601,
      "lon":-63.8578514139999,
      "province":"PE"
   },
   {
      "display_name":"Leoville",
      "lat":46.92248785,
      "lon":-64.1206298649999,
      "province":"PE"
   },
   {
      "display_name":"Linkletter Provincial Park",
      "lat":46.399124,
      "lon":-63.8518409999999,
      "province":"PE"
   },
   {
      "display_name":"Little Harbour",
      "lat":46.362156816,
      "lon":-62.1882104919999,
      "province":"PE"
   },
   {
      "display_name":"Little Pond",
      "lat":46.281077407,
      "lon":-62.4106298289999,
      "province":"PE"
   },
   {
      "display_name":"Long Creek",
      "lat":46.17148944,
      "lon":-63.2712978649999,
      "province":"PE"
   },
   {
      "display_name":"Long River",
      "lat":46.488861849,
      "lon":-63.5404971049999,
      "province":"PE"
   },
   {
      "display_name":"Lord Selkirk Provincial Park",
      "lat":46.099301,
      "lon":-62.905529,
      "province":"PE"
   },
   {
      "display_name":"Lorne Valley",
      "lat":46.27029069,
      "lon":-62.6982138629999,
      "province":"PE"
   },
   {
      "display_name":"Lower Montague",
      "lat":46.166977871,
      "lon":-62.5717244929999,
      "province":"PE"
   },
   {
      "display_name":"MacDougall",
      "lat":46.509328041,
      "lon":-63.9387645239999,
      "province":"PE"
   },
   {
      "display_name":"Malpeque",
      "lat":46.526713523,
      "lon":-63.6873149889999,
      "province":"PE"
   },
   {
      "display_name":"Margate",
      "lat":46.45763321,
      "lon":-63.5883696329999,
      "province":"PE"
   },
   {
      "display_name":"Maximeville",
      "lat":46.434465531,
      "lon":-64.1282107519999,
      "province":"PE"
   },
   {
      "display_name":"Meadow Bank",
      "lat":46.200639069,
      "lon":-63.2279012029999,
      "province":"PE"
   },
   {
      "display_name":"Melville",
      "lat":46.019919727,
      "lon":-62.8273112669999,
      "province":"PE"
   },
   {
      "display_name":"Middleton",
      "lat":46.320996791,
      "lon":-63.6454711329999,
      "province":"PE"
   },
   {
      "display_name":"Midgell",
      "lat":46.408650814,
      "lon":-62.6542429069999,
      "province":"PE"
   },
   {
      "display_name":"Mill River Provincial Park",
      "lat":46.748525,
      "lon":-64.17542,
      "province":"PE"
   },
   {
      "display_name":"Millvale",
      "lat":46.41116009,
      "lon":-63.4210912659999,
      "province":"PE"
   },
   {
      "display_name":"Milo",
      "lat":46.648320167,
      "lon":-64.2225217379999,
      "province":"PE"
   },
   {
      "display_name":"Miltonvale Park",
      "lat":46.305783518,
      "lon":-63.2173287079999,
      "province":"PE"
   },
   {
      "display_name":"Miscouche",
      "lat":46.430963645,
      "lon":-63.8593783659999,
      "province":"PE"
   },
   {
      "display_name":"Montague",
      "lat":46.166741574,
      "lon":-62.6509276899999,
      "province":"PE"
   },
   {
      "display_name":"Mont-Carmel",
      "lat":46.401404769,
      "lon":-64.0369754169999,
      "province":"PE"
   },
   {
      "display_name":"Montrose",
      "lat":46.867748226,
      "lon":-64.0663274539999,
      "province":"PE"
   },
   {
      "display_name":"Morell",
      "lat":46.414860814,
      "lon":-62.7049709669999,
      "province":"PE"
   },
   {
      "display_name":"Mount Mellick",
      "lat":46.205055737,
      "lon":-62.9454689949999,
      "province":"PE"
   },
   {
      "display_name":"Mount Pleasant",
      "lat":46.580644891,
      "lon":-64.0087143659999,
      "province":"PE"
   },
   {
      "display_name":"Mount Stewart",
      "lat":46.369156523,
      "lon":-62.8682619839999,
      "province":"PE"
   },
   {
      "display_name":"Mount Vernon",
      "lat":46.011875233,
      "lon":-62.7436926409999,
      "province":"PE"
   },
   {
      "display_name":"Murray Harbour",
      "lat":46.003504693,
      "lon":-62.5213199659999,
      "province":"PE"
   },
   {
      "display_name":"Murray Harbour North",
      "lat":46.054557943,
      "lon":-62.4853210089999,
      "province":"PE"
   },
   {
      "display_name":"Murray River",
      "lat":46.011097686,
      "lon":-62.6144567759999,
      "province":"PE"
   },
   {
      "display_name":"Nail Pond",
      "lat":46.983299524,
      "lon":-64.0667046799999,
      "province":"PE"
   },
   {
      "display_name":"Naufrage",
      "lat":46.465985158,
      "lon":-62.4232880329999,
      "province":"PE"
   },
   {
      "display_name":"New Acadia",
      "lat":46.399666628,
      "lon":-62.3964282569999,
      "province":"PE"
   },
   {
      "display_name":"New Annan",
      "lat":46.419301497,
      "lon":-63.7110364329999,
      "province":"PE"
   },
   {
      "display_name":"New Glasgow",
      "lat":46.409936756,
      "lon":-63.3494848919999,
      "province":"PE"
   },
   {
      "display_name":"New Haven",
      "lat":46.216879183,
      "lon":-63.2948030459999,
      "province":"PE"
   },
   {
      "display_name":"New London",
      "lat":46.464564203,
      "lon":-63.5113135969999,
      "province":"PE"
   },
   {
      "display_name":"New Perth",
      "lat":46.211372941,
      "lon":-62.7032954189999,
      "province":"PE"
   },
   {
      "display_name":"New Zealand",
      "lat":46.397985677,
      "lon":-62.3098019199999,
      "province":"PE"
   },
   {
      "display_name":"North Lake",
      "lat":46.464480054,
      "lon":-62.0666141909999,
      "province":"PE"
   },
   {
      "display_name":"North River",
      "lat":46.256405624,
      "lon":-63.2002340659999,
      "province":"PE"
   },
   {
      "display_name":"North Rustico",
      "lat":46.458314,
      "lon":-63.312995,
      "province":"PE"
   },
   {
      "display_name":"North Tryon",
      "lat":46.250756427,
      "lon":-63.5467477779999,
      "province":"PE"
   },
   {
      "display_name":"North Wiltshire",
      "lat":46.300545541,
      "lon":-63.3317814899999,
      "province":"PE"
   },
   {
      "display_name":"Northam",
      "lat":46.544629529,
      "lon":-63.9623877539999,
      "province":"PE"
   },
   {
      "display_name":"Northumberland Provincial Park",
      "lat":45.963392,
      "lon":-62.72074,
      "province":"PE"
   },
   {
      "display_name":"Norway",
      "lat":47.008883124,
      "lon":-64.0323336999999,
      "province":"PE"
   },
   {
      "display_name":"O'Leary",
      "lat":46.707164,
      "lon":-64.226838,
      "province":"PE"
   },
   {
      "display_name":"Orwell",
      "lat":46.154095078,
      "lon":-62.8352064299999,
      "province":"PE"
   },
   {
      "display_name":"Oyster Bed Bridge",
      "lat":46.388510074,
      "lon":-63.2362952389999,
      "province":"PE"
   },
   {
      "display_name":"Palmer Road",
      "lat":46.913186833,
      "lon":-64.1594299259999,
      "province":"PE"
   },
   {
      "display_name":"Panmure Island Provincial Park",
      "lat":46.13001,
      "lon":-62.468458,
      "province":"PE"
   },
   {
      "display_name":"Peakes",
      "lat":46.298043586,
      "lon":-62.7785430089999,
      "province":"PE"
   },
   {
      "display_name":"Peters Road",
      "lat":46.065822435,
      "lon":-62.5634013139999,
      "province":"PE"
   },
   {
      "display_name":"Pinette",
      "lat":46.057871961,
      "lon":-62.9061113009999,
      "province":"PE"
   },
   {
      "display_name":"Pinette Provincial Park",
      "lat":46.0556909999999,
      "lon":-62.911033,
      "province":"PE"
   },
   {
      "display_name":"Pisquid",
      "lat":46.337969589,
      "lon":-62.8560412739999,
      "province":"PE"
   },
   {
      "display_name":"Piusville",
      "lat":46.792367196,
      "lon":-64.1933611809999,
      "province":"PE"
   },
   {
      "display_name":"Pleasant View",
      "lat":46.916698861,
      "lon":-64.1999982709999,
      "province":"PE"
   },
   {
      "display_name":"Point Prim",
      "lat":46.061985032,
      "lon":-62.9902384589999,
      "province":"PE"
   },
   {
      "display_name":"Pooles Corner",
      "lat":46.209626556,
      "lon":-62.6503081309999,
      "province":"PE"
   },
   {
      "display_name":"Poole's Corner Provincial Park",
      "lat":46.210025,
      "lon":-62.6518219999999,
      "province":"PE"
   },
   {
      "display_name":"Poplar Grove",
      "lat":46.65648596,
      "lon":-63.9315054949999,
      "province":"PE"
   },
   {
      "display_name":"Port Hill",
      "lat":46.578858812,
      "lon":-63.8780627079999,
      "province":"PE"
   },
   {
      "display_name":"Portage",
      "lat":46.664342032,
      "lon":-64.0584903529999,
      "province":"PE"
   },
   {
      "display_name":"Prince Edward Island National Park of Canada",
      "lat":46.433333,
      "lon":-63.2,
      "province":"PE"
   },
   {
      "display_name":"Reads Corner",
      "lat":46.396205274,
      "lon":-63.7451833479999,
      "province":"PE"
   },
   {
      "display_name":"Red Point",
      "lat":46.379827494,
      "lon":-62.1405595819999,
      "province":"PE"
   },
   {
      "display_name":"Red Point Provincial Park",
      "lat":46.3682399999999,
      "lon":-62.1353919999999,
      "province":"PE"
   },
   {
      "display_name":"Richmond",
      "lat":46.507993,
      "lon":-63.99147,
      "province":"PE"
   },
   {
      "display_name":"Rocky Point",
      "lat":46.201738678,
      "lon":-63.1506086969999,
      "province":"PE"
   },
   {
      "display_name":"Rollo Bay",
      "lat":46.359801742,
      "lon":-62.3400500029999,
      "province":"PE"
   },
   {
      "display_name":"Rose Valley",
      "lat":46.319428837,
      "lon":-63.4927472469999,
      "province":"PE"
   },
   {
      "display_name":"Rosebank (Prince)",
      "lat":46.795395915,
      "lon":-64.1568025779999,
      "province":"PE"
   },
   {
      "display_name":"Rosehill",
      "lat":46.468349779,
      "lon":-63.8597976059999,
      "province":"PE"
   },
   {
      "display_name":"Savage Harbour",
      "lat":46.421165302,
      "lon":-62.8649557079999,
      "province":"PE"
   },
   {
      "display_name":"Scales Pond Provincial Park",
      "lat":46.3445209999999,
      "lon":-63.6114599999999,
      "province":"PE"
   },
   {
      "display_name":"Sea View",
      "lat":46.53852482,
      "lon":-63.5960280719999,
      "province":"PE"
   },
   {
      "display_name":"Seacow Pond",
      "lat":47.030916293,
      "lon":-63.9969665609999,
      "province":"PE"
   },
   {
      "display_name":"Seal River",
      "lat":46.235164192,
      "lon":-62.5459348369999,
      "province":"PE"
   },
   {
      "display_name":"Searletown",
      "lat":46.305952909,
      "lon":-63.6991141949999,
      "province":"PE"
   },
   {
      "display_name":"Skinners Pond",
      "lat":46.964911713,
      "lon":-64.1203604559999,
      "province":"PE"
   },
   {
      "display_name":"Slemon Park",
      "lat":46.435248234,
      "lon":-63.8228170859999,
      "province":"PE"
   },
   {
      "display_name":"Souris",
      "lat":46.354618951,
      "lon":-62.2485347539999,
      "province":"PE"
   },
   {
      "display_name":"Souris Beach Provincial Park",
      "lat":46.356782,
      "lon":-62.27225,
      "province":"PE"
   },
   {
      "display_name":"Souris Line Road",
      "lat":46.396026973,
      "lon":-62.2498153969999,
      "province":"PE"
   },
   {
      "display_name":"Souris West",
      "lat":46.359233652,
      "lon":-62.2881467789999,
      "province":"PE"
   },
   {
      "display_name":"South Lake",
      "lat":46.422721846,
      "lon":-62.0498124949999,
      "province":"PE"
   },
   {
      "display_name":"South Melville",
      "lat":46.234574348,
      "lon":-63.4335349039999,
      "province":"PE"
   },
   {
      "display_name":"South Rustico",
      "lat":46.415708183,
      "lon":-63.2988751929999,
      "province":"PE"
   },
   {
      "display_name":"Southport",
      "lat":46.224877213,
      "lon":-63.1040572849999,
      "province":"PE"
   },
   {
      "display_name":"Spring Valley",
      "lat":46.498750159,
      "lon":-63.6271386369999,
      "province":"PE"
   },
   {
      "display_name":"Springfield West",
      "lat":46.683941543,
      "lon":-64.3639849439999,
      "province":"PE"
   },
   {
      "display_name":"Springhill",
      "lat":46.560437063,
      "lon":-64.0054092549999,
      "province":"PE"
   },
   {
      "display_name":"St. Anthony",
      "lat":46.735670472,
      "lon":-64.1744273899999,
      "province":"PE"
   },
   {
      "display_name":"St. Chrysostome",
      "lat":46.510178208,
      "lon":-64.1011790599999,
      "province":"PE"
   },
   {
      "display_name":"St. Edward",
      "lat":46.879845167,
      "lon":-64.1817312909999,
      "province":"PE"
   },
   {
      "display_name":"St. Eleanors",
      "lat":46.422850704,
      "lon":-63.8103964569999,
      "province":"PE"
   },
   {
      "display_name":"St. Felix",
      "lat":46.932025696,
      "lon":-64.0232882539999,
      "province":"PE"
   },
   {
      "display_name":"St. Georges",
      "lat":46.259654601,
      "lon":-62.4828115519999,
      "province":"PE"
   },
   {
      "display_name":"St. Lawrence",
      "lat":46.846914288,
      "lon":-64.2152992669999,
      "province":"PE"
   },
   {
      "display_name":"St. Louis",
      "lat":46.887252241,
      "lon":-64.1388257849999,
      "province":"PE"
   },
   {
      "display_name":"St. Margarets",
      "lat":46.455165007,
      "lon":-62.3849480989999,
      "province":"PE"
   },
   {
      "display_name":"St. Nicholas",
      "lat":46.425512186,
      "lon":-63.9480925689999,
      "province":"PE"
   },
   {
      "display_name":"St. Patrick Road",
      "lat":46.331899692,
      "lon":-62.7777894729999,
      "province":"PE"
   },
   {
      "display_name":"St. Peters Bay",
      "lat":46.413410051,
      "lon":-62.5787511639999,
      "province":"PE"
   },
   {
      "display_name":"Stanhope",
      "lat":46.398731473,
      "lon":-63.1153682939999,
      "province":"PE"
   },
   {
      "display_name":"Stanhope by the Sea",
      "lat":46.411975003,
      "lon":-63.1110020919999,
      "province":"PE"
   },
   {
      "display_name":"Stanley Bridge",
      "lat":46.461256352,
      "lon":-63.4541321099999,
      "province":"PE"
   },
   {
      "display_name":"St-Hubert",
      "lat":46.502830867,
      "lon":-64.0297986259999,
      "province":"PE"
   },
   {
      "display_name":"St-RaphaÃ«l",
      "lat":46.425261841,
      "lon":-64.0170469109999,
      "province":"PE"
   },
   {
      "display_name":"Strathcona",
      "lat":46.323286498,
      "lon":-62.5546267829999,
      "province":"PE"
   },
   {
      "display_name":"Strathgartney Provincial Park",
      "lat":46.211714,
      "lon":-63.333876,
      "province":"PE"
   },
   {
      "display_name":"Sturgeon",
      "lat":46.108641185,
      "lon":-62.5291565329999,
      "province":"PE"
   },
   {
      "display_name":"Summerside",
      "lat":46.393457822,
      "lon":-63.7893414699999,
      "province":"PE"
   },
   {
      "display_name":"Tarantum",
      "lat":46.295611499,
      "lon":-62.9565143579999,
      "province":"PE"
   },
   {
      "display_name":"Tea Hill Provincial Park",
      "lat":46.1999999999999,
      "lon":-63.0666669999999,
      "province":"PE"
   },
   {
      "display_name":"Tignish",
      "lat":46.950000492,
      "lon":-64.0333321889999,
      "province":"PE"
   },
   {
      "display_name":"Tignish Corner",
      "lat":46.947932823,
      "lon":-64.0490716759999,
      "province":"PE"
   },
   {
      "display_name":"Tignish Shore",
      "lat":46.947512046,
      "lon":-64.0012686789999,
      "province":"PE"
   },
   {
      "display_name":"Townshend Woodlot Provincial Park",
      "lat":46.4166669999999,
      "lon":-62.266667,
      "province":"PE"
   },
   {
      "display_name":"Tracadie",
      "lat":46.346277754,
      "lon":-62.9659665319999,
      "province":"PE"
   },
   {
      "display_name":"Travellers Rest",
      "lat":46.418359981,
      "lon":-63.7389563039999,
      "province":"PE"
   },
   {
      "display_name":"Tyne Valley",
      "lat":46.575054465,
      "lon":-63.9287665479999,
      "province":"PE"
   },
   {
      "display_name":"Tyrone",
      "lat":46.278535293,
      "lon":-63.3448197469999,
      "province":"PE"
   },
   {
      "display_name":"Uigg",
      "lat":46.16479274,
      "lon":-62.8133712479999,
      "province":"PE"
   },
   {
      "display_name":"Union Corner Provincial Park",
      "lat":46.3882069999999,
      "lon":-63.9945529999999,
      "province":"PE"
   },
   {
      "display_name":"Union Road",
      "lat":46.325314328,
      "lon":-63.1323597749999,
      "province":"PE"
   },
   {
      "display_name":"Upton",
      "lat":46.336775295,
      "lon":-62.5399543939999,
      "province":"PE"
   },
   {
      "display_name":"Urbainville",
      "lat":46.461584044,
      "lon":-64.0477955149999,
      "province":"PE"
   },
   {
      "display_name":"Vernon Bridge",
      "lat":46.168285286,
      "lon":-62.8958544769999,
      "province":"PE"
   },
   {
      "display_name":"Vernon River",
      "lat":46.211166791,
      "lon":-62.8270444269999,
      "province":"PE"
   },
   {
      "display_name":"Victoria",
      "lat":46.218779997,
      "lon":-63.4975848349999,
      "province":"PE"
   },
   {
      "display_name":"Victoria Provincial Park",
      "lat":46.208291,
      "lon":-63.479057,
      "province":"PE"
   },
   {
      "display_name":"Wellington",
      "lat":46.45305603,
      "lon":-64.0030095379999,
      "province":"PE"
   },
   {
      "display_name":"West Devon",
      "lat":46.666905292,
      "lon":-64.1170231919999,
      "province":"PE"
   },
   {
      "display_name":"West Point",
      "lat":46.622981577,
      "lon":-64.3756268839999,
      "province":"PE"
   },
   {
      "display_name":"West St. Peters",
      "lat":46.411947326,
      "lon":-62.7764224209999,
      "province":"PE"
   },
   {
      "display_name":"Wheatley River",
      "lat":46.37321336,
      "lon":-63.2902522759999,
      "province":"PE"
   },
   {
      "display_name":"White Sands",
      "lat":45.967657582,
      "lon":-62.5581437609999,
      "province":"PE"
   },
   {
      "display_name":"Wood Islands",
      "lat":45.96585126,
      "lon":-62.7564502599999,
      "province":"PE"
   },
   {
      "display_name":"Wood Islands Provincial Park",
      "lat":45.9504699999999,
      "lon":-62.745127,
      "province":"PE"
   },
   {
      "display_name":"York",
      "lat":46.312872299,
      "lon":-63.0952656329999,
      "province":"PE"
   }
]