[
   {
      "display_name":"Abbey",
      "lat":50.736879765,
      "lon":-108.760378835999,
      "province":"SK"
   },
   {
      "display_name":"Aberdeen",
      "lat":52.327047089,
      "lon":-106.288016650999,
      "province":"SK"
   },
   {
      "display_name":"Aberfeldy",
      "lat":53.2499999,
      "lon":-109.883299899999,
      "province":"SK"
   },
   {
      "display_name":"Abernethy",
      "lat":50.74739461,
      "lon":-103.416153407999,
      "province":"SK"
   },
   {
      "display_name":"Admiral",
      "lat":49.713411584,
      "lon":-108.005588745999,
      "province":"SK"
   },
   {
      "display_name":"Air Ronge",
      "lat":55.0833,
      "lon":-105.316699999999,
      "province":"SK"
   },
   {
      "display_name":"Alameda",
      "lat":49.2666999,
      "lon":-102.283299898999,
      "province":"SK"
   },
   {
      "display_name":"Albertville",
      "lat":53.396298244,
      "lon":-105.541317147999,
      "province":"SK"
   },
   {
      "display_name":"Alice Beach",
      "lat":50.925723435,
      "lon":-105.165491283999,
      "province":"SK"
   },
   {
      "display_name":"Alida",
      "lat":49.388955059,
      "lon":-101.873937564999,
      "province":"SK"
   },
   {
      "display_name":"Allan",
      "lat":51.895156412,
      "lon":-106.053278515999,
      "province":"SK"
   },
   {
      "display_name":"Allan Hills",
      "lat":51.6500344,
      "lon":-106.0839343,
      "province":"SK"
   },
   {
      "display_name":"Alta Vista",
      "lat":50.803548266,
      "lon":-104.967584656999,
      "province":"SK"
   },
   {
      "display_name":"Alticane",
      "lat":52.901542094,
      "lon":-107.480743713999,
      "province":"SK"
   },
   {
      "display_name":"Alvena",
      "lat":52.517566237,
      "lon":-106.019777658999,
      "province":"SK"
   },
   {
      "display_name":"Amazon",
      "lat":51.5499999,
      "lon":-105.449999900999,
      "province":"SK"
   },
   {
      "display_name":"Amsterdam",
      "lat":51.74884552,
      "lon":-102.459796921999,
      "province":"SK"
   },
   {
      "display_name":"Aneroid",
      "lat":49.7167,
      "lon":-107.299999999999,
      "province":"SK"
   },
   {
      "display_name":"Annaheim",
      "lat":52.319959438,
      "lon":-104.818386074999,
      "province":"SK"
   },
   {
      "display_name":"Antler",
      "lat":49.567471037,
      "lon":-101.457602601999,
      "province":"SK"
   },
   {
      "display_name":"Aquadeo",
      "lat":53.131909426,
      "lon":-108.420434285999,
      "province":"SK"
   },
   {
      "display_name":"Arborfield",
      "lat":53.10606803,
      "lon":-103.660948023999,
      "province":"SK"
   },
   {
      "display_name":"Arbury",
      "lat":51.1500401,
      "lon":-104.2838811,
      "province":"SK"
   },
   {
      "display_name":"Archerwill",
      "lat":52.439022259,
      "lon":-103.859312493999,
      "province":"SK"
   },
   {
      "display_name":"Arcola",
      "lat":49.63768982,
      "lon":-102.491547196999,
      "province":"SK"
   },
   {
      "display_name":"Ardill",
      "lat":49.937687782,
      "lon":-105.843787945999,
      "province":"SK"
   },
   {
      "display_name":"Arlington Beach",
      "lat":51.247860419,
      "lon":-105.231231220999,
      "province":"SK"
   },
   {
      "display_name":"Armit",
      "lat":52.8332999,
      "lon":-101.783300000999,
      "province":"SK"
   },
   {
      "display_name":"Armley",
      "lat":53.1166999,
      "lon":-104.033299899999,
      "province":"SK"
   },
   {
      "display_name":"Arran",
      "lat":51.8832999,
      "lon":-101.716700000999,
      "province":"SK"
   },
   {
      "display_name":"Asquith",
      "lat":52.133604713,
      "lon":-107.226065696999,
      "province":"SK"
   },
   {
      "display_name":"Assiniboia",
      "lat":49.630479613,
      "lon":-105.986828179999,
      "province":"SK"
   },
   {
      "display_name":"Athabasca Sand Dunes Provincial Park",
      "lat":59.1580586,
      "lon":-108.6218949,
      "province":"SK"
   },
   {
      "display_name":"Atwater",
      "lat":50.776797459,
      "lon":-102.227353749999,
      "province":"SK"
   },
   {
      "display_name":"Auburnton",
      "lat":49.404801492,
      "lon":-102.077421730999,
      "province":"SK"
   },
   {
      "display_name":"Avonlea",
      "lat":50.015561699,
      "lon":-105.055996268999,
      "province":"SK"
   },
   {
      "display_name":"Aylesbury",
      "lat":50.939457766,
      "lon":-105.691788444999,
      "province":"SK"
   },
   {
      "display_name":"Aylsham",
      "lat":53.193690442,
      "lon":-103.805135922999,
      "province":"SK"
   },
   {
      "display_name":"Badgerville",
      "lat":51.633612779,
      "lon":-101.912094609999,
      "province":"SK"
   },
   {
      "display_name":"Baildon",
      "lat":50.266694,
      "lon":-105.467237,
      "province":"SK"
   },
   {
      "display_name":"Baildon No. 131",
      "lat":50.1783358,
      "lon":-105.4954861,
      "province":"SK"
   },
   {
      "display_name":"Balcarres",
      "lat":50.803450236,
      "lon":-103.545852364999,
      "province":"SK"
   },
   {
      "display_name":"Baldwinton",
      "lat":52.788765994,
      "lon":-109.256298966999,
      "province":"SK"
   },
   {
      "display_name":"Balgonie",
      "lat":50.489290994,
      "lon":-104.265029303999,
      "province":"SK"
   },
   {
      "display_name":"Baljennie",
      "lat":52.5500594,
      "lon":-107.9006561,
      "province":"SK"
   },
   {
      "display_name":"Balone Beach",
      "lat":52.667894243,
      "lon":-105.601585484999,
      "province":"SK"
   },
   {
      "display_name":"Bangor",
      "lat":50.807329805,
      "lon":-102.341600670999,
      "province":"SK"
   },
   {
      "display_name":"Bankend",
      "lat":51.509764965,
      "lon":-103.848050888999,
      "province":"SK"
   },
   {
      "display_name":"Bapaume",
      "lat":53.38326289,
      "lon":-107.674439652999,
      "province":"SK"
   },
   {
      "display_name":"Barrier Ford",
      "lat":52.540490686,
      "lon":-103.705880216999,
      "province":"SK"
   },
   {
      "display_name":"Battleford",
      "lat":52.738238469,
      "lon":-108.307807623999,
      "province":"SK"
   },
   {
      "display_name":"Bayard",
      "lat":50.0204367,
      "lon":-105.288591262999,
      "province":"SK"
   },
   {
      "display_name":"Beacon Hill",
      "lat":54.35459014,
      "lon":-109.654201155999,
      "province":"SK"
   },
   {
      "display_name":"Beadle",
      "lat":51.467068225,
      "lon":-109.003644488999,
      "province":"SK"
   },
   {
      "display_name":"Bear Creek",
      "lat":56.297534267,
      "lon":-108.936109380999,
      "province":"SK"
   },
   {
      "display_name":"Beatty",
      "lat":52.900132416,
      "lon":-104.805056119999,
      "province":"SK"
   },
   {
      "display_name":"Beaubier",
      "lat":49.126282078,
      "lon":-104.077766413999,
      "province":"SK"
   },
   {
      "display_name":"Beauval",
      "lat":55.147175067,
      "lon":-107.611176813999,
      "province":"SK"
   },
   {
      "display_name":"Beaver Creek",
      "lat":51.972913723,
      "lon":-106.668566383999,
      "province":"SK"
   },
   {
      "display_name":"Beaver Dale",
      "lat":51.2499979,
      "lon":-102.900489,
      "province":"SK"
   },
   {
      "display_name":"Beaver Flat",
      "lat":50.660397228,
      "lon":-107.656318074999,
      "province":"SK"
   },
   {
      "display_name":"Beechy",
      "lat":50.8832999,
      "lon":-107.383299999999,
      "province":"SK"
   },
   {
      "display_name":"Bekevar",
      "lat":50.0333512,
      "lon":-102.6171654,
      "province":"SK"
   },
   {
      "display_name":"Belbutte",
      "lat":53.3666999,
      "lon":-107.816699899999,
      "province":"SK"
   },
   {
      "display_name":"Belle Plaine",
      "lat":50.394512751,
      "lon":-105.156203563999,
      "province":"SK"
   },
   {
      "display_name":"Bellegarde",
      "lat":49.530813337,
      "lon":-101.549071064999,
      "province":"SK"
   },
   {
      "display_name":"Bengough",
      "lat":49.395952685,
      "lon":-105.126879578999,
      "province":"SK"
   },
   {
      "display_name":"Benson",
      "lat":49.455058026,
      "lon":-103.004118025999,
      "province":"SK"
   },
   {
      "display_name":"Bents",
      "lat":51.8167149999999,
      "lon":-107.7339969,
      "province":"SK"
   },
   {
      "display_name":"Bertwell",
      "lat":52.588581186,
      "lon":-102.544952600999,
      "province":"SK"
   },
   {
      "display_name":"Bethune",
      "lat":50.712914438,
      "lon":-105.206738400999,
      "province":"SK"
   },
   {
      "display_name":"Beverley",
      "lat":50.268518717,
      "lon":-107.979740431999,
      "province":"SK"
   },
   {
      "display_name":"Bienfait",
      "lat":49.142288385,
      "lon":-102.805212718999,
      "province":"SK"
   },
   {
      "display_name":"Big Beaver",
      "lat":49.10057785,
      "lon":-105.171408439999,
      "province":"SK"
   },
   {
      "display_name":"Big River",
      "lat":53.834824931,
      "lon":-107.033731662999,
      "province":"SK"
   },
   {
      "display_name":"Big Shell",
      "lat":53.200407335,
      "lon":-107.128727010999,
      "province":"SK"
   },
   {
      "display_name":"Biggar",
      "lat":52.057981237,
      "lon":-107.984611724999,
      "province":"SK"
   },
   {
      "display_name":"Billimun",
      "lat":49.4500271,
      "lon":-107.2172976,
      "province":"SK"
   },
   {
      "display_name":"Birch Hills",
      "lat":52.982968305,
      "lon":-105.435260683999,
      "province":"SK"
   },
   {
      "display_name":"Bird's Point",
      "lat":50.546532035,
      "lon":-102.367959853999,
      "province":"SK"
   },
   {
      "display_name":"Birmingham",
      "lat":50.973498784,
      "lon":-102.937891357999,
      "province":"SK"
   },
   {
      "display_name":"Birsay",
      "lat":51.097561985,
      "lon":-106.981043491999,
      "province":"SK"
   },
   {
      "display_name":"Bjorkdale",
      "lat":52.710704072,
      "lon":-103.645567075999,
      "province":"SK"
   },
   {
      "display_name":"Black Lake",
      "lat":59.1333,
      "lon":-105.599999898999,
      "province":"SK"
   },
   {
      "display_name":"Black Point",
      "lat":56.3666999,
      "lon":-109.449999998999,
      "province":"SK"
   },
   {
      "display_name":"Blackstrap Provincial Park",
      "lat":51.7565683999999,
      "lon":-106.4507679,
      "province":"SK"
   },
   {
      "display_name":"Bladworth",
      "lat":51.366913031,
      "lon":-106.137429904999,
      "province":"SK"
   },
   {
      "display_name":"Blaine Lake",
      "lat":52.830195734,
      "lon":-106.880949485999,
      "province":"SK"
   },
   {
      "display_name":"Blumenheim",
      "lat":52.38959951,
      "lon":-106.417004396999,
      "province":"SK"
   },
   {
      "display_name":"Blumenhof",
      "lat":50.022890827,
      "lon":-107.699564286999,
      "province":"SK"
   },
   {
      "display_name":"Blumenthal",
      "lat":52.481835992,
      "lon":-106.377111422999,
      "province":"SK"
   },
   {
      "display_name":"Bodmin",
      "lat":53.754354073,
      "lon":-106.986372213999,
      "province":"SK"
   },
   {
      "display_name":"Boharm",
      "lat":50.4,
      "lon":-105.716699900999,
      "province":"SK"
   },
   {
      "display_name":"Borden",
      "lat":52.405610335,
      "lon":-107.238480628999,
      "province":"SK"
   },
   {
      "display_name":"Brabant",
      "lat":56.1166999,
      "lon":-103.750000000999,
      "province":"SK"
   },
   {
      "display_name":"Bracken",
      "lat":49.178154355,
      "lon":-108.095793377999,
      "province":"SK"
   },
   {
      "display_name":"Brada",
      "lat":52.7167327999999,
      "lon":-108.1840072,
      "province":"SK"
   },
   {
      "display_name":"Bradwell",
      "lat":51.947733983,
      "lon":-106.232266703999,
      "province":"SK"
   },
   {
      "display_name":"Brancepeth",
      "lat":53.002011876,
      "lon":-105.261697429999,
      "province":"SK"
   },
   {
      "display_name":"Bredenbury",
      "lat":50.943464947,
      "lon":-102.048848783999,
      "province":"SK"
   },
   {
      "display_name":"Brewer",
      "lat":50.99079393,
      "lon":-102.710004710999,
      "province":"SK"
   },
   {
      "display_name":"Briercrest",
      "lat":50.1667,
      "lon":-105.266699899999,
      "province":"SK"
   },
   {
      "display_name":"Broadview",
      "lat":50.379341899,
      "lon":-102.579756922999,
      "province":"SK"
   },
   {
      "display_name":"Brock",
      "lat":51.442127269,
      "lon":-108.719677789999,
      "province":"SK"
   },
   {
      "display_name":"Broderick",
      "lat":51.488316143,
      "lon":-106.919230472999,
      "province":"SK"
   },
   {
      "display_name":"Broncho",
      "lat":49.4000255999999,
      "lon":-107.4173035,
      "province":"SK"
   },
   {
      "display_name":"Brownlee",
      "lat":50.737110687,
      "lon":-106.017750607999,
      "province":"SK"
   },
   {
      "display_name":"Bruno",
      "lat":52.263205362,
      "lon":-105.524209986999,
      "province":"SK"
   },
   {
      "display_name":"B-Say-Tah",
      "lat":50.786821712,
      "lon":-103.857555500999,
      "province":"SK"
   },
   {
      "display_name":"Buchanan",
      "lat":51.7,
      "lon":-102.749999999999,
      "province":"SK"
   },
   {
      "display_name":"Buena Vista (13,14-21-22-2)",
      "lat":50.782078865,
      "lon":-104.942074690999,
      "province":"SK"
   },
   {
      "display_name":"Buffalo Horn",
      "lat":49.4833589,
      "lon":-107.5506501,
      "province":"SK"
   },
   {
      "display_name":"Buffalo Narrows",
      "lat":55.866108626,
      "lon":-108.489465402999,
      "province":"SK"
   },
   {
      "display_name":"Buffalo Pound Provincial Park",
      "lat":50.5871073,
      "lon":-105.3958437,
      "province":"SK"
   },
   {
      "display_name":"Bulyea",
      "lat":50.985423348,
      "lon":-104.862815325999,
      "province":"SK"
   },
   {
      "display_name":"Burgis Beach",
      "lat":51.5431,
      "lon":-102.622199898999,
      "province":"SK"
   },
   {
      "display_name":"Burr",
      "lat":52.05,
      "lon":-105.133299899999,
      "province":"SK"
   },
   {
      "display_name":"Burstall",
      "lat":50.655915618,
      "lon":-109.908389162999,
      "province":"SK"
   },
   {
      "display_name":"Bushell Park",
      "lat":50.339553066,
      "lon":-105.551635640999,
      "province":"SK"
   },
   {
      "display_name":"Cabri",
      "lat":50.619417959,
      "lon":-108.460941613999,
      "province":"SK"
   },
   {
      "display_name":"Cactus Lake",
      "lat":52.1140580999999,
      "lon":-109.8150693,
      "province":"SK"
   },
   {
      "display_name":"Cadillac",
      "lat":49.725893112,
      "lon":-107.736955347999,
      "province":"SK"
   },
   {
      "display_name":"Calder",
      "lat":51.15790014,
      "lon":-101.749365160999,
      "province":"SK"
   },
   {
      "display_name":"Camp Dundurn",
      "lat":51.852177658,
      "lon":-106.554833126999,
      "province":"SK"
   },
   {
      "display_name":"Camsell Portage",
      "lat":59.609321653,
      "lon":-109.264318084999,
      "province":"SK"
   },
   {
      "display_name":"Cana",
      "lat":50.885439151,
      "lon":-102.642853024999,
      "province":"SK"
   },
   {
      "display_name":"Candiac",
      "lat":50.211061868,
      "lon":-103.259197701999,
      "province":"SK"
   },
   {
      "display_name":"Candle Lake",
      "lat":53.75167858,
      "lon":-105.252442749999,
      "province":"SK"
   },
   {
      "display_name":"Candle Lake Provincial Park",
      "lat":53.8267726,
      "lon":-105.259348,
      "province":"SK"
   },
   {
      "display_name":"Cando",
      "lat":52.373109935,
      "lon":-108.214933594999,
      "province":"SK"
   },
   {
      "display_name":"Cannington Lake",
      "lat":49.783849805,
      "lon":-102.162443622999,
      "province":"SK"
   },
   {
      "display_name":"Cannington Manor Provincial Park",
      "lat":49.7307777,
      "lon":-102.0584046,
      "province":"SK"
   },
   {
      "display_name":"Canoe Narrows",
      "lat":55.163369015,
      "lon":-108.156555220999,
      "province":"SK"
   },
   {
      "display_name":"Canora",
      "lat":51.6333,
      "lon":-102.433299999999,
      "province":"SK"
   },
   {
      "display_name":"Cantuar",
      "lat":50.382978666,
      "lon":-108.008587265999,
      "province":"SK"
   },
   {
      "display_name":"Canwood",
      "lat":53.361619546,
      "lon":-106.604219598999,
      "province":"SK"
   },
   {
      "display_name":"Carievale",
      "lat":49.174285598,
      "lon":-101.624488929999,
      "province":"SK"
   },
   {
      "display_name":"Carlea",
      "lat":53.15,
      "lon":-103.899999899999,
      "province":"SK"
   },
   {
      "display_name":"Carlyle",
      "lat":49.6333,
      "lon":-102.266699900999,
      "province":"SK"
   },
   {
      "display_name":"Carlyle Lake Resort",
      "lat":49.741791295,
      "lon":-102.274156368999,
      "province":"SK"
   },
   {
      "display_name":"Carmel",
      "lat":52.224767621,
      "lon":-105.348802919999,
      "province":"SK"
   },
   {
      "display_name":"Carmichael",
      "lat":50.045474635,
      "lon":-108.648468279999,
      "province":"SK"
   },
   {
      "display_name":"Carnduff",
      "lat":49.174938816,
      "lon":-101.793829904999,
      "province":"SK"
   },
   {
      "display_name":"Caron",
      "lat":50.458160153,
      "lon":-105.874001972999,
      "province":"SK"
   },
   {
      "display_name":"Caronport",
      "lat":50.45899339,
      "lon":-105.814941487999,
      "province":"SK"
   },
   {
      "display_name":"Carrot River",
      "lat":53.2833,
      "lon":-103.583299899999,
      "province":"SK"
   },
   {
      "display_name":"Casa Rio",
      "lat":52.027476574,
      "lon":-106.646052425999,
      "province":"SK"
   },
   {
      "display_name":"Cedar Villa Estates",
      "lat":52.096462846,
      "lon":-106.771886749999,
      "province":"SK"
   },
   {
      "display_name":"Cedoux",
      "lat":49.8833,
      "lon":-103.866699999999,
      "province":"SK"
   },
   {
      "display_name":"Central Butte",
      "lat":50.797619153,
      "lon":-106.506702041999,
      "province":"SK"
   },
   {
      "display_name":"Ceylon",
      "lat":49.458737278,
      "lon":-104.600808730999,
      "province":"SK"
   },
   {
      "display_name":"Chamberlain",
      "lat":50.8499999,
      "lon":-105.566699999999,
      "province":"SK"
   },
   {
      "display_name":"Chaplin",
      "lat":50.461642814,
      "lon":-106.657532750999,
      "province":"SK"
   },
   {
      "display_name":"Chelan",
      "lat":52.610512903,
      "lon":-103.392769073999,
      "province":"SK"
   },
   {
      "display_name":"Chitek Lake",
      "lat":53.753772257,
      "lon":-107.731218644999,
      "province":"SK"
   },
   {
      "display_name":"Choiceland",
      "lat":53.492437245,
      "lon":-104.484140101999,
      "province":"SK"
   },
   {
      "display_name":"Chorney Beach",
      "lat":51.806422994,
      "lon":-103.553186451999,
      "province":"SK"
   },
   {
      "display_name":"Chortitz (19-13-12-W3)",
      "lat":50.105639249,
      "lon":-107.644728376999,
      "province":"SK"
   },
   {
      "display_name":"Christopher Lake",
      "lat":53.540233633,
      "lon":-105.791225702999,
      "province":"SK"
   },
   {
      "display_name":"Churchbridge",
      "lat":50.897718458,
      "lon":-101.891110458999,
      "province":"SK"
   },
   {
      "display_name":"Clair",
      "lat":52.022235985,
      "lon":-104.076582058999,
      "province":"SK"
   },
   {
      "display_name":"Clarence - Steepbank Lakes Provincial Park",
      "lat":54.2724403,
      "lon":-105.1149395,
      "province":"SK"
   },
   {
      "display_name":"Clavet",
      "lat":51.995717075,
      "lon":-106.373681104999,
      "province":"SK"
   },
   {
      "display_name":"Claybank",
      "lat":50.045517416,
      "lon":-105.233329675,
      "province":"SK"
   },
   {
      "display_name":"Clearwater River",
      "lat":56.529618069,
      "lon":-109.491929780999,
      "province":"SK"
   },
   {
      "display_name":"Clearwater River Provincial Park",
      "lat":57.0504157999999,
      "lon":-108.6979324,
      "province":"SK"
   },
   {
      "display_name":"Clemenceau",
      "lat":52.66524631,
      "lon":-102.527403636999,
      "province":"SK"
   },
   {
      "display_name":"Climax",
      "lat":49.20771118,
      "lon":-108.388384710999,
      "province":"SK"
   },
   {
      "display_name":"Clouston",
      "lat":53.0999999,
      "lon":-105.849999899999,
      "province":"SK"
   },
   {
      "display_name":"Cluff Lake",
      "lat":58.3667991,
      "lon":-109.5675436,
      "province":"SK"
   },
   {
      "display_name":"Cochin",
      "lat":53.082347816,
      "lon":-108.337319793999,
      "province":"SK"
   },
   {
      "display_name":"Coderre",
      "lat":50.1333,
      "lon":-106.383299999999,
      "province":"SK"
   },
   {
      "display_name":"Codette",
      "lat":53.281531827,
      "lon":-104.027666361999,
      "province":"SK"
   },
   {
      "display_name":"Cole Bay",
      "lat":55.097401216,
      "lon":-108.322328100999,
      "province":"SK"
   },
   {
      "display_name":"Colesdale Park",
      "lat":50.952269773,
      "lon":-105.147987932999,
      "province":"SK"
   },
   {
      "display_name":"Coleville",
      "lat":51.710549404,
      "lon":-109.246126671999,
      "province":"SK"
   },
   {
      "display_name":"Colfax",
      "lat":49.944457761,
      "lon":-103.982078933999,
      "province":"SK"
   },
   {
      "display_name":"Colgate",
      "lat":49.399321642,
      "lon":-103.891868968999,
      "province":"SK"
   },
   {
      "display_name":"Colonsay",
      "lat":51.977459738,
      "lon":-105.869893908999,
      "province":"SK"
   },
   {
      "display_name":"Congress",
      "lat":49.753895508,
      "lon":-106.020856634999,
      "province":"SK"
   },
   {
      "display_name":"Conquest",
      "lat":51.530638163,
      "lon":-107.239574702999,
      "province":"SK"
   },
   {
      "display_name":"Consul",
      "lat":49.294570099,
      "lon":-109.519598051999,
      "province":"SK"
   },
   {
      "display_name":"Coriander",
      "lat":49.300023,
      "lon":-107.5673117,
      "province":"SK"
   },
   {
      "display_name":"Corning",
      "lat":49.958231892,
      "lon":-102.971353455999,
      "province":"SK"
   },
   {
      "display_name":"Coronach",
      "lat":49.111437964,
      "lon":-105.516261147999,
      "province":"SK"
   },
   {
      "display_name":"Cosine",
      "lat":52.1334009999999,
      "lon":-109.9341087,
      "province":"SK"
   },
   {
      "display_name":"Coteau Beach",
      "lat":51.166324523,
      "lon":-106.824626071999,
      "province":"SK"
   },
   {
      "display_name":"Craik",
      "lat":51.05,
      "lon":-105.816699999999,
      "province":"SK"
   },
   {
      "display_name":"Crane Valley",
      "lat":49.757040838,
      "lon":-105.526801343999,
      "province":"SK"
   },
   {
      "display_name":"Craven",
      "lat":50.708401563,
      "lon":-104.810355009999,
      "province":"SK"
   },
   {
      "display_name":"Cree Lake",
      "lat":57.356188809,
      "lon":-106.834073782999,
      "province":"SK"
   },
   {
      "display_name":"Creelman",
      "lat":49.818021042,
      "lon":-103.310203469999,
      "province":"SK"
   },
   {
      "display_name":"Creighton",
      "lat":54.7499999,
      "lon":-101.899999900999,
      "province":"SK"
   },
   {
      "display_name":"Crestwynd",
      "lat":50.100029,
      "lon":-105.6839075,
      "province":"SK"
   },
   {
      "display_name":"Crooked Lake Provincial Park",
      "lat":50.6068787,
      "lon":-102.6702598,
      "province":"SK"
   },
   {
      "display_name":"Crooked River",
      "lat":52.855054496,
      "lon":-103.733034381999,
      "province":"SK"
   },
   {
      "display_name":"Crutwell",
      "lat":53.219327333,
      "lon":-106.069034564999,
      "province":"SK"
   },
   {
      "display_name":"Crystal Bay-Sunset",
      "lat":53.542564474,
      "lon":-108.866840104999,
      "province":"SK"
   },
   {
      "display_name":"Crystal Lake",
      "lat":51.85,
      "lon":-102.433299999999,
      "province":"SK"
   },
   {
      "display_name":"Crystal Springs",
      "lat":52.807855148,
      "lon":-105.364425491999,
      "province":"SK"
   },
   {
      "display_name":"Cudsaskwa Beach",
      "lat":52.649094574,
      "lon":-105.637359296999,
      "province":"SK"
   },
   {
      "display_name":"Cudworth",
      "lat":52.491476189,
      "lon":-105.733249761999,
      "province":"SK"
   },
   {
      "display_name":"Cumberland House",
      "lat":53.953834273,
      "lon":-102.269482279999,
      "province":"SK"
   },
   {
      "display_name":"Cumberland House Provincial Park",
      "lat":53.9597736,
      "lon":-102.2641146,
      "province":"SK"
   },
   {
      "display_name":"Cupar",
      "lat":50.946470215,
      "lon":-104.212012754999,
      "province":"SK"
   },
   {
      "display_name":"Cut Knife",
      "lat":52.744953277,
      "lon":-109.017546011999,
      "province":"SK"
   },
   {
      "display_name":"Cypress Hills Provincial Park",
      "lat":49.634499,
      "lon":-109.750084,
      "province":"SK"
   },
   {
      "display_name":"Dafoe",
      "lat":51.753452,
      "lon":-104.52299,
      "province":"SK"
   },
   {
      "display_name":"Dalmeny",
      "lat":52.342341601,
      "lon":-106.773223425999,
      "province":"SK"
   },
   {
      "display_name":"Dana",
      "lat":52.288388027,
      "lon":-105.705273510999,
      "province":"SK"
   },
   {
      "display_name":"Danbury",
      "lat":52.05497553,
      "lon":-102.264892189999,
      "province":"SK"
   },
   {
      "display_name":"Danielson Provincial Park",
      "lat":51.2487829,
      "lon":-106.8860239,
      "province":"SK"
   },
   {
      "display_name":"D'Arcy",
      "lat":51.4667,
      "lon":-108.533299999999,
      "province":"SK"
   },
   {
      "display_name":"Darlings Beach",
      "lat":49.979115131,
      "lon":-107.925226527999,
      "province":"SK"
   },
   {
      "display_name":"Davidson",
      "lat":51.263306034,
      "lon":-105.988999679999,
      "province":"SK"
   },
   {
      "display_name":"Davin",
      "lat":50.383606966,
      "lon":-104.108722261999,
      "province":"SK"
   },
   {
      "display_name":"Davis",
      "lat":53.110372396,
      "lon":-105.672275744999,
      "province":"SK"
   },
   {
      "display_name":"Day's Beach",
      "lat":53.0501945,
      "lon":-108.335213882999,
      "province":"SK"
   },
   {
      "display_name":"Debden",
      "lat":53.526480928,
      "lon":-106.881386194999,
      "province":"SK"
   },
   {
      "display_name":"Deer Valley",
      "lat":50.592897652,
      "lon":-104.885097496999,
      "province":"SK"
   },
   {
      "display_name":"Delisle",
      "lat":51.926737598,
      "lon":-107.133741342999,
      "province":"SK"
   },
   {
      "display_name":"Delmas",
      "lat":52.928928006,
      "lon":-108.602788177999,
      "province":"SK"
   },
   {
      "display_name":"Demaine",
      "lat":50.890453089,
      "lon":-107.258680965999,
      "province":"SK"
   },
   {
      "display_name":"Denare Beach",
      "lat":54.657524442,
      "lon":-102.080595201999,
      "province":"SK"
   },
   {
      "display_name":"Denholm",
      "lat":52.657227526,
      "lon":-108.010446977999,
      "province":"SK"
   },
   {
      "display_name":"Denzil",
      "lat":52.227790545,
      "lon":-109.649179233999,
      "province":"SK"
   },
   {
      "display_name":"Deschambault Lake",
      "lat":54.910669888,
      "lon":-103.374021263999,
      "province":"SK"
   },
   {
      "display_name":"Descharme Lake",
      "lat":57.104336207,
      "lon":-109.212354332999,
      "province":"SK"
   },
   {
      "display_name":"Dilke",
      "lat":50.8667,
      "lon":-105.249999899999,
      "province":"SK"
   },
   {
      "display_name":"Dillon",
      "lat":55.927814049,
      "lon":-108.931169255999,
      "province":"SK"
   },
   {
      "display_name":"Dinsmore",
      "lat":51.333190939,
      "lon":-107.444383334999,
      "province":"SK"
   },
   {
      "display_name":"Disley",
      "lat":50.64023519,
      "lon":-105.051121880999,
      "province":"SK"
   },
   {
      "display_name":"District of Katepwa",
      "lat":50.700033,
      "lon":-103.633846999999,
      "province":"SK"
   },
   {
      "display_name":"Dodsland",
      "lat":51.799696523,
      "lon":-108.836016080999,
      "province":"SK"
   },
   {
      "display_name":"Dollard",
      "lat":49.6166999,
      "lon":-108.583299899999,
      "province":"SK"
   },
   {
      "display_name":"Domremy",
      "lat":52.788614813,
      "lon":-105.729206861999,
      "province":"SK"
   },
   {
      "display_name":"Donavon",
      "lat":51.7999999,
      "lon":-107.133299899999,
      "province":"SK"
   },
   {
      "display_name":"Dore Lake",
      "lat":54.620915244,
      "lon":-107.408938722999,
      "province":"SK"
   },
   {
      "display_name":"Dorintosh",
      "lat":54.352705903,
      "lon":-108.624639562999,
      "province":"SK"
   },
   {
      "display_name":"Douglas Provincial Park",
      "lat":51.0160301999999,
      "lon":-106.4662081,
      "province":"SK"
   },
   {
      "display_name":"Drake",
      "lat":51.74681212,
      "lon":-105.011959047999,
      "province":"SK"
   },
   {
      "display_name":"Drinkwater",
      "lat":50.296714609,
      "lon":-105.135786252999,
      "province":"SK"
   },
   {
      "display_name":"Dubuc",
      "lat":50.683849654,
      "lon":-102.475913000999,
      "province":"SK"
   },
   {
      "display_name":"Duck Lake",
      "lat":52.811742674,
      "lon":-106.226864054999,
      "province":"SK"
   },
   {
      "display_name":"Duck Mountain Provincial Park",
      "lat":51.6647428999999,
      "lon":-101.6571547,
      "province":"SK"
   },
   {
      "display_name":"Duff",
      "lat":50.874088079,
      "lon":-103.090696887999,
      "province":"SK"
   },
   {
      "display_name":"Dunblane",
      "lat":51.202253102,
      "lon":-106.880040259999,
      "province":"SK"
   },
   {
      "display_name":"Dundurn",
      "lat":51.809254766,
      "lon":-106.506830358999,
      "province":"SK"
   },
   {
      "display_name":"Dunfermline",
      "lat":52.133948793,
      "lon":-107.039459905999,
      "province":"SK"
   },
   {
      "display_name":"Dunkirk",
      "lat":50.0333,
      "lon":-105.716699899999,
      "province":"SK"
   },
   {
      "display_name":"Duperow",
      "lat":51.970032091,
      "lon":-108.242826419999,
      "province":"SK"
   },
   {
      "display_name":"Duval",
      "lat":51.157187996,
      "lon":-104.990686016999,
      "province":"SK"
   },
   {
      "display_name":"Dysart",
      "lat":50.947154498,
      "lon":-104.036230464999,
      "province":"SK"
   },
   {
      "display_name":"Eagle Ridge Country Estates",
      "lat":52.1611,
      "lon":-106.491699999999,
      "province":"SK"
   },
   {
      "display_name":"Earl Grey",
      "lat":50.934231357,
      "lon":-104.709954853999,
      "province":"SK"
   },
   {
      "display_name":"Eastend",
      "lat":49.5167,
      "lon":-108.816700000999,
      "province":"SK"
   },
   {
      "display_name":"Eatonia",
      "lat":51.223408979,
      "lon":-109.389730110999,
      "province":"SK"
   },
   {
      "display_name":"Ebenezer",
      "lat":51.369579356,
      "lon":-102.447183697999,
      "province":"SK"
   },
   {
      "display_name":"Echo Bay",
      "lat":53.2167,
      "lon":-107.133299898999,
      "province":"SK"
   },
   {
      "display_name":"Echo Valley Provincial Park",
      "lat":50.7881262999999,
      "lon":-103.8916951,
      "province":"SK"
   },
   {
      "display_name":"Edam",
      "lat":53.187590387,
      "lon":-108.769375042999,
      "province":"SK"
   },
   {
      "display_name":"Edenwold",
      "lat":50.6332999,
      "lon":-104.249999998999,
      "province":"SK"
   },
   {
      "display_name":"Edgeley",
      "lat":50.637714591,
      "lon":-103.995294390999,
      "province":"SK"
   },
   {
      "display_name":"Elbow",
      "lat":51.121231527,
      "lon":-106.596272207999,
      "province":"SK"
   },
   {
      "display_name":"Elbow Lake",
      "lat":52.492666128,
      "lon":-101.715849185999,
      "province":"SK"
   },
   {
      "display_name":"Eldersley",
      "lat":52.860236279,
      "lon":-103.817644196999,
      "province":"SK"
   },
   {
      "display_name":"Eldorado",
      "lat":59.551565563,
      "lon":-108.513787800999,
      "province":"SK"
   },
   {
      "display_name":"Elfros",
      "lat":51.741807058,
      "lon":-103.864134828999,
      "province":"SK"
   },
   {
      "display_name":"Elrose",
      "lat":51.2,
      "lon":-108.033299999999,
      "province":"SK"
   },
   {
      "display_name":"Elstow",
      "lat":51.987396313,
      "lon":-106.058441269999,
      "province":"SK"
   },
   {
      "display_name":"Emma Lake",
      "lat":53.561957804,
      "lon":-105.871714174999,
      "province":"SK"
   },
   {
      "display_name":"Endeavour",
      "lat":52.160899061,
      "lon":-102.657124747999,
      "province":"SK"
   },
   {
      "display_name":"Englefeld",
      "lat":52.162026302,
      "lon":-104.654840127999,
      "province":"SK"
   },
   {
      "display_name":"Ernfold",
      "lat":50.446158784,
      "lon":-106.892016573999,
      "province":"SK"
   },
   {
      "display_name":"Erwood",
      "lat":52.858192144,
      "lon":-102.186537406999,
      "province":"SK"
   },
   {
      "display_name":"Esk",
      "lat":51.8166999,
      "lon":-104.849999999999,
      "province":"SK"
   },
   {
      "display_name":"Espeseth Cove",
      "lat":50.550814431,
      "lon":-102.400268353999,
      "province":"SK"
   },
   {
      "display_name":"Esterhazy",
      "lat":50.655094762,
      "lon":-102.074466019999,
      "province":"SK"
   },
   {
      "display_name":"Estevan",
      "lat":49.1332999,
      "lon":-102.983299899999,
      "province":"SK"
   },
   {
      "display_name":"Estlin",
      "lat":50.251179579,
      "lon":-104.526397274999,
      "province":"SK"
   },
   {
      "display_name":"Eston",
      "lat":51.1499999,
      "lon":-108.749999999999,
      "province":"SK"
   },
   {
      "display_name":"Ethelton",
      "lat":52.786579978,
      "lon":-104.932065400999,
      "province":"SK"
   },
   {
      "display_name":"Etomami",
      "lat":52.731189679,
      "lon":-102.319456168999,
      "province":"SK"
   },
   {
      "display_name":"Etters Beach",
      "lat":51.233980475,
      "lon":-105.288908408999,
      "province":"SK"
   },
   {
      "display_name":"Evergreen Acres",
      "lat":53.516247088,
      "lon":-108.661368195999,
      "province":"SK"
   },
   {
      "display_name":"Evergreen Brightsand",
      "lat":53.6144,
      "lon":-108.834699999999,
      "province":"SK"
   },
   {
      "display_name":"Evesham",
      "lat":52.3910999,
      "lon":-109.844399899999,
      "province":"SK"
   },
   {
      "display_name":"Eyebrow",
      "lat":50.8,
      "lon":-106.149999999999,
      "province":"SK"
   },
   {
      "display_name":"Fairholme",
      "lat":53.427707206,
      "lon":-108.539635363999,
      "province":"SK"
   },
   {
      "display_name":"Fairlight",
      "lat":49.874938899,
      "lon":-101.680345631999,
      "province":"SK"
   },
   {
      "display_name":"Fairy Glen",
      "lat":53.034823901,
      "lon":-104.537672273999,
      "province":"SK"
   },
   {
      "display_name":"Fenton",
      "lat":53.016063964,
      "lon":-105.585959774999,
      "province":"SK"
   },
   {
      "display_name":"Fenwood",
      "lat":51.012463242,
      "lon":-103.046959851999,
      "province":"SK"
   },
   {
      "display_name":"Ferland",
      "lat":49.448904879,
      "lon":-106.950710311999,
      "province":"SK"
   },
   {
      "display_name":"Fielding",
      "lat":52.518416041,
      "lon":-107.550236516999,
      "province":"SK"
   },
   {
      "display_name":"Fife Lake",
      "lat":49.194882455,
      "lon":-105.729462437999,
      "province":"SK"
   },
   {
      "display_name":"Fillmore",
      "lat":49.87952368,
      "lon":-103.433959482999,
      "province":"SK"
   },
   {
      "display_name":"Findlater",
      "lat":50.788474615,
      "lon":-105.402295822999,
      "province":"SK"
   },
   {
      "display_name":"Fiske",
      "lat":51.4832999,
      "lon":-108.399999899999,
      "province":"SK"
   },
   {
      "display_name":"Fitzmaurice",
      "lat":51.3333322,
      "lon":-103.1171599,
      "province":"SK"
   },
   {
      "display_name":"Flaxcombe",
      "lat":51.478520255,
      "lon":-109.601356135999,
      "province":"SK"
   },
   {
      "display_name":"Fleming",
      "lat":50.073484068,
      "lon":-101.507543286999,
      "province":"SK"
   },
   {
      "display_name":"Foam Lake",
      "lat":51.642918877,
      "lon":-103.530427183999,
      "province":"SK"
   },
   {
      "display_name":"Fond-du-Lac",
      "lat":59.321380956,
      "lon":-107.189364414999,
      "province":"SK"
   },
   {
      "display_name":"Forget",
      "lat":49.6499999,
      "lon":-102.866699899999,
      "province":"SK"
   },
   {
      "display_name":"Fort Carlton Provincial Park",
      "lat":52.8729106,
      "lon":-106.5266038,
      "province":"SK"
   },
   {
      "display_name":"Fort Pitt Provincial Park",
      "lat":53.5719737,
      "lon":-109.7924885,
      "province":"SK"
   },
   {
      "display_name":"Fort Qu'Appelle",
      "lat":50.766915119,
      "lon":-103.790361321999,
      "province":"SK"
   },
   {
      "display_name":"Fort San",
      "lat":50.787936926,
      "lon":-103.803618730999,
      "province":"SK"
   },
   {
      "display_name":"Fort Walsh",
      "lat":49.5667,
      "lon":-109.883299900999,
      "province":"SK"
   },
   {
      "display_name":"Fosston",
      "lat":52.190199705,
      "lon":-103.811676226999,
      "province":"SK"
   },
   {
      "display_name":"Fox Valley",
      "lat":50.465597706,
      "lon":-109.480531521999,
      "province":"SK"
   },
   {
      "display_name":"Francis",
      "lat":50.1,
      "lon":-103.866699999999,
      "province":"SK"
   },
   {
      "display_name":"Frenchman Butte",
      "lat":53.590711359,
      "lon":-109.633441918999,
      "province":"SK"
   },
   {
      "display_name":"Frobisher",
      "lat":49.209186316,
      "lon":-102.426157275999,
      "province":"SK"
   },
   {
      "display_name":"Frontier",
      "lat":49.205989054,
      "lon":-108.562505478999,
      "province":"SK"
   },
   {
      "display_name":"Fulda",
      "lat":52.35,
      "lon":-105.216699898999,
      "province":"SK"
   },
   {
      "display_name":"Furdale",
      "lat":52.078147299,
      "lon":-106.687853540999,
      "province":"SK"
   },
   {
      "display_name":"Furness",
      "lat":53.1166999,
      "lon":-109.966699900999,
      "province":"SK"
   },
   {
      "display_name":"Gainsborough",
      "lat":49.179055738,
      "lon":-101.449412777999,
      "province":"SK"
   },
   {
      "display_name":"Garrick",
      "lat":53.491730917,
      "lon":-104.337893691999,
      "province":"SK"
   },
   {
      "display_name":"Garry No. 245",
      "lat":51.2544435,
      "lon":-103.0625046,
      "province":"SK"
   },
   {
      "display_name":"Garson Lake",
      "lat":56.312662999,
      "lon":-109.955744462999,
      "province":"SK"
   },
   {
      "display_name":"Gerald",
      "lat":50.66621055,
      "lon":-101.793963060999,
      "province":"SK"
   },
   {
      "display_name":"Gibbs",
      "lat":50.903727484,
      "lon":-104.865708399999,
      "province":"SK"
   },
   {
      "display_name":"Girvin",
      "lat":51.15847661,
      "lon":-105.912198008999,
      "province":"SK"
   },
   {
      "display_name":"Gladmar",
      "lat":49.164068898,
      "lon":-104.453402541999,
      "province":"SK"
   },
   {
      "display_name":"Glaslyn",
      "lat":53.357748136,
      "lon":-108.352831679999,
      "province":"SK"
   },
   {
      "display_name":"Glen Ewen",
      "lat":49.207667776,
      "lon":-102.012977935999,
      "province":"SK"
   },
   {
      "display_name":"Glen Harbour",
      "lat":50.889878908,
      "lon":-105.092712009999,
      "province":"SK"
   },
   {
      "display_name":"Glen McPherson",
      "lat":49.4333587,
      "lon":-107.4673085,
      "province":"SK"
   },
   {
      "display_name":"Glen McPherson No. 46",
      "lat":49.3927430999999,
      "lon":-107.419101,
      "province":"SK"
   },
   {
      "display_name":"Glenavon",
      "lat":50.196081335,
      "lon":-103.139234540999,
      "province":"SK"
   },
   {
      "display_name":"Glenbain",
      "lat":49.844304741,
      "lon":-107.021003806999,
      "province":"SK"
   },
   {
      "display_name":"Glenside",
      "lat":51.453586657,
      "lon":-106.807148323999,
      "province":"SK"
   },
   {
      "display_name":"Glenside No. 377",
      "lat":52.4651636,
      "lon":-107.9774148,
      "province":"SK"
   },
   {
      "display_name":"Glentworth",
      "lat":49.424140503,
      "lon":-106.682771844999,
      "province":"SK"
   },
   {
      "display_name":"Glidden",
      "lat":51.239764781,
      "lon":-109.167695234999,
      "province":"SK"
   },
   {
      "display_name":"Golden Prairie",
      "lat":50.221312993,
      "lon":-109.630769037,
      "province":"SK"
   },
   {
      "display_name":"Good Spirit Acres",
      "lat":51.4832999,
      "lon":-102.683299999999,
      "province":"SK"
   },
   {
      "display_name":"Good Spirit Lake Provincial Park",
      "lat":51.5348481,
      "lon":-102.6842903,
      "province":"SK"
   },
   {
      "display_name":"Goodeve",
      "lat":51.060934562,
      "lon":-103.182116292999,
      "province":"SK"
   },
   {
      "display_name":"Goodsoil",
      "lat":54.399755143,
      "lon":-109.230783380999,
      "province":"SK"
   },
   {
      "display_name":"Goodwater",
      "lat":49.395927701,
      "lon":-103.704729169999,
      "province":"SK"
   },
   {
      "display_name":"Gouldtown",
      "lat":50.6167,
      "lon":-107.216699899999,
      "province":"SK"
   },
   {
      "display_name":"Govan",
      "lat":51.310671556,
      "lon":-104.992706029999,
      "province":"SK"
   },
   {
      "display_name":"Grand Coulee",
      "lat":50.4332999,
      "lon":-104.816699899999,
      "province":"SK"
   },
   {
      "display_name":"Grandora",
      "lat":52.114384333,
      "lon":-106.979605847999,
      "province":"SK"
   },
   {
      "display_name":"Grandview Beach",
      "lat":50.874697249,
      "lon":-105.104419454999,
      "province":"SK"
   },
   {
      "display_name":"Grasslands National Park of Canada",
      "lat":49.0907821,
      "lon":-107.1639653,
      "province":"SK"
   },
   {
      "display_name":"Grasswood",
      "lat":52.05728547,
      "lon":-106.647024877999,
      "province":"SK"
   },
   {
      "display_name":"Gravelbourg",
      "lat":49.877120639,
      "lon":-106.552171359999,
      "province":"SK"
   },
   {
      "display_name":"Gray",
      "lat":50.171728024,
      "lon":-104.444843116999,
      "province":"SK"
   },
   {
      "display_name":"Grayson",
      "lat":50.720243575,
      "lon":-102.644170580999,
      "province":"SK"
   },
   {
      "display_name":"Green Lake",
      "lat":54.290815239,
      "lon":-107.791744197999,
      "province":"SK"
   },
   {
      "display_name":"Greenfeld",
      "lat":52.43648308,
      "lon":-106.638789721999,
      "province":"SK"
   },
   {
      "display_name":"Greenstreet",
      "lat":53.461365381,
      "lon":-109.815198816999,
      "province":"SK"
   },
   {
      "display_name":"Greenwater Lake Provincial Park",
      "lat":52.5314333,
      "lon":-103.4502841,
      "province":"SK"
   },
   {
      "display_name":"Greig Lake",
      "lat":54.443324017,
      "lon":-108.692513637999,
      "province":"SK"
   },
   {
      "display_name":"Grenfell",
      "lat":50.411409965,
      "lon":-102.930647463999,
      "province":"SK"
   },
   {
      "display_name":"Griffin",
      "lat":49.6666999,
      "lon":-103.433299899999,
      "province":"SK"
   },
   {
      "display_name":"Gronlid",
      "lat":53.101570442,
      "lon":-104.463788343999,
      "province":"SK"
   },
   {
      "display_name":"Gruenthal",
      "lat":52.463383162,
      "lon":-106.518535848999,
      "province":"SK"
   },
   {
      "display_name":"Guernsey",
      "lat":51.870821926,
      "lon":-105.186034428999,
      "province":"SK"
   },
   {
      "display_name":"Gull Lake",
      "lat":50.095442675,
      "lon":-108.484844417999,
      "province":"SK"
   },
   {
      "display_name":"Hafford",
      "lat":52.725798428,
      "lon":-107.352946851999,
      "province":"SK"
   },
   {
      "display_name":"Hagen",
      "lat":52.938386814,
      "lon":-105.556532338999,
      "province":"SK"
   },
   {
      "display_name":"Hague",
      "lat":52.5110999,
      "lon":-106.416699999999,
      "province":"SK"
   },
   {
      "display_name":"Halbrite",
      "lat":49.489694762,
      "lon":-103.556570024999,
      "province":"SK"
   },
   {
      "display_name":"Hamlin",
      "lat":52.8667369,
      "lon":-108.317345,
      "province":"SK"
   },
   {
      "display_name":"Handel",
      "lat":52.063514184,
      "lon":-108.693617431999,
      "province":"SK"
   },
   {
      "display_name":"Hanley",
      "lat":51.629686005,
      "lon":-106.437320881999,
      "province":"SK"
   },
   {
      "display_name":"Hanson Lake",
      "lat":54.7000623999999,
      "lon":-102.8337552,
      "province":"SK"
   },
   {
      "display_name":"Harris",
      "lat":51.734830645,
      "lon":-107.579747857999,
      "province":"SK"
   },
   {
      "display_name":"Hawarden",
      "lat":51.414867095,
      "lon":-106.599459457999,
      "province":"SK"
   },
   {
      "display_name":"Hazel Dell",
      "lat":51.977004907,
      "lon":-102.976938787999,
      "province":"SK"
   },
   {
      "display_name":"Hazelwood",
      "lat":49.9333498,
      "lon":-102.5338301,
      "province":"SK"
   },
   {
      "display_name":"Hazelwood No. 94",
      "lat":49.8625397,
      "lon":-102.6878536,
      "province":"SK"
   },
   {
      "display_name":"Hazenmore",
      "lat":49.687385091,
      "lon":-107.136809433999,
      "province":"SK"
   },
   {
      "display_name":"Hazlet",
      "lat":50.400655852,
      "lon":-108.595273487999,
      "province":"SK"
   },
   {
      "display_name":"Heart's Hill No. 352",
      "lat":52.0107682,
      "lon":-109.7851818,
      "province":"SK"
   },
   {
      "display_name":"Hendon",
      "lat":52.08853727,
      "lon":-103.829202025999,
      "province":"SK"
   },
   {
      "display_name":"Henribourg",
      "lat":53.394663437,
      "lon":-105.626945076999,
      "province":"SK"
   },
   {
      "display_name":"Hepburn",
      "lat":52.522873379,
      "lon":-106.728978544999,
      "province":"SK"
   },
   {
      "display_name":"Herbert",
      "lat":50.427738556,
      "lon":-107.221021616999,
      "province":"SK"
   },
   {
      "display_name":"Herschel",
      "lat":51.638253944,
      "lon":-108.355782083999,
      "province":"SK"
   },
   {
      "display_name":"Herzel",
      "lat":51.0166949,
      "lon":-103.6838616,
      "province":"SK"
   },
   {
      "display_name":"Heward",
      "lat":49.737644219,
      "lon":-103.150117148999,
      "province":"SK"
   },
   {
      "display_name":"High Tor",
      "lat":52.4666999,
      "lon":-103.299999899999,
      "province":"SK"
   },
   {
      "display_name":"Hillmond",
      "lat":53.427832708,
      "lon":-109.697391613999,
      "province":"SK"
   },
   {
      "display_name":"Hillsborough No. 132",
      "lat":50.1756053999999,
      "lon":-105.852469,
      "province":"SK"
   },
   {
      "display_name":"Hirsch",
      "lat":49.17823149,
      "lon":-102.593078563999,
      "province":"SK"
   },
   {
      "display_name":"Hitchcock",
      "lat":49.223969137,
      "lon":-103.124446517999,
      "province":"SK"
   },
   {
      "display_name":"Hitchcock Bay",
      "lat":51.0472,
      "lon":-106.866699999999,
      "province":"SK"
   },
   {
      "display_name":"Hodgeville",
      "lat":50.11337785,
      "lon":-106.962390603999,
      "province":"SK"
   },
   {
      "display_name":"Hoey",
      "lat":52.867871528,
      "lon":-105.795539233999,
      "province":"SK"
   },
   {
      "display_name":"Holbein",
      "lat":53.227496982,
      "lon":-106.202229226999,
      "province":"SK"
   },
   {
      "display_name":"Holdfast",
      "lat":50.960161778,
      "lon":-105.418349142999,
      "province":"SK"
   },
   {
      "display_name":"Homefield",
      "lat":51.2166724999999,
      "lon":-103.2171684,
      "province":"SK"
   },
   {
      "display_name":"Hoosier",
      "lat":51.634129395,
      "lon":-109.736880453999,
      "province":"SK"
   },
   {
      "display_name":"Horizon",
      "lat":49.519330887,
      "lon":-105.229437024999,
      "province":"SK"
   },
   {
      "display_name":"Horseshoe Bay",
      "lat":53.611733627,
      "lon":-108.633795866999,
      "province":"SK"
   },
   {
      "display_name":"Hubbard",
      "lat":51.129047958,
      "lon":-103.369303910999,
      "province":"SK"
   },
   {
      "display_name":"Hudson Bay",
      "lat":52.85559566,
      "lon":-102.389202499999,
      "province":"SK"
   },
   {
      "display_name":"Humboldt",
      "lat":52.1999999,
      "lon":-105.124399898999,
      "province":"SK"
   },
   {
      "display_name":"Hume",
      "lat":49.6666999,
      "lon":-103.616699999999,
      "province":"SK"
   },
   {
      "display_name":"Hyas",
      "lat":51.89432698,
      "lon":-102.258941877999,
      "province":"SK"
   },
   {
      "display_name":"Ibstone",
      "lat":52.5667,
      "lon":-108.299999999999,
      "province":"SK"
   },
   {
      "display_name":"le--la-Crosse",
      "lat":55.449291573,
      "lon":-107.903768525999,
      "province":"SK"
   },
   {
      "display_name":"Illerbrun",
      "lat":49.9332999,
      "lon":-108.349999999999,
      "province":"SK"
   },
   {
      "display_name":"Imperial",
      "lat":51.34659512,
      "lon":-105.434035511999,
      "province":"SK"
   },
   {
      "display_name":"Indian Head",
      "lat":50.5333,
      "lon":-103.666700000999,
      "province":"SK"
   },
   {
      "display_name":"Indian Point - Golden Sands",
      "lat":53.589699079,
      "lon":-108.598564531999,
      "province":"SK"
   },
   {
      "display_name":"Invermay",
      "lat":51.806674221,
      "lon":-103.155599672999,
      "province":"SK"
   },
   {
      "display_name":"Island View",
      "lat":50.973066891,
      "lon":-105.161079539999,
      "province":"SK"
   },
   {
      "display_name":"Ituna",
      "lat":51.169839888,
      "lon":-103.496724262999,
      "province":"SK"
   },
   {
      "display_name":"Jameson",
      "lat":50.404978081,
      "lon":-104.286623274999,
      "province":"SK"
   },
   {
      "display_name":"Jans Bay",
      "lat":55.150589777,
      "lon":-108.099393321999,
      "province":"SK"
   },
   {
      "display_name":"Jansen",
      "lat":51.786548083,
      "lon":-104.714561512999,
      "province":"SK"
   },
   {
      "display_name":"Jasmin",
      "lat":51.228134053,
      "lon":-103.646020788999,
      "province":"SK"
   },
   {
      "display_name":"Jedburgh",
      "lat":51.2986078,
      "lon":-103.0018789,
      "province":"SK"
   },
   {
      "display_name":"Kamsack",
      "lat":51.562609224,
      "lon":-101.897952209999,
      "province":"SK"
   },
   {
      "display_name":"Kamsack Beach",
      "lat":51.633480372,
      "lon":-101.650685563999,
      "province":"SK"
   },
   {
      "display_name":"Kandahar",
      "lat":51.758934702,
      "lon":-104.360645295999,
      "province":"SK"
   },
   {
      "display_name":"Kannata Valley",
      "lat":50.7833,
      "lon":-104.899999999999,
      "province":"SK"
   },
   {
      "display_name":"Katepwa Point Provincial Park",
      "lat":50.6940046999999,
      "lon":-103.6270655,
      "province":"SK"
   },
   {
      "display_name":"Kayville",
      "lat":49.726363059,
      "lon":-105.149742521999,
      "province":"SK"
   },
   {
      "display_name":"Keatley",
      "lat":52.7999999,
      "lon":-107.466699899999,
      "province":"SK"
   },
   {
      "display_name":"Kedleston Beach",
      "lat":50.8167,
      "lon":-105.066699899999,
      "province":"SK"
   },
   {
      "display_name":"Keeler",
      "lat":50.6833,
      "lon":-105.883299998999,
      "province":"SK"
   },
   {
      "display_name":"Kelliher",
      "lat":51.266601007,
      "lon":-103.734441945999,
      "province":"SK"
   },
   {
      "display_name":"Kelso",
      "lat":49.965897882,
      "lon":-101.952332457999,
      "province":"SK"
   },
   {
      "display_name":"Kelvington",
      "lat":52.161685531,
      "lon":-103.524572999999,
      "province":"SK"
   },
   {
      "display_name":"Kenaston",
      "lat":51.501862682,
      "lon":-106.266639430999,
      "province":"SK"
   },
   {
      "display_name":"Kendal",
      "lat":50.254957472,
      "lon":-103.615483936999,
      "province":"SK"
   },
   {
      "display_name":"Kennedy",
      "lat":50.013360368,
      "lon":-102.349398352999,
      "province":"SK"
   },
   {
      "display_name":"Kenosee Lake",
      "lat":49.833394043,
      "lon":-102.285374125999,
      "province":"SK"
   },
   {
      "display_name":"Kenosee Park",
      "lat":49.833919723,
      "lon":-102.317828744999,
      "province":"SK"
   },
   {
      "display_name":"Kerrobert",
      "lat":51.9167,
      "lon":-109.133300000999,
      "province":"SK"
   },
   {
      "display_name":"Ketchen",
      "lat":51.994720922,
      "lon":-102.821495982999,
      "province":"SK"
   },
   {
      "display_name":"Keys No. 303",
      "lat":51.752769,
      "lon":-102.1529996,
      "province":"SK"
   },
   {
      "display_name":"Khedive",
      "lat":49.6166999,
      "lon":-104.516700000999,
      "province":"SK"
   },
   {
      "display_name":"Killaly",
      "lat":50.756612778,
      "lon":-102.836761137999,
      "province":"SK"
   },
   {
      "display_name":"Kilwinning",
      "lat":53.099801187,
      "lon":-106.661347113999,
      "province":"SK"
   },
   {
      "display_name":"Kincaid",
      "lat":49.671568344,
      "lon":-107.005061550999,
      "province":"SK"
   },
   {
      "display_name":"Kindersley",
      "lat":51.469972211,
      "lon":-109.157423335999,
      "province":"SK"
   },
   {
      "display_name":"King George No. 256",
      "lat":51.139779,
      "lon":-107.4696249,
      "province":"SK"
   },
   {
      "display_name":"Kingsland",
      "lat":51.7650500999999,
      "lon":-108.1281877,
      "province":"SK"
   },
   {
      "display_name":"Kinistino",
      "lat":52.952202664,
      "lon":-105.029351433999,
      "province":"SK"
   },
   {
      "display_name":"Kinley",
      "lat":52.067772599,
      "lon":-107.426940580999,
      "province":"SK"
   },
   {
      "display_name":"Kipling",
      "lat":50.1,
      "lon":-102.633299999999,
      "province":"SK"
   },
   {
      "display_name":"Kisbey",
      "lat":49.6499999,
      "lon":-102.666699899999,
      "province":"SK"
   },
   {
      "display_name":"Kivimaa-Moonlight Bay",
      "lat":53.603640821,
      "lon":-108.664724937999,
      "province":"SK"
   },
   {
      "display_name":"Kopp's Kove",
      "lat":53.528881861,
      "lon":-108.692327390999,
      "province":"SK"
   },
   {
      "display_name":"Kronau",
      "lat":50.304667008,
      "lon":-104.293707840999,
      "province":"SK"
   },
   {
      "display_name":"Krydor",
      "lat":52.788359227,
      "lon":-107.075156761999,
      "province":"SK"
   },
   {
      "display_name":"Kuroki",
      "lat":51.869357672,
      "lon":-103.484840336999,
      "province":"SK"
   },
   {
      "display_name":"Kyle",
      "lat":50.831852631,
      "lon":-108.038368196999,
      "province":"SK"
   },
   {
      "display_name":"Kylemore",
      "lat":51.907058443,
      "lon":-103.641263651999,
      "province":"SK"
   },
   {
      "display_name":"La Loche",
      "lat":56.485757688,
      "lon":-109.434325583999,
      "province":"SK"
   },
   {
      "display_name":"La Ronge",
      "lat":55.107161947,
      "lon":-105.280022775999,
      "province":"SK"
   },
   {
      "display_name":"Lac La Ronge Provincial Park",
      "lat":55.3580059999999,
      "lon":-104.793571,
      "province":"SK"
   },
   {
      "display_name":"Lac Vert",
      "lat":52.503457657,
      "lon":-104.493068995999,
      "province":"SK"
   },
   {
      "display_name":"Lady Lake",
      "lat":52.026828993,
      "lon":-102.625537208999,
      "province":"SK"
   },
   {
      "display_name":"Lafleche",
      "lat":49.705185511,
      "lon":-106.573512173999,
      "province":"SK"
   },
   {
      "display_name":"Laird",
      "lat":52.714685888,
      "lon":-106.588558807999,
      "province":"SK"
   },
   {
      "display_name":"Lajord",
      "lat":50.239396379,
      "lon":-104.147476944999,
      "province":"SK"
   },
   {
      "display_name":"Lake Alma",
      "lat":49.144728001,
      "lon":-104.196830103999,
      "province":"SK"
   },
   {
      "display_name":"Lake Lenore",
      "lat":52.396877294,
      "lon":-104.982922522999,
      "province":"SK"
   },
   {
      "display_name":"Lampman",
      "lat":49.381754518,
      "lon":-102.756449019999,
      "province":"SK"
   },
   {
      "display_name":"Lancer",
      "lat":50.8,
      "lon":-108.883299999999,
      "province":"SK"
   },
   {
      "display_name":"Landis",
      "lat":52.1999999,
      "lon":-108.449999899999,
      "province":"SK"
   },
   {
      "display_name":"Lang",
      "lat":49.919375676,
      "lon":-104.371474025999,
      "province":"SK"
   },
   {
      "display_name":"Langbank",
      "lat":50.049052157,
      "lon":-102.294647458999,
      "province":"SK"
   },
   {
      "display_name":"Langenburg",
      "lat":50.842866958,
      "lon":-101.699846307999,
      "province":"SK"
   },
   {
      "display_name":"Langham",
      "lat":52.360861071,
      "lon":-106.964884124999,
      "province":"SK"
   },
   {
      "display_name":"Lanigan",
      "lat":51.85,
      "lon":-105.033299999999,
      "province":"SK"
   },
   {
      "display_name":"Lanz Point",
      "lat":53.029368099,
      "lon":-108.279766443999,
      "province":"SK"
   },
   {
      "display_name":"Laporte",
      "lat":51.214538723,
      "lon":-109.511616627999,
      "province":"SK"
   },
   {
      "display_name":"Lashburn",
      "lat":53.126897922,
      "lon":-109.613277959999,
      "province":"SK"
   },
   {
      "display_name":"Last Mountain House Provincial Park",
      "lat":50.7709304999999,
      "lon":-104.8780374,
      "province":"SK"
   },
   {
      "display_name":"Laura",
      "lat":51.847959086,
      "lon":-107.280859380999,
      "province":"SK"
   },
   {
      "display_name":"Leacross",
      "lat":53.0499999,
      "lon":-104.049999999999,
      "province":"SK"
   },
   {
      "display_name":"Leader",
      "lat":50.888804622,
      "lon":-109.540179252999,
      "province":"SK"
   },
   {
      "display_name":"Leakville",
      "lat":50.1166968999999,
      "lon":-105.4839018,
      "province":"SK"
   },
   {
      "display_name":"Leask",
      "lat":53.021142938,
      "lon":-106.740729752999,
      "province":"SK"
   },
   {
      "display_name":"Lebret",
      "lat":50.757130942,
      "lon":-103.703882271999,
      "province":"SK"
   },
   {
      "display_name":"Lemberg",
      "lat":50.728118073,
      "lon":-103.204368459999,
      "province":"SK"
   },
   {
      "display_name":"Leoville",
      "lat":53.6332999,
      "lon":-107.549999899999,
      "province":"SK"
   },
   {
      "display_name":"Leross",
      "lat":51.288553,
      "lon":-103.869633315999,
      "province":"SK"
   },
   {
      "display_name":"Leroy",
      "lat":52.000731001,
      "lon":-104.738417668999,
      "province":"SK"
   },
   {
      "display_name":"Leslie Beach",
      "lat":51.815857642,
      "lon":-103.562543190999,
      "province":"SK"
   },
   {
      "display_name":"Lestock",
      "lat":51.312444179,
      "lon":-103.980015536999,
      "province":"SK"
   },
   {
      "display_name":"Levuka",
      "lat":50.1833624999999,
      "lon":-105.4005673,
      "province":"SK"
   },
   {
      "display_name":"Liberty",
      "lat":51.141878099,
      "lon":-105.443808166999,
      "province":"SK"
   },
   {
      "display_name":"Lillestrom",
      "lat":50.2666970999999,
      "lon":-105.8672508,
      "province":"SK"
   },
   {
      "display_name":"Limerick",
      "lat":49.653386331,
      "lon":-106.267086958999,
      "province":"SK"
   },
   {
      "display_name":"Lintlaw",
      "lat":52.064476819,
      "lon":-103.244380704999,
      "province":"SK"
   },
   {
      "display_name":"Lipton",
      "lat":50.901235139,
      "lon":-103.849285030999,
      "province":"SK"
   },
   {
      "display_name":"Lisieux",
      "lat":49.278458103,
      "lon":-105.974662541999,
      "province":"SK"
   },
   {
      "display_name":"Little Fishing Lake",
      "lat":53.859097926,
      "lon":-109.564518878999,
      "province":"SK"
   },
   {
      "display_name":"Little Swan River",
      "lat":52.401303091,
      "lon":-102.164548791999,
      "province":"SK"
   },
   {
      "display_name":"Livelong",
      "lat":53.448498212,
      "lon":-108.704003612999,
      "province":"SK"
   },
   {
      "display_name":"Lizard Lake",
      "lat":52.3167229,
      "lon":-107.933999,
      "province":"SK"
   },
   {
      "display_name":"Lloydminster",
      "lat":53.2779556,
      "lon":-109.9802528,
      "province":"SK"
   },
   {
      "display_name":"Lockwood",
      "lat":51.65,
      "lon":-105.016699899999,
      "province":"SK"
   },
   {
      "display_name":"Lone Rock",
      "lat":53.048954171,
      "lon":-109.879181418999,
      "province":"SK"
   },
   {
      "display_name":"Loon Lake",
      "lat":54.026516319,
      "lon":-109.155681126999,
      "province":"SK"
   },
   {
      "display_name":"Loreburn",
      "lat":51.230854081,
      "lon":-106.598686158999,
      "province":"SK"
   },
   {
      "display_name":"Lost River No. 313",
      "lat":51.7507488999999,
      "lon":-106.1460723,
      "province":"SK"
   },
   {
      "display_name":"Love",
      "lat":53.487035753,
      "lon":-104.165254566999,
      "province":"SK"
   },
   {
      "display_name":"Loverna",
      "lat":51.655042998,
      "lon":-109.990224494999,
      "province":"SK"
   },
   {
      "display_name":"Lucky Lake",
      "lat":50.9833,
      "lon":-107.133299900999,
      "province":"SK"
   },
   {
      "display_name":"Lumsden",
      "lat":50.646606383,
      "lon":-104.867886125999,
      "province":"SK"
   },
   {
      "display_name":"Lumsden Beach",
      "lat":50.76291712,
      "lon":-104.901603099999,
      "province":"SK"
   },
   {
      "display_name":"Luseland",
      "lat":52.081276978,
      "lon":-109.389625444999,
      "province":"SK"
   },
   {
      "display_name":"Macdowall",
      "lat":53.016906454,
      "lon":-106.014743029999,
      "province":"SK"
   },
   {
      "display_name":"Macklin",
      "lat":52.333325116,
      "lon":-109.937347453999,
      "province":"SK"
   },
   {
      "display_name":"MacNutt",
      "lat":51.083862174,
      "lon":-101.604030739999,
      "province":"SK"
   },
   {
      "display_name":"Macoun",
      "lat":49.315022212,
      "lon":-103.262649806999,
      "province":"SK"
   },
   {
      "display_name":"Macrorie",
      "lat":51.326122036,
      "lon":-107.085134646999,
      "province":"SK"
   },
   {
      "display_name":"Magyar",
      "lat":51.1833732,
      "lon":-104.133876,
      "province":"SK"
   },
   {
      "display_name":"Maidstone",
      "lat":53.089445351,
      "lon":-109.288187015999,
      "province":"SK"
   },
   {
      "display_name":"Main Centre",
      "lat":50.582207475,
      "lon":-107.344370323999,
      "province":"SK"
   },
   {
      "display_name":"Major",
      "lat":51.872397536,
      "lon":-109.613559398999,
      "province":"SK"
   },
   {
      "display_name":"Makwa",
      "lat":54.005892513,
      "lon":-108.906328000999,
      "province":"SK"
   },
   {
      "display_name":"Makwa Lake Provincial Park",
      "lat":54.0342879,
      "lon":-109.2309803,
      "province":"SK"
   },
   {
      "display_name":"Malmgren",
      "lat":51.6667161,
      "lon":-107.9173411,
      "province":"SK"
   },
   {
      "display_name":"Manitou Beach",
      "lat":51.7167,
      "lon":-105.433299999999,
      "province":"SK"
   },
   {
      "display_name":"Mankota",
      "lat":49.41988883,
      "lon":-107.070726832999,
      "province":"SK"
   },
   {
      "display_name":"Manor",
      "lat":49.605334923,
      "lon":-102.085271626999,
      "province":"SK"
   },
   {
      "display_name":"Mantario",
      "lat":51.260171702,
      "lon":-109.695465882999,
      "province":"SK"
   },
   {
      "display_name":"Maple Creek",
      "lat":49.906432496,
      "lon":-109.479616127999,
      "province":"SK"
   },
   {
      "display_name":"Marcelin",
      "lat":52.926024277,
      "lon":-106.794314306999,
      "province":"SK"
   },
   {
      "display_name":"Marchwell",
      "lat":50.801267122,
      "lon":-101.575953594999,
      "province":"SK"
   },
   {
      "display_name":"Marengo",
      "lat":51.479431685,
      "lon":-109.782882639999,
      "province":"SK"
   },
   {
      "display_name":"Margo",
      "lat":51.825121256,
      "lon":-103.337337628999,
      "province":"SK"
   },
   {
      "display_name":"Markinch",
      "lat":50.939595737,
      "lon":-104.362204502999,
      "province":"SK"
   },
   {
      "display_name":"Marquis",
      "lat":50.619492959,
      "lon":-105.719157157999,
      "province":"SK"
   },
   {
      "display_name":"Marriott",
      "lat":51.8000501999999,
      "lon":-108.0173459,
      "province":"SK"
   },
   {
      "display_name":"Marriott No. 317",
      "lat":51.7506456,
      "lon":-107.9177452,
      "province":"SK"
   },
   {
      "display_name":"Marsden",
      "lat":52.839335809,
      "lon":-109.822053622999,
      "province":"SK"
   },
   {
      "display_name":"Marshall",
      "lat":53.193489017,
      "lon":-109.778383907999,
      "province":"SK"
   },
   {
      "display_name":"Martensville",
      "lat":52.29215013,
      "lon":-106.657762910999,
      "province":"SK"
   },
   {
      "display_name":"Martinson's Beach",
      "lat":53.0999999,
      "lon":-108.433299899999,
      "province":"SK"
   },
   {
      "display_name":"Maryfield",
      "lat":49.836872342,
      "lon":-101.525929324999,
      "province":"SK"
   },
   {
      "display_name":"Marysburg",
      "lat":52.320393724,
      "lon":-105.085873482999,
      "province":"SK"
   },
   {
      "display_name":"Mayfair (19-46-11-W3)",
      "lat":52.9832999,
      "lon":-107.599999899999,
      "province":"SK"
   },
   {
      "display_name":"Maymont",
      "lat":52.562836788,
      "lon":-107.706786363999,
      "province":"SK"
   },
   {
      "display_name":"Mazenod",
      "lat":49.862704377,
      "lon":-106.217458790999,
      "province":"SK"
   },
   {
      "display_name":"McCord",
      "lat":49.428034765,
      "lon":-106.829722839999,
      "province":"SK"
   },
   {
      "display_name":"McGee",
      "lat":51.502921441,
      "lon":-108.250989416999,
      "province":"SK"
   },
   {
      "display_name":"McKague",
      "lat":52.615107951,
      "lon":-103.940743979999,
      "province":"SK"
   },
   {
      "display_name":"McLean",
      "lat":50.5166999,
      "lon":-104.066699999999,
      "province":"SK"
   },
   {
      "display_name":"McMahon",
      "lat":50.075692842,
      "lon":-107.563179700999,
      "province":"SK"
   },
   {
      "display_name":"McTaggart",
      "lat":49.730295661,
      "lon":-104.010522627999,
      "province":"SK"
   },
   {
      "display_name":"Meacham",
      "lat":52.107453994,
      "lon":-105.760137043999,
      "province":"SK"
   },
   {
      "display_name":"Meadow Lake",
      "lat":54.126580641,
      "lon":-108.434351762999,
      "province":"SK"
   },
   {
      "display_name":"Meadow Lake Provincial Park",
      "lat":54.4838490999999,
      "lon":-108.9488791,
      "province":"SK"
   },
   {
      "display_name":"Meath Park",
      "lat":53.442492838,
      "lon":-105.369231971999,
      "province":"SK"
   },
   {
      "display_name":"Medstead",
      "lat":53.298965518,
      "lon":-108.080193734999,
      "province":"SK"
   },
   {
      "display_name":"Mehan",
      "lat":51.298640406,
      "lon":-102.455152189999,
      "province":"SK"
   },
   {
      "display_name":"Melfort",
      "lat":52.85943917,
      "lon":-104.609857667999,
      "province":"SK"
   },
   {
      "display_name":"Melville",
      "lat":50.933239345,
      "lon":-102.804315912999,
      "province":"SK"
   },
   {
      "display_name":"Melville Beach",
      "lat":50.6167,
      "lon":-102.733299899999,
      "province":"SK"
   },
   {
      "display_name":"Mendham",
      "lat":50.772651911,
      "lon":-109.664471849999,
      "province":"SK"
   },
   {
      "display_name":"Meota",
      "lat":53.035794155,
      "lon":-108.453657493999,
      "province":"SK"
   },
   {
      "display_name":"Mervin",
      "lat":53.334132459,
      "lon":-108.873689250999,
      "province":"SK"
   },
   {
      "display_name":"Meskanaw",
      "lat":52.78138722,
      "lon":-105.080187163999,
      "province":"SK"
   },
   {
      "display_name":"Metinota",
      "lat":53.031710475,
      "lon":-108.398766801999,
      "province":"SK"
   },
   {
      "display_name":"Meyronne",
      "lat":49.66946751,
      "lon":-106.837736651999,
      "province":"SK"
   },
   {
      "display_name":"Michel Village",
      "lat":56.012607189,
      "lon":-109.113490267999,
      "province":"SK"
   },
   {
      "display_name":"Midale",
      "lat":49.397110858,
      "lon":-103.409960764999,
      "province":"SK"
   },
   {
      "display_name":"Middle Lake",
      "lat":52.481298806,
      "lon":-105.305000835999,
      "province":"SK"
   },
   {
      "display_name":"Mikado",
      "lat":51.608827837,
      "lon":-102.269559344999,
      "province":"SK"
   },
   {
      "display_name":"Milden",
      "lat":51.487322532,
      "lon":-107.520014346999,
      "province":"SK"
   },
   {
      "display_name":"Mildred",
      "lat":53.35,
      "lon":-107.333299900999,
      "province":"SK"
   },
   {
      "display_name":"Milestone",
      "lat":49.993131871,
      "lon":-104.516914929999,
      "province":"SK"
   },
   {
      "display_name":"Ministik Beach",
      "lat":51.63782045,
      "lon":-101.624587677999,
      "province":"SK"
   },
   {
      "display_name":"Minowukaw Beach",
      "lat":53.779043232,
      "lon":-105.159840404999,
      "province":"SK"
   },
   {
      "display_name":"Minton",
      "lat":49.165046949,
      "lon":-104.583417872999,
      "province":"SK"
   },
   {
      "display_name":"Missinipe",
      "lat":55.6,
      "lon":-104.766699898999,
      "province":"SK"
   },
   {
      "display_name":"Mistatim",
      "lat":52.871924832,
      "lon":-103.358962005999,
      "province":"SK"
   },
   {
      "display_name":"Mistawasis",
      "lat":53.1832999,
      "lon":-106.800000000999,
      "province":"SK"
   },
   {
      "display_name":"Mistusinne",
      "lat":51.0666667,
      "lon":-106.5333333,
      "province":"SK"
   },
   {
      "display_name":"Mohr's Beach",
      "lat":50.880829367,
      "lon":-105.088419488999,
      "province":"SK"
   },
   {
      "display_name":"Mont Nebo",
      "lat":53.2833,
      "lon":-106.849999999999,
      "province":"SK"
   },
   {
      "display_name":"Montmartre",
      "lat":50.219705805,
      "lon":-103.450191609999,
      "province":"SK"
   },
   {
      "display_name":"Montreal Lake",
      "lat":54.045634699,
      "lon":-105.773455525999,
      "province":"SK"
   },
   {
      "display_name":"Moose Bay",
      "lat":50.613177481,
      "lon":-102.685453707999,
      "province":"SK"
   },
   {
      "display_name":"Moose Jaw",
      "lat":50.4,
      "lon":-105.533299899999,
      "province":"SK"
   },
   {
      "display_name":"Moose Mountain Provincial Park",
      "lat":49.8211693,
      "lon":-102.3760689,
      "province":"SK"
   },
   {
      "display_name":"Moose Range (16-49-12-W2)",
      "lat":53.2332999,
      "lon":-103.699999900999,
      "province":"SK"
   },
   {
      "display_name":"Moose Valley",
      "lat":49.950019,
      "lon":-102.6504969,
      "province":"SK"
   },
   {
      "display_name":"Moosomin",
      "lat":50.14443388,
      "lon":-101.666598729999,
      "province":"SK"
   },
   {
      "display_name":"Morse",
      "lat":50.415906948,
      "lon":-107.039591579999,
      "province":"SK"
   },
   {
      "display_name":"Mortlach",
      "lat":50.454659588,
      "lon":-106.067982767999,
      "province":"SK"
   },
   {
      "display_name":"Mossbank",
      "lat":49.939166755,
      "lon":-105.965733859999,
      "province":"SK"
   },
   {
      "display_name":"Mozart",
      "lat":51.775600981,
      "lon":-103.993937579999,
      "province":"SK"
   },
   {
      "display_name":"Muenster",
      "lat":52.191030398,
      "lon":-104.997256944999,
      "province":"SK"
   },
   {
      "display_name":"Mullingar",
      "lat":53.084837747,
      "lon":-107.662872499999,
      "province":"SK"
   },
   {
      "display_name":"Murray Point",
      "lat":53.606955797,
      "lon":-105.926843663999,
      "province":"SK"
   },
   {
      "display_name":"Naicam",
      "lat":52.417632148,
      "lon":-104.495780077999,
      "province":"SK"
   },
   {
      "display_name":"Narrow Hills Provincial Park",
      "lat":54.0908154999999,
      "lon":-104.6421532,
      "province":"SK"
   },
   {
      "display_name":"Neilburg",
      "lat":52.838668812,
      "lon":-109.624490767999,
      "province":"SK"
   },
   {
      "display_name":"Nesslin Lake",
      "lat":53.93001735,
      "lon":-106.786465221999,
      "province":"SK"
   },
   {
      "display_name":"Netherhill",
      "lat":51.4700826,
      "lon":-108.856402464999,
      "province":"SK"
   },
   {
      "display_name":"Neuanlage",
      "lat":52.453247335,
      "lon":-106.463023255999,
      "province":"SK"
   },
   {
      "display_name":"Neudorf",
      "lat":50.711998661,
      "lon":-103.015219543999,
      "province":"SK"
   },
   {
      "display_name":"Neuhorst",
      "lat":52.400944569,
      "lon":-106.577467086999,
      "province":"SK"
   },
   {
      "display_name":"Neville",
      "lat":49.9667,
      "lon":-107.633299999999,
      "province":"SK"
   },
   {
      "display_name":"Nipawin",
      "lat":53.361263238,
      "lon":-104.013926333999,
      "province":"SK"
   },
   {
      "display_name":"Nokomis",
      "lat":51.508601013,
      "lon":-105.010011307999,
      "province":"SK"
   },
   {
      "display_name":"Norge",
      "lat":49.5000269999999,
      "lon":-107.3006364,
      "province":"SK"
   },
   {
      "display_name":"Norquay",
      "lat":51.8832999,
      "lon":-102.083299899999,
      "province":"SK"
   },
   {
      "display_name":"North Battleford",
      "lat":52.778230855,
      "lon":-108.292085761999,
      "province":"SK"
   },
   {
      "display_name":"North Battleford No. 437",
      "lat":52.7598586,
      "lon":-108.2277652,
      "province":"SK"
   },
   {
      "display_name":"North Colesdale Park",
      "lat":50.957937934,
      "lon":-105.150055485999,
      "province":"SK"
   },
   {
      "display_name":"North Grove",
      "lat":50.696939532,
      "lon":-105.563102151999,
      "province":"SK"
   },
   {
      "display_name":"North Portal",
      "lat":49.004645449,
      "lon":-102.548967484999,
      "province":"SK"
   },
   {
      "display_name":"North Shore Fishing Lake",
      "lat":51.848665759,
      "lon":-103.514844244999,
      "province":"SK"
   },
   {
      "display_name":"North Weyburn",
      "lat":49.692164155,
      "lon":-103.807589512999,
      "province":"SK"
   },
   {
      "display_name":"Northminster",
      "lat":53.3666999,
      "lon":-109.933299899999,
      "province":"SK"
   },
   {
      "display_name":"Northside",
      "lat":53.511473433,
      "lon":-105.766150969999,
      "province":"SK"
   },
   {
      "display_name":"Nut Mountain",
      "lat":52.127098624,
      "lon":-103.379677136999,
      "province":"SK"
   },
   {
      "display_name":"Oakshela",
      "lat":50.394550306,
      "lon":-102.761901073999,
      "province":"SK"
   },
   {
      "display_name":"Odessa",
      "lat":50.2833,
      "lon":-103.783299998999,
      "province":"SK"
   },
   {
      "display_name":"Ogema",
      "lat":49.574684536,
      "lon":-104.914617604999,
      "province":"SK"
   },
   {
      "display_name":"Okla",
      "lat":52.013558705,
      "lon":-103.106687315999,
      "province":"SK"
   },
   {
      "display_name":"Onion Lake",
      "lat":53.715572306,
      "lon":-109.998890933999,
      "province":"SK"
   },
   {
      "display_name":"Orcadia",
      "lat":51.276369279,
      "lon":-102.612805642999,
      "province":"SK"
   },
   {
      "display_name":"Orkney",
      "lat":49.143785668,
      "lon":-107.911276154999,
      "province":"SK"
   },
   {
      "display_name":"Ormiston",
      "lat":49.738481338,
      "lon":-105.393010554999,
      "province":"SK"
   },
   {
      "display_name":"Osage",
      "lat":49.956812404,
      "lon":-103.578994908999,
      "province":"SK"
   },
   {
      "display_name":"Osler",
      "lat":52.367852023,
      "lon":-106.537182284999,
      "province":"SK"
   },
   {
      "display_name":"Otthon",
      "lat":51.097907243,
      "lon":-102.597647756999,
      "province":"SK"
   },
   {
      "display_name":"Ottman - Murray Beach",
      "lat":51.818013795,
      "lon":-103.472440959999,
      "province":"SK"
   },
   {
      "display_name":"Oungre",
      "lat":49.145769461,
      "lon":-103.799498864999,
      "province":"SK"
   },
   {
      "display_name":"Outlook",
      "lat":51.489089846,
      "lon":-107.061851378999,
      "province":"SK"
   },
   {
      "display_name":"Outram",
      "lat":49.144853261,
      "lon":-103.323830932999,
      "province":"SK"
   },
   {
      "display_name":"Oxbow",
      "lat":49.230450796,
      "lon":-102.171857893999,
      "province":"SK"
   },
   {
      "display_name":"Paddockwood",
      "lat":53.507827303,
      "lon":-105.561334886999,
      "province":"SK"
   },
   {
      "display_name":"Pakwaw Lake",
      "lat":53.477329441,
      "lon":-102.652802407999,
      "province":"SK"
   },
   {
      "display_name":"Palmer",
      "lat":49.859899659,
      "lon":-106.353594593999,
      "province":"SK"
   },
   {
      "display_name":"Palo",
      "lat":52.1667,
      "lon":-108.299999999999,
      "province":"SK"
   },
   {
      "display_name":"Pambrun",
      "lat":49.9332999,
      "lon":-107.449999999999,
      "province":"SK"
   },
   {
      "display_name":"Pangman",
      "lat":49.646500549,
      "lon":-104.661550292999,
      "province":"SK"
   },
   {
      "display_name":"Paradise Hill",
      "lat":53.537791486,
      "lon":-109.458057492999,
      "province":"SK"
   },
   {
      "display_name":"Parkbeg",
      "lat":50.454047008,
      "lon":-106.269191814999,
      "province":"SK"
   },
   {
      "display_name":"Parkerview",
      "lat":51.3500035,
      "lon":-103.233832,
      "province":"SK"
   },
   {
      "display_name":"Parkland Beach",
      "lat":53.5513999,
      "lon":-108.694399899999,
      "province":"SK"
   },
   {
      "display_name":"Parkside",
      "lat":53.165617636,
      "lon":-106.535846843999,
      "province":"SK"
   },
   {
      "display_name":"Parkview",
      "lat":50.617156443,
      "lon":-105.458322467999,
      "province":"SK"
   },
   {
      "display_name":"Parry",
      "lat":49.788651893,
      "lon":-104.720050855999,
      "province":"SK"
   },
   {
      "display_name":"Pasqua Lake",
      "lat":50.792815442,
      "lon":-103.961054023999,
      "province":"SK"
   },
   {
      "display_name":"Paswegin",
      "lat":51.993875159,
      "lon":-103.965366187999,
      "province":"SK"
   },
   {
      "display_name":"Pathlow",
      "lat":52.715731989,
      "lon":-104.804864960999,
      "province":"SK"
   },
   {
      "display_name":"Patuanak",
      "lat":55.896356246,
      "lon":-107.705291419999,
      "province":"SK"
   },
   {
      "display_name":"Paynton",
      "lat":53.013913406,
      "lon":-108.935680169999,
      "province":"SK"
   },
   {
      "display_name":"Pebble Baye",
      "lat":53.19148806,
      "lon":-107.008838852999,
      "province":"SK"
   },
   {
      "display_name":"Peebles",
      "lat":50.159269718,
      "lon":-102.948863294999,
      "province":"SK"
   },
   {
      "display_name":"Peerless",
      "lat":54.347359131,
      "lon":-109.229588811999,
      "province":"SK"
   },
   {
      "display_name":"Peesane",
      "lat":52.868163288,
      "lon":-103.600328977999,
      "province":"SK"
   },
   {
      "display_name":"Pelican Cove",
      "lat":53.166829678,
      "lon":-107.053884070999,
      "province":"SK"
   },
   {
      "display_name":"Pelican Narrows",
      "lat":55.1667,
      "lon":-102.933299898999,
      "province":"SK"
   },
   {
      "display_name":"Pelican Point",
      "lat":53.05056115,
      "lon":-108.317567233999,
      "province":"SK"
   },
   {
      "display_name":"Pelican Pointe",
      "lat":50.803800243,
      "lon":-105.031223622999,
      "province":"SK"
   },
   {
      "display_name":"Pelly",
      "lat":51.856182037,
      "lon":-101.929432433999,
      "province":"SK"
   },
   {
      "display_name":"Pemmican Portage",
      "lat":53.9333,
      "lon":-102.283299898999,
      "province":"SK"
   },
   {
      "display_name":"Pennant",
      "lat":50.5333,
      "lon":-108.233300000999,
      "province":"SK"
   },
   {
      "display_name":"Pense",
      "lat":50.4167,
      "lon":-104.983299999999,
      "province":"SK"
   },
   {
      "display_name":"Penzance",
      "lat":51.059052657,
      "lon":-105.438776881999,
      "province":"SK"
   },
   {
      "display_name":"Percival",
      "lat":50.363613488,
      "lon":-102.409287794999,
      "province":"SK"
   },
   {
      "display_name":"Perdue",
      "lat":52.054389672,
      "lon":-107.544385798999,
      "province":"SK"
   },
   {
      "display_name":"Prigord",
      "lat":52.347411291,
      "lon":-103.566127114999,
      "province":"SK"
   },
   {
      "display_name":"Peterson",
      "lat":52.188047808,
      "lon":-105.681434674999,
      "province":"SK"
   },
   {
      "display_name":"Phillips Grove",
      "lat":53.869710899,
      "lon":-106.934827079999,
      "province":"SK"
   },
   {
      "display_name":"Piapot",
      "lat":49.987689919,
      "lon":-109.121111854999,
      "province":"SK"
   },
   {
      "display_name":"Pierceland",
      "lat":54.339259831,
      "lon":-109.781511315999,
      "province":"SK"
   },
   {
      "display_name":"Pike Lake",
      "lat":51.911602076,
      "lon":-106.817666101999,
      "province":"SK"
   },
   {
      "display_name":"Pike Lake Provincial Park",
      "lat":51.8966878999999,
      "lon":-106.818064,
      "province":"SK"
   },
   {
      "display_name":"Pilger",
      "lat":52.425172247,
      "lon":-105.268342348999,
      "province":"SK"
   },
   {
      "display_name":"Pilot Butte",
      "lat":50.4809734,
      "lon":-104.420036179999,
      "province":"SK"
   },
   {
      "display_name":"Pinehouse",
      "lat":55.5193999,
      "lon":-106.573599900999,
      "province":"SK"
   },
   {
      "display_name":"Pleasantdale",
      "lat":52.577871424,
      "lon":-104.506044566999,
      "province":"SK"
   },
   {
      "display_name":"Plenty",
      "lat":51.782908416,
      "lon":-108.646098010999,
      "province":"SK"
   },
   {
      "display_name":"Plunkett",
      "lat":51.907872085,
      "lon":-105.445255975999,
      "province":"SK"
   },
   {
      "display_name":"Ponteix",
      "lat":49.745828435,
      "lon":-107.488719753999,
      "province":"SK"
   },
   {
      "display_name":"Pontrilas",
      "lat":53.2167,
      "lon":-104.033299899999,
      "province":"SK"
   },
   {
      "display_name":"Porcupine Plain",
      "lat":52.5989367,
      "lon":-103.254979783999,
      "province":"SK"
   },
   {
      "display_name":"Powm Beach",
      "lat":53.573378565,
      "lon":-108.704357099999,
      "province":"SK"
   },
   {
      "display_name":"Prairie River",
      "lat":52.861766619,
      "lon":-102.993357990999,
      "province":"SK"
   },
   {
      "display_name":"Preeceville",
      "lat":51.955753235,
      "lon":-102.666145499999,
      "province":"SK"
   },
   {
      "display_name":"Prelate",
      "lat":50.853738515,
      "lon":-109.404318067999,
      "province":"SK"
   },
   {
      "display_name":"Primate",
      "lat":52.263197532,
      "lon":-109.823048516999,
      "province":"SK"
   },
   {
      "display_name":"Prince",
      "lat":52.962388533,
      "lon":-108.366689817999,
      "province":"SK"
   },
   {
      "display_name":"Prince Albert",
      "lat":53.198814462,
      "lon":-105.765140315999,
      "province":"SK"
   },
   {
      "display_name":"Prince Albert National Park of Canada",
      "lat":53.9634521,
      "lon":-106.3698833,
      "province":"SK"
   },
   {
      "display_name":"Prongua",
      "lat":52.743667141,
      "lon":-108.546057484999,
      "province":"SK"
   },
   {
      "display_name":"Prud'homme",
      "lat":52.338403243,
      "lon":-105.890169218999,
      "province":"SK"
   },
   {
      "display_name":"Punnichy",
      "lat":51.37141757,
      "lon":-104.297204275999,
      "province":"SK"
   },
   {
      "display_name":"Qu'Appelle",
      "lat":50.543388366,
      "lon":-103.875741303999,
      "province":"SK"
   },
   {
      "display_name":"Quill Lake",
      "lat":52.071292154,
      "lon":-104.253066754999,
      "province":"SK"
   },
   {
      "display_name":"Quinton",
      "lat":51.384004749,
      "lon":-104.404284156999,
      "province":"SK"
   },
   {
      "display_name":"Rabbit Lake",
      "lat":53.1448631,
      "lon":-107.766763838999,
      "province":"SK"
   },
   {
      "display_name":"Radisson",
      "lat":52.461491097,
      "lon":-107.391514566999,
      "province":"SK"
   },
   {
      "display_name":"Radville",
      "lat":49.461324385,
      "lon":-104.299536013999,
      "province":"SK"
   },
   {
      "display_name":"Rama",
      "lat":51.757432637,
      "lon":-103.001694690999,
      "province":"SK"
   },
   {
      "display_name":"Ranger",
      "lat":53.585411891,
      "lon":-107.701138176999,
      "province":"SK"
   },
   {
      "display_name":"Rapid View",
      "lat":54.1499999,
      "lon":-108.816699999999,
      "province":"SK"
   },
   {
      "display_name":"Raymore",
      "lat":51.409801031,
      "lon":-104.527398016999,
      "province":"SK"
   },
   {
      "display_name":"Red Deer Hill",
      "lat":53.022573461,
      "lon":-105.804841358999,
      "province":"SK"
   },
   {
      "display_name":"Red Earth",
      "lat":53.486101857,
      "lon":-102.861563658999,
      "province":"SK"
   },
   {
      "display_name":"Red Jacket",
      "lat":50.210067001,
      "lon":-101.789954737999,
      "province":"SK"
   },
   {
      "display_name":"Redvers",
      "lat":49.57330749,
      "lon":-101.698443604999,
      "province":"SK"
   },
   {
      "display_name":"Regina",
      "lat":50.4499999,
      "lon":-104.616699899999,
      "province":"SK"
   },
   {
      "display_name":"Regina Beach",
      "lat":50.790538671,
      "lon":-104.980512949999,
      "province":"SK"
   },
   {
      "display_name":"Reliance",
      "lat":49.3500258,
      "lon":-107.3172967,
      "province":"SK"
   },
   {
      "display_name":"Renown",
      "lat":51.6333,
      "lon":-105.549999998999,
      "province":"SK"
   },
   {
      "display_name":"Reserve",
      "lat":52.470114803,
      "lon":-102.643881911999,
      "province":"SK"
   },
   {
      "display_name":"Rex",
      "lat":53.4499999,
      "lon":-109.933299900999,
      "province":"SK"
   },
   {
      "display_name":"Rhein",
      "lat":51.352787408,
      "lon":-102.189923578999,
      "province":"SK"
   },
   {
      "display_name":"Rheinfeld",
      "lat":50.1166999,
      "lon":-107.566699998999,
      "province":"SK"
   },
   {
      "display_name":"Rheinland",
      "lat":52.417384122,
      "lon":-106.505059121999,
      "province":"SK"
   },
   {
      "display_name":"Rhineland",
      "lat":50.1667,
      "lon":-107.649999999999,
      "province":"SK"
   },
   {
      "display_name":"Riceton",
      "lat":50.111225646,
      "lon":-104.318986691999,
      "province":"SK"
   },
   {
      "display_name":"Richard",
      "lat":52.69289976,
      "lon":-107.702952554999,
      "province":"SK"
   },
   {
      "display_name":"Richardson",
      "lat":50.3832999,
      "lon":-104.449999998999,
      "province":"SK"
   },
   {
      "display_name":"Richmound",
      "lat":50.454694184,
      "lon":-109.756137637999,
      "province":"SK"
   },
   {
      "display_name":"Ridgedale",
      "lat":53.056253475,
      "lon":-104.151516288999,
      "province":"SK"
   },
   {
      "display_name":"Riverhurst",
      "lat":50.902548188,
      "lon":-106.867029938999,
      "province":"SK"
   },
   {
      "display_name":"Riversedge",
      "lat":52.2221999,
      "lon":-106.552799999999,
      "province":"SK"
   },
   {
      "display_name":"Riverside Estates",
      "lat":52.047273935,
      "lon":-106.701055086999,
      "province":"SK"
   },
   {
      "display_name":"Robsart",
      "lat":49.3833,
      "lon":-109.283299899999,
      "province":"SK"
   },
   {
      "display_name":"Rocanville",
      "lat":50.3832999,
      "lon":-101.699999899999,
      "province":"SK"
   },
   {
      "display_name":"Roche Percee",
      "lat":49.0667,
      "lon":-102.799999899999,
      "province":"SK"
   },
   {
      "display_name":"Rock Dell",
      "lat":51.1833331999999,
      "lon":-102.9004914,
      "province":"SK"
   },
   {
      "display_name":"Rockglen",
      "lat":49.1833,
      "lon":-105.949999999999,
      "province":"SK"
   },
   {
      "display_name":"Rockhaven",
      "lat":52.67152862,
      "lon":-108.870486464999,
      "province":"SK"
   },
   {
      "display_name":"Rokeby",
      "lat":51.1333,
      "lon":-102.333299898999,
      "province":"SK"
   },
   {
      "display_name":"Rose Valley",
      "lat":52.292913909,
      "lon":-103.810659671999,
      "province":"SK"
   },
   {
      "display_name":"Rosenhof",
      "lat":50.205423061,
      "lon":-107.571488560999,
      "province":"SK"
   },
   {
      "display_name":"Rosetown",
      "lat":51.557137777,
      "lon":-107.984045508999,
      "province":"SK"
   },
   {
      "display_name":"Rosthern",
      "lat":52.6666999,
      "lon":-106.333299999999,
      "province":"SK"
   },
   {
      "display_name":"Rouleau",
      "lat":50.189832264,
      "lon":-104.902318750999,
      "province":"SK"
   },
   {
      "display_name":"Rowan's Ravine Provincial Park",
      "lat":50.9931795,
      "lon":-105.1739199,
      "province":"SK"
   },
   {
      "display_name":"Ruby Beach",
      "lat":52.966493713,
      "lon":-102.347750064999,
      "province":"SK"
   },
   {
      "display_name":"Ruddell",
      "lat":52.605067532,
      "lon":-107.857921746999,
      "province":"SK"
   },
   {
      "display_name":"Runnymede",
      "lat":51.479059169,
      "lon":-101.700925871999,
      "province":"SK"
   },
   {
      "display_name":"Rush Lake",
      "lat":50.405227819,
      "lon":-107.399149819999,
      "province":"SK"
   },
   {
      "display_name":"Ruthilda",
      "lat":51.892058377,
      "lon":-108.466101712999,
      "province":"SK"
   },
   {
      "display_name":"Saint Victor Petroglyphs Provincial Park",
      "lat":49.4114889999999,
      "lon":-105.8703822,
      "province":"SK"
   },
   {
      "display_name":"Saltcoats",
      "lat":51.043068548,
      "lon":-102.163147071999,
      "province":"SK"
   },
   {
      "display_name":"Salvador",
      "lat":52.168106247,
      "lon":-109.508944341999,
      "province":"SK"
   },
   {
      "display_name":"Sandy Bay",
      "lat":55.522690505,
      "lon":-102.302831437999,
      "province":"SK"
   },
   {
      "display_name":"Sarnia Beach",
      "lat":50.995496324,
      "lon":-105.224663284999,
      "province":"SK"
   },
   {
      "display_name":"Saskatchewan Beach",
      "lat":50.795498532,
      "lon":-104.926844149999,
      "province":"SK"
   },
   {
      "display_name":"Saskatchewan Landing Provincial Park",
      "lat":50.6661513999999,
      "lon":-107.9896636,
      "province":"SK"
   },
   {
      "display_name":"Saskatoon",
      "lat":52.130657373,
      "lon":-106.658737162999,
      "province":"SK"
   },
   {
      "display_name":"Sceptre",
      "lat":50.862243549,
      "lon":-109.266727934999,
      "province":"SK"
   },
   {
      "display_name":"Schoenfeld",
      "lat":50.088941326,
      "lon":-107.699070285999,
      "province":"SK"
   },
   {
      "display_name":"Scott",
      "lat":52.3667,
      "lon":-108.833299900999,
      "province":"SK"
   },
   {
      "display_name":"Scout Lake",
      "lat":49.364592145,
      "lon":-105.999899781999,
      "province":"SK"
   },
   {
      "display_name":"Sedley",
      "lat":50.168582614,
      "lon":-104.013658325999,
      "province":"SK"
   },
   {
      "display_name":"Semans",
      "lat":51.406433747,
      "lon":-104.729001735999,
      "province":"SK"
   },
   {
      "display_name":"Senlac",
      "lat":52.49175682,
      "lon":-109.707050976999,
      "province":"SK"
   },
   {
      "display_name":"Serath",
      "lat":51.1833731,
      "lon":-104.5172241,
      "province":"SK"
   },
   {
      "display_name":"Shackleton",
      "lat":50.684872898,
      "lon":-108.605403440999,
      "province":"SK"
   },
   {
      "display_name":"Shamrock",
      "lat":50.160672016,
      "lon":-106.624280344999,
      "province":"SK"
   },
   {
      "display_name":"Shaunavon",
      "lat":49.6499999,
      "lon":-108.416699999999,
      "province":"SK"
   },
   {
      "display_name":"Sheho",
      "lat":51.58832344,
      "lon":-103.213620616999,
      "province":"SK"
   },
   {
      "display_name":"Shell Lake",
      "lat":53.306211662,
      "lon":-107.062906004999,
      "province":"SK"
   },
   {
      "display_name":"Shellbrook",
      "lat":53.223237973,
      "lon":-106.384991556999,
      "province":"SK"
   },
   {
      "display_name":"Shields",
      "lat":51.821367481,
      "lon":-106.418219399999,
      "province":"SK"
   },
   {
      "display_name":"Shipman",
      "lat":53.475831183,
      "lon":-104.981828854999,
      "province":"SK"
   },
   {
      "display_name":"Silton",
      "lat":50.807525635,
      "lon":-104.909994562999,
      "province":"SK"
   },
   {
      "display_name":"Silver Park",
      "lat":52.664992273,
      "lon":-104.523443673999,
      "province":"SK"
   },
   {
      "display_name":"Simmie",
      "lat":49.944044113,
      "lon":-108.105159696999,
      "province":"SK"
   },
   {
      "display_name":"Simpson",
      "lat":51.448584144,
      "lon":-105.443885501999,
      "province":"SK"
   },
   {
      "display_name":"Sintaluta",
      "lat":50.479008612,
      "lon":-103.449101167999,
      "province":"SK"
   },
   {
      "display_name":"Sled Lake",
      "lat":54.4280296,
      "lon":-107.321082416999,
      "province":"SK"
   },
   {
      "display_name":"Sleepy Hollow",
      "lat":53.063111979,
      "lon":-108.320568378999,
      "province":"SK"
   },
   {
      "display_name":"Smeaton",
      "lat":53.492316347,
      "lon":-104.805502655999,
      "province":"SK"
   },
   {
      "display_name":"Smiley",
      "lat":51.631920473,
      "lon":-109.470164785999,
      "province":"SK"
   },
   {
      "display_name":"Smoky Burn",
      "lat":53.3666999,
      "lon":-103.133300000999,
      "province":"SK"
   },
   {
      "display_name":"Snowden",
      "lat":53.491619675,
      "lon":-104.678130300999,
      "province":"SK"
   },
   {
      "display_name":"Sonningdale",
      "lat":52.3832999,
      "lon":-107.683299999999,
      "province":"SK"
   },
   {
      "display_name":"Sorensen Beach",
      "lat":50.8354661,
      "lon":-105.0594861,
      "province":"SK"
   },
   {
      "display_name":"South Allan",
      "lat":51.7667017999999,
      "lon":-106.0672677,
      "province":"SK"
   },
   {
      "display_name":"South Lake",
      "lat":50.676329605,
      "lon":-105.562727503999,
      "province":"SK"
   },
   {
      "display_name":"South Touchwood",
      "lat":51.133373,
      "lon":-104.1172082,
      "province":"SK"
   },
   {
      "display_name":"Southend Reindeer",
      "lat":56.326589767,
      "lon":-103.238509225999,
      "province":"SK"
   },
   {
      "display_name":"Southey",
      "lat":50.940054624,
      "lon":-104.499307888999,
      "province":"SK"
   },
   {
      "display_name":"Sovereign",
      "lat":51.5167,
      "lon":-107.716699999999,
      "province":"SK"
   },
   {
      "display_name":"Spalding",
      "lat":52.328832832,
      "lon":-104.495351463999,
      "province":"SK"
   },
   {
      "display_name":"Speers",
      "lat":52.708262604,
      "lon":-107.558314335999,
      "province":"SK"
   },
   {
      "display_name":"Spinney Hill",
      "lat":52.4667246999999,
      "lon":-107.8006536,
      "province":"SK"
   },
   {
      "display_name":"Spiritwood",
      "lat":53.363979999,
      "lon":-107.518878089999,
      "province":"SK"
   },
   {
      "display_name":"Spring Bay",
      "lat":50.936088547,
      "lon":-105.136343398999,
      "province":"SK"
   },
   {
      "display_name":"Spring Valley",
      "lat":49.943248842,
      "lon":-105.402543358999,
      "province":"SK"
   },
   {
      "display_name":"Springfeld",
      "lat":50.141931974,
      "lon":-107.733531911999,
      "province":"SK"
   },
   {
      "display_name":"Springside (23-27-6-W2)",
      "lat":51.346522103,
      "lon":-102.743427431999,
      "province":"SK"
   },
   {
      "display_name":"Springside (3-32-32-W)",
      "lat":51.7167,
      "lon":-101.916699998999,
      "province":"SK"
   },
   {
      "display_name":"Springwater",
      "lat":51.972701159,
      "lon":-108.378340658999,
      "province":"SK"
   },
   {
      "display_name":"Spruce Bay",
      "lat":53.2069,
      "lon":-107.691699999999,
      "province":"SK"
   },
   {
      "display_name":"Spruce Home",
      "lat":53.394086579,
      "lon":-105.766904980999,
      "province":"SK"
   },
   {
      "display_name":"Spruce Lake",
      "lat":53.542533752,
      "lon":-109.088172907999,
      "province":"SK"
   },
   {
      "display_name":"Spy Hill",
      "lat":50.602240769,
      "lon":-101.684803363999,
      "province":"SK"
   },
   {
      "display_name":"St. Benedict",
      "lat":52.568296168,
      "lon":-105.393597970999,
      "province":"SK"
   },
   {
      "display_name":"St. Brieux",
      "lat":52.635569813,
      "lon":-104.891947897999,
      "province":"SK"
   },
   {
      "display_name":"St. Cyr Lake",
      "lat":54.2166999,
      "lon":-108.066699898999,
      "province":"SK"
   },
   {
      "display_name":"St. George's Hill",
      "lat":55.876940527,
      "lon":-108.960826131999,
      "province":"SK"
   },
   {
      "display_name":"St. Gregor",
      "lat":52.177560443,
      "lon":-104.827125310999,
      "province":"SK"
   },
   {
      "display_name":"St. Isidore-de-Bellevue",
      "lat":52.784293349,
      "lon":-105.921783860999,
      "province":"SK"
   },
   {
      "display_name":"St. Joseph's",
      "lat":50.496584719,
      "lon":-104.179944275999,
      "province":"SK"
   },
   {
      "display_name":"St. Louis",
      "lat":52.915226886,
      "lon":-105.811718806999,
      "province":"SK"
   },
   {
      "display_name":"St. Walburg",
      "lat":53.632608023,
      "lon":-109.197518353999,
      "province":"SK"
   },
   {
      "display_name":"Stalwart",
      "lat":51.233903508,
      "lon":-105.441682195999,
      "province":"SK"
   },
   {
      "display_name":"Stanley Mission",
      "lat":55.414697048,
      "lon":-104.566200420999,
      "province":"SK"
   },
   {
      "display_name":"Star City",
      "lat":52.862544247,
      "lon":-104.332285060999,
      "province":"SK"
   },
   {
      "display_name":"Starblanket",
      "lat":53.368339751,
      "lon":-106.912588183999,
      "province":"SK"
   },
   {
      "display_name":"Steele Narrows Provincial Park",
      "lat":54.0405643999999,
      "lon":-109.3093147,
      "province":"SK"
   },
   {
      "display_name":"Steen",
      "lat":52.680488537,
      "lon":-103.526428600999,
      "province":"SK"
   },
   {
      "display_name":"Stenen",
      "lat":51.900238647,
      "lon":-102.379990699999,
      "province":"SK"
   },
   {
      "display_name":"Stewart Valley",
      "lat":50.597788746,
      "lon":-107.804871558999,
      "province":"SK"
   },
   {
      "display_name":"Stockholm",
      "lat":50.661012294,
      "lon":-102.301997223999,
      "province":"SK"
   },
   {
      "display_name":"Stony Beach",
      "lat":50.471461856,
      "lon":-105.162999284999,
      "province":"SK"
   },
   {
      "display_name":"Stony Rapids",
      "lat":59.253986253,
      "lon":-105.836669667999,
      "province":"SK"
   },
   {
      "display_name":"Stornoway",
      "lat":51.294431069,
      "lon":-102.033950752999,
      "province":"SK"
   },
   {
      "display_name":"Storthoaks",
      "lat":49.389398474,
      "lon":-101.600972906999,
      "province":"SK"
   },
   {
      "display_name":"Stoughton",
      "lat":49.679743193,
      "lon":-103.026861105999,
      "province":"SK"
   },
   {
      "display_name":"Stranraer",
      "lat":51.708199569,
      "lon":-108.485470862999,
      "province":"SK"
   },
   {
      "display_name":"Strasbourg",
      "lat":51.070773036,
      "lon":-104.957745731999,
      "province":"SK"
   },
   {
      "display_name":"Strongfield",
      "lat":51.33378192,
      "lon":-106.595539445999,
      "province":"SK"
   },
   {
      "display_name":"Sturgeon Landing",
      "lat":54.269844778,
      "lon":-101.827299709999,
      "province":"SK"
   },
   {
      "display_name":"Sturgis",
      "lat":51.93708151,
      "lon":-102.532684606999,
      "province":"SK"
   },
   {
      "display_name":"Success",
      "lat":50.459649085,
      "lon":-108.079031870999,
      "province":"SK"
   },
   {
      "display_name":"Summerberry",
      "lat":50.4167,
      "lon":-103.099999999999,
      "province":"SK"
   },
   {
      "display_name":"Summerfield Beach",
      "lat":53.040069772,
      "lon":-108.308283397999,
      "province":"SK"
   },
   {
      "display_name":"Sun Valley",
      "lat":50.654375768,
      "lon":-105.530380449999,
      "province":"SK"
   },
   {
      "display_name":"Sunset Beach",
      "lat":50.602093885,
      "lon":-102.665968459999,
      "province":"SK"
   },
   {
      "display_name":"Sunset Cove",
      "lat":50.811145625,
      "lon":-105.003026181999,
      "province":"SK"
   },
   {
      "display_name":"Sunset View Beach",
      "lat":53.549071883,
      "lon":-108.622806413999,
      "province":"SK"
   },
   {
      "display_name":"Swan Plain",
      "lat":52.115000353,
      "lon":-102.053561592999,
      "province":"SK"
   },
   {
      "display_name":"Swanson",
      "lat":51.7,
      "lon":-107.149999899999,
      "province":"SK"
   },
   {
      "display_name":"Swift Current",
      "lat":50.284442526,
      "lon":-107.791255991999,
      "province":"SK"
   },
   {
      "display_name":"Sylvania",
      "lat":52.694126126,
      "lon":-104.002939062999,
      "province":"SK"
   },
   {
      "display_name":"Tadmore",
      "lat":51.834090214,
      "lon":-102.479351937999,
      "province":"SK"
   },
   {
      "display_name":"Tangleflags",
      "lat":53.4832999,
      "lon":-109.633300000999,
      "province":"SK"
   },
   {
      "display_name":"Tantallon",
      "lat":50.534884685,
      "lon":-101.840877123999,
      "province":"SK"
   },
   {
      "display_name":"Taylor Beach",
      "lat":50.690708562,
      "lon":-103.654457350999,
      "province":"SK"
   },
   {
      "display_name":"Tessier",
      "lat":51.807844137,
      "lon":-107.428510466999,
      "province":"SK"
   },
   {
      "display_name":"The Battlefords Provincial Park",
      "lat":53.1176246,
      "lon":-108.3742684,
      "province":"SK"
   },
   {
      "display_name":"Theodore",
      "lat":51.425738334,
      "lon":-102.920967319999,
      "province":"SK"
   },
   {
      "display_name":"Thode",
      "lat":51.788089967,
      "lon":-106.442335246999,
      "province":"SK"
   },
   {
      "display_name":"Timber Bay",
      "lat":54.158331931,
      "lon":-105.677583477999,
      "province":"SK"
   },
   {
      "display_name":"Tisdale",
      "lat":52.8499999,
      "lon":-104.049999999999,
      "province":"SK"
   },
   {
      "display_name":"Tobin Lake",
      "lat":53.5166999,
      "lon":-103.733299999999,
      "province":"SK"
   },
   {
      "display_name":"Togo",
      "lat":51.402541195,
      "lon":-101.582398942999,
      "province":"SK"
   },
   {
      "display_name":"Tompkins",
      "lat":50.062649393,
      "lon":-108.797007897999,
      "province":"SK"
   },
   {
      "display_name":"Torquay",
      "lat":49.140883727,
      "lon":-103.491223232999,
      "province":"SK"
   },
   {
      "display_name":"Touchwood Hills Post Provincial Park",
      "lat":51.3630632,
      "lon":-104.0965988,
      "province":"SK"
   },
   {
      "display_name":"Touchwood No. 248",
      "lat":51.258184,
      "lon":-104.2775459,
      "province":"SK"
   },
   {
      "display_name":"Tramping Lake",
      "lat":52.1332999,
      "lon":-108.949999999999,
      "province":"SK"
   },
   {
      "display_name":"Tregarva",
      "lat":50.603372418,
      "lon":-104.709220002999,
      "province":"SK"
   },
   {
      "display_name":"Tribune",
      "lat":49.248384773,
      "lon":-103.823616419999,
      "province":"SK"
   },
   {
      "display_name":"Trossachs",
      "lat":49.637080892,
      "lon":-104.224260723999,
      "province":"SK"
   },
   {
      "display_name":"Truax",
      "lat":49.90404901,
      "lon":-104.946000776999,
      "province":"SK"
   },
   {
      "display_name":"Tuffnell",
      "lat":51.642149198,
      "lon":-103.370718268999,
      "province":"SK"
   },
   {
      "display_name":"Tugaske",
      "lat":50.873733195,
      "lon":-106.287157182999,
      "province":"SK"
   },
   {
      "display_name":"Tullymet No. 216",
      "lat":50.9696912999999,
      "lon":-103.4490127,
      "province":"SK"
   },
   {
      "display_name":"Turnor Lake",
      "lat":56.460124436,
      "lon":-108.719581889999,
      "province":"SK"
   },
   {
      "display_name":"Turtle Lake South Bay",
      "lat":53.512223049,
      "lon":-108.704813940999,
      "province":"SK"
   },
   {
      "display_name":"Turtleford",
      "lat":53.388724577,
      "lon":-108.958340013999,
      "province":"SK"
   },
   {
      "display_name":"Tuxford",
      "lat":50.57609085,
      "lon":-105.579714217999,
      "province":"SK"
   },
   {
      "display_name":"Tway",
      "lat":52.737633193,
      "lon":-105.438817777999,
      "province":"SK"
   },
   {
      "display_name":"Tyvan",
      "lat":50.033388264,
      "lon":-103.718375149999,
      "province":"SK"
   },
   {
      "display_name":"Uhl's Bay",
      "lat":50.984282878,
      "lon":-105.140762439999,
      "province":"SK"
   },
   {
      "display_name":"Unity",
      "lat":52.439811018,
      "lon":-109.157569995999,
      "province":"SK"
   },
   {
      "display_name":"Uranium City",
      "lat":59.5666999,
      "lon":-108.616700000999,
      "province":"SK"
   },
   {
      "display_name":"Usherville",
      "lat":52.231355942,
      "lon":-102.656998705999,
      "province":"SK"
   },
   {
      "display_name":"Val Marie",
      "lat":49.245717054,
      "lon":-107.728417157999,
      "province":"SK"
   },
   {
      "display_name":"Valley Centre",
      "lat":51.7833832,
      "lon":-107.8340022,
      "province":"SK"
   },
   {
      "display_name":"Valparaiso",
      "lat":52.851311811,
      "lon":-104.185618484999,
      "province":"SK"
   },
   {
      "display_name":"Vanguard",
      "lat":49.905902124,
      "lon":-107.299440315999,
      "province":"SK"
   },
   {
      "display_name":"Vanscoy",
      "lat":52.001873182,
      "lon":-106.973751419999,
      "province":"SK"
   },
   {
      "display_name":"Vanstone",
      "lat":51.211068325,
      "lon":-102.617290677999,
      "province":"SK"
   },
   {
      "display_name":"Vantage",
      "lat":49.842365789,
      "lon":-106.030605532999,
      "province":"SK"
   },
   {
      "display_name":"Vawn",
      "lat":53.106033358,
      "lon":-108.664405861999,
      "province":"SK"
   },
   {
      "display_name":"Venn",
      "lat":51.6166999,
      "lon":-105.299999999999,
      "province":"SK"
   },
   {
      "display_name":"Veregin",
      "lat":51.5833,
      "lon":-102.083299900999,
      "province":"SK"
   },
   {
      "display_name":"Vibank",
      "lat":50.335420053,
      "lon":-103.947425165999,
      "province":"SK"
   },
   {
      "display_name":"Viscount",
      "lat":51.946422669,
      "lon":-105.648081079999,
      "province":"SK"
   },
   {
      "display_name":"Vonda",
      "lat":52.323603089,
      "lon":-106.095946622999,
      "province":"SK"
   },
   {
      "display_name":"Wadena",
      "lat":51.947135278,
      "lon":-103.796338353999,
      "province":"SK"
   },
   {
      "display_name":"Wakaw",
      "lat":52.648886721,
      "lon":-105.740410357999,
      "province":"SK"
   },
   {
      "display_name":"Wakaw Lake",
      "lat":52.636417989,
      "lon":-105.643897195999,
      "province":"SK"
   },
   {
      "display_name":"Waldeck",
      "lat":50.35904884,
      "lon":-107.595135220999,
      "province":"SK"
   },
   {
      "display_name":"Waldheim",
      "lat":52.618836059,
      "lon":-106.652918417999,
      "province":"SK"
   },
   {
      "display_name":"Waldron",
      "lat":50.85189549,
      "lon":-102.514964202999,
      "province":"SK"
   },
   {
      "display_name":"Wallard",
      "lat":49.5000264999999,
      "lon":-107.4173086,
      "province":"SK"
   },
   {
      "display_name":"Wapella",
      "lat":50.261540097,
      "lon":-101.969675607999,
      "province":"SK"
   },
   {
      "display_name":"Warman",
      "lat":52.318583903,
      "lon":-106.578065026999,
      "province":"SK"
   },
   {
      "display_name":"Warmley",
      "lat":49.8000198999999,
      "lon":-102.683824,
      "province":"SK"
   },
   {
      "display_name":"Wartime",
      "lat":51.213602069,
      "lon":-108.192645195999,
      "province":"SK"
   },
   {
      "display_name":"Waseca",
      "lat":53.100238901,
      "lon":-109.470899557999,
      "province":"SK"
   },
   {
      "display_name":"Waskesiu Lake",
      "lat":53.919981257,
      "lon":-106.079405294999,
      "province":"SK"
   },
   {
      "display_name":"Waterhen Lake",
      "lat":54.5167,
      "lon":-108.416699999999,
      "province":"SK"
   },
   {
      "display_name":"Watrous",
      "lat":51.676784855,
      "lon":-105.463509179999,
      "province":"SK"
   },
   {
      "display_name":"Watson",
      "lat":52.126383784,
      "lon":-104.522288551999,
      "province":"SK"
   },
   {
      "display_name":"Wauchope",
      "lat":49.596436436,
      "lon":-101.903834285999,
      "province":"SK"
   },
   {
      "display_name":"Wawota",
      "lat":49.905697035,
      "lon":-102.022795918999,
      "province":"SK"
   },
   {
      "display_name":"Webb",
      "lat":50.1832999,
      "lon":-108.199999899999,
      "province":"SK"
   },
   {
      "display_name":"Wee Too Beach",
      "lat":50.935430706,
      "lon":-105.169629314999,
      "province":"SK"
   },
   {
      "display_name":"Weekes",
      "lat":52.569687254,
      "lon":-102.870731966999,
      "province":"SK"
   },
   {
      "display_name":"Weirdale",
      "lat":53.447548542,
      "lon":-105.237601751999,
      "province":"SK"
   },
   {
      "display_name":"Weldon",
      "lat":53.008787564,
      "lon":-105.142785583999,
      "province":"SK"
   },
   {
      "display_name":"Welwyn",
      "lat":50.32502678,
      "lon":-101.515461352999,
      "province":"SK"
   },
   {
      "display_name":"West End",
      "lat":50.549181717,
      "lon":-102.415347189999,
      "province":"SK"
   },
   {
      "display_name":"Westview (25,36-22-7-W2)",
      "lat":50.930930276,
      "lon":-102.858255619999,
      "province":"SK"
   },
   {
      "display_name":"Weyakwin",
      "lat":54.431365868,
      "lon":-105.802663489999,
      "province":"SK"
   },
   {
      "display_name":"Weyburn",
      "lat":49.6666999,
      "lon":-103.849999899999,
      "province":"SK"
   },
   {
      "display_name":"White Bear",
      "lat":50.879610962,
      "lon":-108.219481172999,
      "province":"SK"
   },
   {
      "display_name":"White City",
      "lat":50.440912395,
      "lon":-104.368468124999,
      "province":"SK"
   },
   {
      "display_name":"White Fox",
      "lat":53.4499999,
      "lon":-104.083299899999,
      "province":"SK"
   },
   {
      "display_name":"Whitebeech",
      "lat":52.055809123,
      "lon":-101.704288561999,
      "province":"SK"
   },
   {
      "display_name":"Whitecap",
      "lat":51.873075575,
      "lon":-106.700934285999,
      "province":"SK"
   },
   {
      "display_name":"Whitewood",
      "lat":50.3333,
      "lon":-102.266699899999,
      "province":"SK"
   },
   {
      "display_name":"Wilcox",
      "lat":50.098175713,
      "lon":-104.722282723999,
      "province":"SK"
   },
   {
      "display_name":"Wildcat Hill Provincial Park",
      "lat":53.2538213,
      "lon":-102.4842863,
      "province":"SK"
   },
   {
      "display_name":"Wilkie",
      "lat":52.408196437,
      "lon":-108.706344846999,
      "province":"SK"
   },
   {
      "display_name":"Willmar",
      "lat":49.481618253,
      "lon":-102.476427923999,
      "province":"SK"
   },
   {
      "display_name":"Willner No. 253",
      "lat":51.227271,
      "lon":-106.2143139,
      "province":"SK"
   },
   {
      "display_name":"Willow Bunch",
      "lat":49.392207157,
      "lon":-105.632887468999,
      "province":"SK"
   },
   {
      "display_name":"Willowbrook",
      "lat":51.20472889,
      "lon":-102.796887225999,
      "province":"SK"
   },
   {
      "display_name":"Wimmer",
      "lat":52.094990563,
      "lon":-104.398991240999,
      "province":"SK"
   },
   {
      "display_name":"Windthorst",
      "lat":50.108464363,
      "lon":-102.836434696999,
      "province":"SK"
   },
   {
      "display_name":"Wiseton",
      "lat":51.313656007,
      "lon":-107.649021073999,
      "province":"SK"
   },
   {
      "display_name":"Wishart",
      "lat":51.547974812,
      "lon":-103.982641628999,
      "province":"SK"
   },
   {
      "display_name":"Wollaston Lake",
      "lat":58.102317836,
      "lon":-103.149369043999,
      "province":"SK"
   },
   {
      "display_name":"Wolseley",
      "lat":50.423541757,
      "lon":-103.271896039999,
      "province":"SK"
   },
   {
      "display_name":"Wood Mountain",
      "lat":49.370934181,
      "lon":-106.383180483999,
      "province":"SK"
   },
   {
      "display_name":"Wood Mountain Post Provincial Park",
      "lat":49.315629,
      "lon":-106.3787442,
      "province":"SK"
   },
   {
      "display_name":"Wroxton",
      "lat":51.22667567,
      "lon":-101.885782013999,
      "province":"SK"
   },
   {
      "display_name":"Wymark",
      "lat":50.110075603,
      "lon":-107.736078231999,
      "province":"SK"
   },
   {
      "display_name":"Wynyard",
      "lat":51.7666999,
      "lon":-104.183300000999,
      "province":"SK"
   },
   {
      "display_name":"Yarbo",
      "lat":50.6999999,
      "lon":-101.933299900999,
      "province":"SK"
   },
   {
      "display_name":"Yellow Creek",
      "lat":52.75,
      "lon":-105.249999900999,
      "province":"SK"
   },
   {
      "display_name":"Yellow Grass",
      "lat":49.804075619,
      "lon":-104.161395116999,
      "province":"SK"
   },
   {
      "display_name":"Yorkton",
      "lat":51.209785493,
      "lon":-102.448816178999,
      "province":"SK"
   },
   {
      "display_name":"Young",
      "lat":51.767662763,
      "lon":-105.743151454999,
      "province":"SK"
   },
   {
      "display_name":"Zala",
      "lat":51.1833729999999,
      "lon":-104.150543,
      "province":"SK"
   },
   {
      "display_name":"Zealandia",
      "lat":51.615458351,
      "lon":-107.743097329999,
      "province":"SK"
   },
   {
      "display_name":"Zelma",
      "lat":51.842446616,
      "lon":-105.905455019999,
      "province":"SK"
   },
   {
      "display_name":"Zeneta",
      "lat":50.7333,
      "lon":-102.066699999999,
      "province":"SK"
   },
   {
      "display_name":"Zenon Park",
      "lat":53.065867104,
      "lon":-103.756349846999,
      "province":"SK"
   }
]